     3.03           OBSERVATION DATA    M: Mixed            RINEX VERSION / TYPE
Geo++ RINEX Logger  Geo++               20190520 080948 UTC PGM / RUN BY / DATE
************************************************************COMMENT
This file was generated by the Geo++ RINEX Logger App       COMMENT
for Android devices (Version   2.1). If you encounter       COMMENT
any issues, please send an email to android@geopp.de        COMMENT
************************************************************COMMENT
Geo++                                                       MARKER NAME
GEODETIC                                                    MARKER TYPE
Geo++               Geo++                                   OBSERVER / AGENCY
unknown             Xiaomi              MI 8                REC # / TYPE / VERS
unknown             MI 8                                    ANT # / TYPE
3995228.5548 1384965.2055 4759435.1561                      APPROX POSITION XYZ
        0.0000        0.0000        0.0000                  ANTENNA: DELTA H/E/N
G    8 C1C L1C D1C S1C C5Q L5Q D5Q S5Q                      SYS / # / OBS TYPES
R    4 C1C L1C D1C S1C                                      SYS / # / OBS TYPES
E   12 C1B L1B D1B S1B C1C L1C D1C S1C C5Q L5Q D5Q S5Q      SYS / # / OBS TYPES
C    4 C2I L2I D2I S2I                                      SYS / # / OBS TYPES
J    8 C1C L1C D1C S1C C5Q L5Q D5Q S5Q                      SYS / # / OBS TYPES
  2019     5    20     8    10    6.0211900     GPS         TIME OF FIRST OBS
 24 R01  1 R02 -4 R03  5 R04  6 R05  1 R06 -4 R07  5 R08  6 GLONASS SLOT / FRQ #
    R09 -2 R10 -7 R11  0 R12 -1 R13 -2 R14 -7 R15  0 R16 -1 GLONASS SLOT / FRQ #
    R17  4 R18 -3 R19  3 R20  2 R21  4 R22 -3 R23  3 R24  2 GLONASS SLOT / FRQ #
G L1C                                                       SYS / PHASE SHIFT
G L5Q -0.25000                                              SYS / PHASE SHIFT
R L1C                                                       SYS / PHASE SHIFT
E L1B                                                       SYS / PHASE SHIFT
E L1C +0.50000                                              SYS / PHASE SHIFT
E L5Q -0.25000                                              SYS / PHASE SHIFT
C L2I                                                       SYS / PHASE SHIFT
J L1C                                                       SYS / PHASE SHIFT
J L5Q -0.25000                                              SYS / PHASE SHIFT
 C1C    0.000 C1P    0.000 C2C    0.000 C2P    0.000        GLONASS COD/PHS/BIS
                                                            END OF HEADER
> 2019  5 20  8 10  6.0002119  3  1
Geo++                                                       MARKER NAME
> 2019  5 20  8 10  6.0002119  0 25
C12  24861393.116   129459797.6461      -2204.956          34.463  
C13  39155619.529   203893585.4841       1775.204          31.183  
C20  25809539.228                         702.029          24.754  
C23  22630106.803   117840904.4641       1755.206          38.520  
C25  22013873.213   114632014.3481       -986.713          34.914  
E03                                                                                                                                  25335457.028    99421774.3791       -743.156          35.956  
E11                                                                                                                                  25368687.523    99552178.4191       2401.627          29.127  
E12                                                                                                                                  23627931.523    92721077.7711       1072.026          37.013  
E25                                                                  23312697.355   122509050.9841       1207.875          37.307    23312700.054    91484041.7321        902.041          35.564  
G06  24388792.490   128163968.6121       2968.142          35.331  
G12  21111966.490   110944132.2131       2306.714          45.094  
G13  24629340.862   129428059.3641      -3835.955          34.263  
G15  23112480.962   121456907.1291      -3244.343          36.494  
G17  22502769.357   118252850.6531      -1951.184          42.285  
G19  21043030.713   110581872.0481       -446.243          30.243  
G24  20200140.833   106152456.3851        371.530          41.462    20200139.335    79269684.6021        277.448          37.531  
G25  24501524.647                        3508.052          20.397    24501481.477                        2617.442          19.412  
G28  25487033.594                       -2878.293          12.215  
R01  21485716.848   114853469.5391      -1348.681          27.802  
R02  23283807.256   124246856.9541       2847.798          38.190  
R08  22605619.755   121052067.0111      -3775.498          33.421  
R09  21514825.196   114887965.4751      -2648.353          39.937  
R10  19468476.954   103777936.5281       -161.037          42.867  
R11  21478982.610   114777170.1581       2923.607          37.551  
R19  21545885.794                       -1927.894          22.882  
> 2019  5 20  8 10  7.0002120  0 27
C12  24861848.201   129462159.691       -2205.935          35.154  
C13  39155312.541   203891967.212        1774.383          32.715  
C20  25809437.898                         701.978          25.528  
C23  22629798.017   117839306.263        1754.310          38.908  
C24  26067021.077   135737861.4561      -2735.214          32.945  
C25  22014092.361   114633158.177        -987.719          36.036  
E03                                                                                                                                  25335676.176    99422636.200        -744.177          36.697  
E11                                                                                                                                  25368105.626    99549894.872        2401.191          30.332  
E12                                                                                                                                  23627688.691    92720124.215        1071.201          37.351  
E25                                                                  23312497.094   122508001.526        1207.001          37.265    23312500.392    91483258.091         901.287          35.764  
G06  24388262.157   128161158.795        2967.360          34.647  
G12  21111556.973   110941984.184        2305.571          45.424  
G13  24630100.236   129432053.684       -3836.778          36.616  
G15  23113126.116   121460310.034       -3245.363          35.342  
G17  22503169.580   118254960.623       -1952.428          41.192  
G19  21043145.833   110582476.683        -447.093          29.402  
G24  20200101.860   106152243.601         370.326          41.387    20200098.563    79269525.767         276.481          37.033  
G25  24500879.494                        3505.643          21.378    24500842.919                        2612.022          19.587  
G28  25487604.698                       -2882.372          12.682  
G32  24909025.341   130897800.3961       3272.372          25.205  
R01  21485997.753   114854979.938       -1350.143          29.385  
R02  23283303.305   124244170.410        2846.519          37.992  
R08  22606357.544   121056004.046       -3776.497          33.931  
R09  21515369.320   114890774.842       -2649.280          38.727  
R10  19468537.812   103778258.514        -162.180          43.540  
R11  21478459.472   114774407.696        2922.662          36.485  
R19  21546302.205                       -1932.499          20.713  
> 2019  5 20  8 10  8.0002120  0 24
C12  24862272.707   129464366.430       -2206.739          37.587  
C13  39154971.677   203890193.442        1773.769          35.059  
C20  25809301.492   134395788.5501        704.777          25.564  
C23  22629463.149   117837552.581        1753.683          38.757  
C25  22014286.027   114634146.533        -988.357          35.645  
E03                                                                                                                                  25335865.945    99423380.887        -744.687          34.702  
E11                                                                                                                                  25367494.949    99547494.138        2400.735          30.274  
E12                                                                                                                                  23627416.780    92719053.652        1070.563          37.482  
E25                                                                  23312268.652   122506795.048        1206.477          36.863    23312271.950    91482357.174         900.917          35.119  
G06  24387695.849   128158192.123        2966.672          31.625  
G12  21111121.974   110939679.355        2304.829          45.300  
G13  24630829.931   129435890.780       -3837.096          34.109  
G15  23113731.996   121463555.979       -3245.945          34.806  
G17  22503541.922   118256913.869       -1953.245          39.000  
G19  21043209.989   110582925.969        -449.286          32.314  
G24  20200031.709   106151874.184         369.417          41.521    20200029.910    79269249.905         275.861          37.955  
G25                                                                  24500176.481                        2613.260          18.199  
R01  21486255.875   114856331.449       -1351.510          29.308  
R02  23282776.569   124241325.017        2845.393          38.884  
R08  22607042.870   121059781.304       -3777.258          35.222  
R09  21515859.780   114893424.792       -2649.950          36.602  
R10  19468554.001   103778421.510        -162.995          44.213  
R11  21477921.644   114771485.696        2922.000          36.955  
R19  21546609.493                       -1929.356          25.087  
> 2019  5 20  8 10  9.0002121  0 27
C12  24862726.593   129466729.933       -2207.394          38.007  
C13  39154660.193   203888576.127        1773.425          33.302  
C20  25809195.366                         703.655          25.223  
C23  22629156.461   117835955.462        1753.228          38.806  
C24  26068099.130   135743489.6161      -2736.142          30.228  
C25  22014504.276   114635291.590        -988.947          36.252  
E03                                                                                                                                  25336085.693    99424243.645        -745.113          34.778  
E11                                                                                                                                  25366912.752    99545211.236        2400.546          31.695  
E12                                                                                                                                  23627173.348    92718101.260        1070.036          36.863  
E25                                                                  23312068.691   122505746.619        1205.972          37.986    23312072.288    91481574.208         900.611          36.613  
G06  24387156.823   128155383.442        2966.223          32.496  
G10  24878955.258                       -1672.939          22.255  
G12  21110711.858   110937532.631        2304.266          43.670  
G13  24631590.205   129439885.702       -3837.380          39.654  
G15  23114389.741   121466959.793       -3246.272          40.772  
G17  22503943.944   118259025.198       -1953.788          38.709  
G19  21043325.709                        -452.941          29.969  
G24  20199990.338   106151663.054         368.672          41.389    20199989.738    79269092.222         275.329          37.429  
G25                                                                  24499538.223                        2614.924          17.161  
G32  24907804.586   130891414.9321       3271.246          25.682  
R01  21486544.575   114857844.126       -1352.421          28.917  
R02  23282266.922   124238640.297        2844.696          38.617  
R08  22607782.458   121063719.579       -3777.738          35.440  
R09  21516385.916   114896235.179       -2650.299          37.818  
R10  19468619.055   103778744.908        -163.592          44.121  
R11  21477400.905   114768724.168        2921.728          36.795  
R19  21547003.120                       -1929.427          25.072  
> 2019  5 20  8 10 10.0002122  0 25
C12  24863179.879   129469093.895       -2207.852          37.291  
C13  39154349.308   203886959.151        1773.086          33.842  
C20  25809091.937   134394693.4691        703.325          25.774  
C23  22628850.673   117834358.682        1752.890          39.957  
C24  26068654.046   135746382.045       -2736.319          29.891  
C25  22014722.525   114636437.066        -989.366          37.545  
E03                                                                                                                                  25336306.940    99425106.891        -745.601          35.856  
E11                                                                                                                                  25366330.555    99542928.523        2400.358          31.846  
E12                                                                                                                                  23626930.816    92717149.233        1069.672          36.768  
E25                                                                  23311868.130   122504698.494        1205.667          38.217    23311871.727    91480791.487         900.366          36.470  
G06  24386627.089   128152575.058        2965.926          31.978  
G12  21110302.642   110935386.494        2303.679          43.363  
G13  24632348.980   129443880.809       -3837.565          39.942  
G15  23115036.993   121470364.141       -3246.806          41.010  
G17  22504345.965   118261137.399       -1954.659          38.602  
G19  21043435.133   110584141.4081       -450.529          28.948  
G24  20199954.662   106151452.560         368.035          41.118    20199949.866    79268935.035         274.831          39.531  
G32  24907207.399   130888301.702        3270.772          25.490  
R01  21486825.180   114859357.806       -1353.423          29.802  
R02  23281768.367   124235956.503        2843.769          39.240  
R08  22608519.348   121067658.334       -3778.218          35.588  
R09  21516906.056   114899046.008       -2650.742          38.898  
R10  19468679.014   103779068.942        -164.228          44.720  
R11  21476898.153   114765963.090        2921.278          37.453  
R19  21547389.553   115264166.5831      -1931.236          25.859  
> 2019  5 20  8 10 11.0002122  0 25
C12  24863602.286   129471302.227       -2208.332          38.034  
C13  39154006.645   203885186.127        1773.024          34.025  
C20  25808954.932   134393990.700         702.769          25.835  
C23  22628513.406   117832606.174        1752.508          38.396  
C24  26069179.583   135749118.585       -2736.539          28.997  
C25  22014913.193   114637426.943        -989.877          39.027  
E03                                                                                                                                  25336496.109    99425852.828        -745.937          35.286  
E11                                                                                                                                  25365720.177    99540528.184        2400.339          31.631  
E12                                                                                                                                  23626658.005    92716079.969        1069.265          37.091  
E25                                                                  23311643.285   122503493.072        1205.422          37.748    23311643.585    91479891.315         900.173          36.671  
G06  24386060.482   128149609.493        2965.565          32.833  
G10  24879626.193                       -1677.151          21.516  
G12  21109865.544   110933083.139        2303.355          43.745  
G13  24633080.173   129447718.448       -3837.639          40.977  
G15  23115663.859   121473611.185       -3247.044          44.195  
G17  22504712.612   118263092.488       -1955.088          37.722  
G24  20199881.213   106151084.996         367.565          40.340    20199879.414    79268660.514         274.521          38.566  
G32  24906584.430   130885031.194        3270.508          24.850  
R01  21487074.008   114860712.069       -1354.264          30.084  
R02  23281236.535   124233113.414        2843.090          39.013  
R08  22609212.168   121071437.042       -3778.708          33.625  
R09  21517404.311   114901697.075       -2651.067          39.145  
R10  19468708.993   103779233.612        -164.670          44.291  
R11  21476351.331   114763041.951        2921.139          38.551  
R19  21547740.610                       -1932.813          25.557  
> 2019  5 20  8 10 12.0002123  0 27
C12  24864057.371   129473667.344       -2209.007          38.073  
C13  39153696.960   203883569.604        1772.632          33.561  
C20  25808853.003                         704.319          26.122  
C23  22628209.117   117831010.151        1752.133          39.525  
C24  26069731.201   135752011.399       -2736.704          28.409  
C25  22015136.538   114638573.311        -990.259          38.622  
E03                                                                                                                                  25336717.056    99426717.016        -746.543          36.019  
E11                                                                                                                                  25365137.681    99538245.741        2400.088          31.045  
E12                                                                                                                                  23626416.672    92715128.825        1068.788          37.224  
E25                                                                  23311440.925   122502445.587        1205.027          37.714    23311441.825    91479109.174         899.785          34.374  
G06  24385527.451   128146801.716        2965.319          33.260  
G10  24879977.550                       -1679.095          21.869  
G12  21109455.128   110930937.983        2302.698          44.124  
G13  24633838.648   129451713.883       -3837.893          41.061  
G15  23116307.513   121477016.239       -3247.512          46.066  
G17  22505113.134   118265205.668       -1955.639          39.005  
G19  21043644.688   110585202.5941       -452.417          29.317  
G24  20199839.242   106150875.788         366.750          41.587    20199838.643    79268504.309         273.850          38.353  
G25  24497654.327   128735988.7151       3502.962          23.900  
G32  24906002.233   130881918.800        3269.936          25.132  
R01  21487347.719   114862227.640       -1355.314          29.115  
R02  23280741.278   124230431.200        2842.188          38.698  
R08  22609953.555   121075376.870       -3779.290          33.706  
R09  21517930.747   114904508.693       -2651.530          38.596  
R10  19468775.547   103779558.726        -165.308          44.451  
R11  21475838.686   114760281.421        2920.730          38.144  
R19  21548124.344                       -1935.154          24.656  
> 2019  5 20  8 10 13.0002124  0 25
C12  24864512.456   129476032.834       -2209.380          38.621  
C13  39153387.874   203881953.230        1772.484          33.673  
C20  25808751.073   134392899.6591        701.299          26.746  
C23  22627903.029   117829414.441        1751.820          40.755  
C24  26070283.119                       -2738.324          27.438  
C25  22015356.586   114639720.057        -990.635          37.578  
E03                                                                                                                                  25336936.504    99427581.433        -746.772          36.772  
E11                                                                                                                                  25364556.083    99535963.447        2399.939          30.721  
E12                                                                                                                                  23626173.840    92714178.083        1068.387          36.962  
E25                                                                  23311242.163   122501398.310        1204.819          37.892    23311244.861    91478327.079         899.741          34.765  
G06  24384991.722   128143994.488        2964.770          33.648  
G12  21109046.811   110928793.285        2302.240          41.835  
G13  24634598.023   129455709.380       -3837.954          40.375  
G15  23116956.264   121480421.571       -3247.790          46.412  
G17  22505516.355   118267319.571       -1956.360          37.873  
G19  21043758.909   110585813.408        -453.273          29.902  
G24  20199801.468   106150667.140         366.190          41.904    20199799.670    79268348.457         273.496          38.990  
G25  24497012.771   128732643.159        3503.098          23.347  
R01  21487619.331   114863744.186       -1356.290          31.542  
R02  23280246.321   124227749.733        2841.442          38.464  
R08  22610676.954   121079316.626       -3779.219          30.511  
R09  21518441.293   114907320.610       -2651.830          37.866  
R10  19468833.407   103779884.368        -165.836          44.385  
R11  21475331.437   114757521.250        2920.371          38.039  
R19  21548526.366                       -1934.971          23.192  
> 2019  5 20  8 10 14.0002124  0 27
C12  24864938.162   129478242.682       -2209.848          38.107  
C13  39153049.708   203880181.059        1772.171          33.920  
C20  25808617.066   134392198.808         700.851          27.045  
C23  22627564.563   117827662.908        1751.534          39.960  
C24  26070797.862                       -2737.421          25.039  
C25  22015544.855   114640711.092        -991.035          38.786  
E03                                                                                                                                  25337125.673    99428328.634        -747.201          34.912  
E11                                                                                                                                  25363944.806    99533563.543        2399.904          31.028  
E12                                                                                                                                  23625901.928    92713110.083        1068.000          36.920  
E25                                                                  23311012.222   122500193.735        1204.575          36.928    23311014.920    91477427.508         899.571          36.877  
G06  24384423.615   128141029.842        2964.647          32.382    24384427.212    95689724.2091       2213.759          28.843  
G10  24880648.485                       -1674.206          21.553  
G12  21108607.015   110926491.455        2301.830          40.998  
G13  24635331.015   129459547.533       -3838.153          40.803  
G15  23117575.336   121483669.683       -3248.112          45.775  
G17  22505890.196   118269276.330       -1956.759          38.096  
G19  21043843.151   110586267.304        -453.895          27.956  
G24  20199728.619   106150301.507         365.633          42.590    20199731.017    79268075.446         273.011          39.750  
G25  24496347.232                        3502.245          24.315  
G32  24904781.778   130875537.4851       3269.225          26.079  
R01  21487873.854   114865101.260       -1357.074          31.079  
R02  23279707.294   124224908.945        2840.789          38.442  
R08  22611418.641   121083096.516       -3779.890          35.238  
R09  21518940.148   114909972.735       -2652.124          39.043  
R10  19468870.282   103780050.675        -166.307          45.173  
R11  21474800.205   114754601.153        2920.096          35.613  
R19  21548908.301                       -1933.871          23.517  
> 2019  5 20  8 10 15.0002125  0 27
C12  24865391.448   129480609.232       -2210.441          38.047  
C13  39152729.230   203878565.367        1771.802          32.584  
C20  25808512.139   134391654.950         699.968          27.387  
C23  22627258.475   117826067.959        1751.058          40.153  
C24  26071352.478                       -2735.816          24.475  
C25  22015763.704   114641858.794        -991.592          38.898  
E03                                                                                                                                  25337346.620    99429194.033        -747.754          34.590  
E11                                                                                                                                  25363364.108    99531281.467        2399.722          31.809  
E12                                                                                                                                  23625659.696    92712160.186        1067.542          37.163  
E25                                                                  23310814.059   122499147.139        1204.138          38.155    23310815.258    91476645.946         899.207          36.419  
G06  24383887.286   128138223.075        2964.308          31.614    24383892.682    95687628.291        2213.563          28.962  
G10  24880992.947                       -1678.563          21.423  
G12  21108199.897   110924347.825        2301.172          43.127  
G13  24636090.090   129463543.387       -3838.312          40.321  
G15  23118225.585   121487075.737       -3248.511          45.763  
G17  22506290.419   118271391.413       -1957.541          36.745  
G19  21043961.868   110586879.737        -454.891          27.658  
G24  20199691.445   106150094.144         364.905          41.721    20199691.145    79267920.594         272.497          40.041  
G25  24495714.070                        3501.769          24.906  
G32  24904188.789   130872426.135        3268.892          26.282  
R01  21488145.766   114866619.663       -1358.147          30.998  
R02  23279200.045   124222228.936        2839.983          38.773  
R08  22612141.740   121087037.459       -3780.405          34.771  
R09  21519460.288   114912785.371       -2652.549          38.841  
R10  19468929.640   103780377.449        -166.968          44.846  
R11  21474252.484   114751841.631        2919.722          35.578  
R19  21549300.730                       -1933.765          23.997  
> 2019  5 20  8 10 16.0002126  0 27
C12  24865844.434   129482976.183       -2210.840          37.783  
C13  39152426.139   203876949.694        1771.783          32.399  
C20  25808409.010   134391111.482         699.578          26.707  
C23  22626952.087   117824473.161        1750.908          40.780  
C24  26071923.583                       -2738.562          26.150  
C25  22015982.552   114643006.669        -991.766          38.462  
E03                                                                                                                                  25337567.567    99430059.768        -748.090          36.572  
E11                                                                                                                                  25362781.312    99528999.506        2399.606          31.656  
E12                                                                                                                                  23625417.464    92711210.595        1067.237          36.811  
E25                                                                  23310615.597   122498100.659        1204.022          38.484    23310615.896    91475864.509         899.082          35.179  
G06  24383360.851   128135416.676        2963.941          32.662    24383359.052    95685532.570        2213.367          28.333  
G10  24881348.201                       -1682.361          21.524  
G12  21107792.180   110922204.476        2300.891          44.245  
G13  24636850.064   129467539.270       -3838.341          40.149  
G15  23118873.437   121490482.010       -3248.731          45.511  
G17  22506686.145   118273506.919       -1957.964          35.103  
G19  21044079.987   110587492.888        -455.610          28.530  
G24  20199649.174   106149887.203         364.483          41.446    20199650.973    79267766.054         272.185          39.375  
G25  24495072.814   128722451.8121       3502.161          24.828  
G32  24903599.697   130869315.228        3268.449          26.334  
R01  21488436.565   114868138.971       -1359.051          31.126  
R02  23278696.694   124219549.486        2839.425          39.220  
R08  22612862.141   121090978.669       -3780.672          33.551  
R09  21519978.329   114915598.219       -2652.760          38.169  
R10  19468993.196   103780704.597        -167.341          44.835  
R11  21473734.743   114749082.113        2919.719          36.190  
R19  21549689.261                       -1935.486          23.541  
> 2019  5 20  8 10 17.0002126  0 27
C12  24866271.339   129485187.559       -2211.377          37.037  
C13  39152084.976   203875178.178        1771.516          33.359  
C20  25808274.403   134390412.597         698.885          27.516  
C23  22626613.322   117822722.696        1750.466          40.481  
C24  26072451.517   135766170.6521      -2737.722          27.912  
C25  22016169.623   114643998.964        -992.295          38.628  
E03                                                                                                                                  25337760.334    99430808.189        -748.421          34.557  
E11                                                                                                                                  25362170.934    99526600.024        2399.481          30.970  
E12                                                                                                                                  23625145.552    92710143.826        1066.769          36.925  
E25                                                                  23310386.555   122496896.987        1203.672          38.095    23310387.155    91474965.655         898.854          36.138  
G06  24382797.241   128132453.000        2963.676          32.810  
G10  24881666.880                       -1680.789          21.963  
G12  21107355.082   110919904.150        2300.326          44.066  
G13  24637580.658   129471377.769       -3838.499          40.011  
G15  23119493.108   121493731.134       -3249.125          45.920  
G17  22507061.186   118275465.429       -1958.511          35.902  
G19  21044162.130   110587949.209        -456.321          28.265  
G24  20199580.821   106149523.385         363.818          40.815    20199582.920    79267494.371         271.682          38.961  
G25  24494404.577   128718949.966        3501.846          24.859  
G32  24902974.929   130866047.183        3268.045          26.914  
R01  21488703.680   114869498.827       -1359.856          30.443  
R02  23278157.067   124216710.911        2838.574          39.082  
R08  22613577.746   121094759.836       -3781.168          34.073  
R09  21520472.087   114918251.434       -2653.215          37.379  
R10  19469021.077   103780872.531        -167.934          45.077  
R11  21473171.733   114746162.839        2919.273          36.411  
R19  21550049.911                       -1937.519          24.900  
> 2019  5 20  8 10 18.0002127  0 27
C12  24866725.824   129487555.321       -2211.652          37.479  
C13  39151774.091   203873562.959        1771.329          33.319  
C20  25808173.373   134389870.349         698.358          27.140  
C23  22626307.233   117821128.541        1750.265          39.318  
C24  26073006.733   135769064.297       -2737.536          27.896  
C25  22016388.471   114645147.616        -992.542          37.567  
E03                                                                                                                                  25337979.182    99431674.624        -748.790          36.026  
E11                                                                                                                                  25361589.337    99524318.234        2399.435          31.274  
E12                                                                                                                                  23624904.219    92709195.008        1066.463          36.972  
E25                                                                  23310189.292   122495850.998        1203.531          38.123    23310188.392    91474184.592         898.708          36.798  
G06  24382264.510   128129647.125        2963.417          33.021  
G10  24882015.539                       -1675.678          22.893  
G12  21106943.467   110917761.692        2300.000          43.594  
G13  24638342.131   129475373.878       -3838.566          40.631  
G15  23120141.259   121497137.984       -3249.308          45.604  
G17  22507468.304   118277581.927       -1958.956          36.846  
G19  21044282.946   110588564.037        -457.286          31.316  
G24  20199541.848   106149317.564         363.363          40.715    20199543.047    79267340.683         271.334          39.207  
G25  24493768.417   128715605.740        3501.768          24.910  
G32  24902388.235                        3267.943          25.972  
R01  21488993.579   114871019.811       -1360.728          31.850  
R02  23277663.609   124214032.903        2837.984          39.076  
R08  22614311.638   121098701.789       -3781.416          34.200  
R09  21520999.722   114921064.916       -2653.395          37.826  
R10  19469096.625   103781200.688        -168.351          44.992  
R11  21472656.989   114743403.819        2919.220          33.325  
R19  21550437.243   115280451.7281      -1938.507          25.107  
> 2019  5 20  8 10 19.0002128  0 27
C12  24867181.209   129489923.565       -2212.134          37.114  
C13  39151463.506   203871947.832        1771.237          32.594  
C20  25808069.345   134389328.650         697.809          26.067  
C23  22625999.646   117819534.633        1750.018          37.214  
C24  26073559.550   135771958.385       -2737.978          27.543  
C25  22016604.622   114646296.626        -992.901          37.335  
E03                                                                                                                                  25338200.729    99432541.324        -749.055          34.198  
E11                                                                                                                                  25361007.440    99522036.529        2399.350          31.378  
E12                                                                                                                                  23624662.886    92708246.542        1066.111          36.626  
E25                                                                  23309989.030   122494805.232        1203.308          36.453    23309989.330    91473403.674         898.562          36.738  
G06  24381732.078   128126841.415        2963.253          32.751  
G10  24882372.892                       -1678.137          22.094  
G12  21106540.546   110915619.660        2299.575          44.801  
G13  24639100.606   129479369.960       -3838.541          40.231  
G15  23120788.511   121500545.079       -3249.553          45.327  
G17  22507867.028   118279698.924       -1959.456          36.814  
G19  21044403.463   110589179.457        -457.878          31.846  
G24  20199499.577   106149112.326         362.780          40.094    20199503.475    79267187.394         270.933          39.247  
G25  24493134.356                        3501.777          24.653  
G32  24901799.743   130859826.9391       3267.456          24.350  
R01  21489276.284   114872541.669       -1361.603          30.769  
R02  23277157.859   124211355.589        2837.289          36.939  
R08  22615062.918   121102644.094       -3781.767          34.844  
R09  21521528.856   114923878.654       -2653.651          37.567  
R10  19469149.089   103781529.293        -168.799          44.775  
R11  21472138.648   114740645.122        2918.897          34.471  
R19  21550828.172                       -1937.629          24.775  
> 2019  5 20  8 10 20.0002128  0 26
C12  24867606.015   129492136.208       -2212.642          37.249  
C20  25807934.139                         696.662          25.808  
C23  22625663.879   117817784.916        1749.717          38.193  
C24  26074078.191                       -2737.393          26.198  
C25  22016797.688   114647289.888        -993.261          37.346  
E03                                                                                                                                  25338391.996    99433290.842        -749.517          35.698  
E11                                                                                                                                  25360395.563    99519637.246        2399.283          30.979  
E12                                                                                                                                  23624392.473    92707180.789        1065.753          36.719  
E25                                                                  23309763.287   122493602.165        1203.067          37.194    23309760.289    91472505.297         898.377          36.135  
G06  24381163.072   128123878.475        2962.939          33.438  
G10  24882687.674                       -1681.048          21.875  
G12  21106102.249   110913320.560        2299.100          44.822  
G13  24639830.900   129483208.665       -3838.704          40.278  
G15  23121407.882   121503794.988       -3249.909          45.293  
G17  22508236.672   118281659.002       -1960.078          35.856  
G19  21044491.901   110589638.230        -458.774          32.477  
G24  20199430.325   106148750.056         362.270          39.600    20199434.522    79266916.905         270.489          39.305  
G25  24492471.215                        3500.619          24.026  
G32  24901170.778   130856559.767        3267.172          24.813  
R01  21489535.604   114873904.058       -1362.388          31.165  
R02  23276635.620   124208519.070        2836.519          37.668  
R08  22615771.028   121106426.284       -3782.190          34.492  
R09  21522028.909   114926532.632       -2653.978          38.302  
R10  19469174.871   103781698.622        -169.329          44.434  
R11  21471593.025   114737726.544        2918.578          36.752  
R19  21551193.020   115284491.6351      -1940.234          26.330  
> 2019  5 20  8 10 21.0002129  0 27
C12  24868061.999   129494505.446       -2213.128          37.601  
C13  39150817.753   203868562.2901       1770.675          34.339  
C20  25807827.413                         695.848          24.441  
C23  22625360.489   117816191.723        1749.302          40.038  
C24  26074633.107   135777590.7161      -2738.144          26.295  
C25  22017020.434   114648439.754        -993.756          38.260  
E03                                                                                                                                  25338612.643    99434158.420        -749.933          35.649  
E11                                                                                                                                  25359813.966    99517355.803        2399.088          31.043  
E12                                                                                                                                  23624149.642    92706233.150        1065.284          36.725  
E25                                                                  23309562.126   122492557.022        1202.685          38.093    23309561.526    91471724.814         898.128          35.159  
G06  24380633.339   128121073.431        2962.586          32.549  
G10  24883032.435                       -1682.334          21.265  
G12  21105697.230   110911179.514        2298.588          44.439  
G13  24640591.773   129487205.102       -3838.895          40.373  
G15  23122053.935   121507202.771       -3250.241          45.094  
G17  22508641.392   118283777.189       -1960.645          36.321  
G19  21044605.823   110590255.261        -459.489          32.029  
G24  20199391.053   106148546.008         361.590          40.083    20199396.449    79266764.560         269.990          39.093  
G25  24491830.559   128705416.7001       3501.177          23.667  
G32  24900582.585   130853450.705        3266.604          25.227  
R01  21489821.006   114875427.785       -1363.471          30.606  
R02  23276129.871   124205843.340        2835.705          36.854  
R08  22616492.928   121110369.473       -3782.652          34.047  
R09  21522555.945   114929347.040       -2654.320          38.487  
R10  19469235.129   103782028.305        -169.877          44.311  
R11  21471062.093   114734968.485        2918.259          36.958  
R19  21551592.343   115286593.148       -1941.144          26.263  
> 2019  5 20  8 10 22.0002129  0 25
C12  24868484.706   129496718.022       -2212.576          37.865  
C13  39150473.891   203866790.770        1771.520          34.243  
C20  25807697.903                         694.720          24.439  
C23  22625024.422   117814441.687        1750.036          40.762  
C25  22017208.104   114649432.869        -993.115          37.514  
E03                                                                                                                                  25338803.911    99434907.990        -749.571          36.327  
E11                                                                                                                                  25359201.790    99514956.056        2399.747          30.749  
E12                                                                                                                                  23623878.030                        1064.060          37.043  
E25                                                                  23309332.785   122491353.514        1203.508          38.270    23309332.185    91470826.112         898.702          35.202  
G06  24380060.435   128118110.058        2963.373          32.217  
G12  21105258.633   110908880.371        2299.143          45.053  
G13  24641322.367   129491043.097       -3837.995          40.822  
G15  23122674.506   121510452.331       -3249.560          45.061  
G17  22509014.034   118285737.332       -1960.143          35.127  
G19  21044699.058   110590714.666        -459.404          33.081  
G24  20199321.800   106148184.051         361.956          40.791    20199326.897    79266494.219         270.341          39.108  
G25  24491158.424                        3501.664          22.468  
G32  24899960.216   130850183.385        3267.320          25.444  
R01  21490081.526   114876791.047       -1363.261          30.987  
R02  23275600.437   124203007.295        2836.045          36.801  
R08  22617198.040   121114151.363       -3781.890          33.265  
R09  21523060.795   114932000.705       -2653.666          39.578  
R10  19469255.815   103782197.667        -169.362          43.878  
R11  21470536.557   114732049.389        2919.096          37.903  
R19  21551968.283   115288534.143       -1940.996          26.380  
> 2019  5 20  8 10 23.0002130  0 24
C12  24868940.691   129499085.661       -2211.529          37.181  
C20  25807595.973   134386852.4951        697.808          25.070  
C23  22624716.535   117812846.563        1751.234          39.896  
C25  22017428.451   114650580.954        -991.976          37.448  
E03                                                                                                                                  25339025.458    99435774.442        -748.806          36.131  
E11                                                                                                                                  25358622.591    99512672.940        2400.761          30.777  
E12                                                                                                                                  23623636.397    92704218.7331       1066.271          37.001  
E25                                                                  23309135.221   122490306.305        1204.752          37.989    23309133.123    91470044.106         899.651          35.511  
G06  24379525.606   128115303.082        2964.517          33.543    24379533.400    95670512.7231       2213.696          29.977  
G12  21104851.515   110906737.671        2300.242          44.757  
G13  24642082.341   129495037.167       -3836.528          40.427  
G15  23123323.556   121513858.187       -3248.314          45.063  
G17  22509415.156   118287854.001       -1959.127          34.610  
G19  21044817.776   110591330.890        -458.682          34.105  
G24  20199281.029   106147978.634         362.959          39.540    20199288.224    79266340.820         271.044          39.224  
G25  24490522.564                        3507.921          22.464  
G32  24899361.531   130847072.328        3268.599          25.053  
R01  21490362.432   114878313.968       -1362.665          33.349  
R02  23275099.184   124200330.310        2836.960          38.410  
R08  22617931.032   121118092.684       -3780.784          32.674  
R09  21523589.329   114934813.199       -2652.406          38.851  
R10  19469317.572   103782525.793        -168.320          43.421  
R11  21470014.318   114729289.254        2920.335          37.593  
R19  21552348.719                       -1940.240          26.460  
> 2019  5 20  8 10 24.0002131  0 24
C12  24869395.176   129501453.090       -2211.320          36.951  
C20  25807490.746   134386310.642         697.962          26.146  
C23  22624409.547   117811251.097        1751.575          38.918  
C25  22017652.396   114651728.691        -991.627          37.894  
E03                                                                                                                                  25339244.906    99436640.709        -748.622          35.653  
E11                                                                                                                                  25358038.895    99510389.363        2401.221          30.950  
E12                                                                                                                                  23623394.464    92703269.796        1066.582          36.897  
E25                                                                  23308936.759   122489258.666        1205.180          38.369    23308933.461    91469261.755         899.995          35.340  
G06  24378995.872   128112495.717        2964.907          32.872  
G12  21104443.498   110904594.767        2300.445          44.982  
G13  24642840.217   129499030.680       -3835.971          40.014  
G15  23123970.209   121517263.669       -3247.940          45.101  
G17  22509822.574   118289970.580       -1959.036          36.477  
G19  21044931.097   110591947.115        -458.683          34.433  
G24  20199241.456   106147773.085         363.091          38.929    20199249.850    79266187.357         271.108          39.276  
G25  24489883.706                        3506.603          22.264  
G32  24898770.940   130843961.061        3268.809          25.924  
R01  21490640.939   114879837.012       -1362.788          33.443  
R02  23274599.730   124197653.388        2836.898          39.630  
R08  22618673.019   121122033.627       -3780.405          32.750  
R09  21524128.356   114937625.299       -2652.013          39.597  
R10  19469383.226   103782853.704        -168.104          43.361  
R11  21469495.078   114726528.614        2920.839          37.863  
R19  21552756.437   115292735.8101      -1940.568          26.061  
> 2019  5 20  8 10 25.0002131  0 24
C12  24869819.083   129503665.212       -2212.122          37.494  
C20  25807353.441   134385613.661         696.981          27.597  
C23  22624072.580   117809500.140        1750.958          38.094  
C25  22017842.465   114652721.090        -992.399          38.126  
E03                                                                                                                                  25339435.874    99437390.059        -749.350          34.916  
E11                                                                                                                                  25357427.618    99507988.572        2400.791          31.145  
E12                                                                                                                                  23623122.852    92702203.866        1065.929          37.189  
E25                                                                  23308706.218   122488054.078        1204.588          38.442    23308704.420    91468362.220         899.536          35.550  
G06  24378420.870   128109531.373        2964.345          31.478  
G12  21104006.700   110902295.069        2299.698          45.087  
G13  24643571.411   129502867.118       -3836.438          40.363  
G15  23124589.880   121520512.233       -3248.564          45.121  
G17  22510197.015   118291930.416       -1959.836          37.558  
G19  21045024.333   110592407.034        -459.919          34.850  
G24  20199177.301   106147410.900         362.184          39.372    20199179.399    79265916.859         270.498          39.148  
G25  24489219.066                        3501.129          20.941  
G32  24898152.468   130840692.923        3268.137          26.178  
R01  21490886.769   114881201.144       -1364.132          32.222  
R02  23274063.401   124194817.464        2835.924          38.530  
R08  22619371.535   121125814.854       -3781.227          32.859  
R09  21524622.414   114940278.005       -2652.706          40.662  
R10  19469418.002   103783022.674        -168.970          43.538  
R11  21468955.152   114723608.331        2920.283          36.019  
R19  21553129.679   115294677.525       -1941.716          25.818  
> 2019  5 20  8 10 26.0002132  0 25
C12  24870274.767   129506035.185       -2213.863          37.157  
C20  25807252.711   134385074.801         694.969          28.554  
C23  22623770.090   117807906.910        1749.339          40.688  
C25  22018066.110   114653871.260        -994.061          38.155  
E03                                                                                                                                  25339657.420    99438258.408        -750.704          35.380  
E11                                                                                                                                  25356846.021    99505706.438        2399.779          31.018  
E12                                                                                                                                  23622881.519    92701256.984        1064.528          36.745  
E25                                                                  23308507.756   122487008.605        1203.015          39.141    23308505.657    91467581.509         898.355          35.859  
G06  24377897.133   128106726.141        2962.774          32.656  
G10  24884713.371                       -1679.696          20.825  
G12  21103599.882   110900154.722        2297.888          44.930  
G13  24644330.785   129506862.494       -3837.833          39.960  
G15  23125237.431   121523920.001       -3250.226          44.828  
G17  22510603.234   118294049.717       -1961.760          38.222  
G19  21045135.556   110593026.580        -462.004          34.325  
G24  20199134.730   106147208.206         360.236          39.741    20199141.026    79265765.505         268.999          39.070  
G25  24488588.603                        3500.792          19.180    24488539.437                        2615.335          18.568  
G32  24897554.682   130837584.074        3266.391          26.881  
R01  21491182.964   114882727.673       -1366.272          32.260  
R02  23273564.547   124192143.625        2833.813          38.495  
R08  22620106.626   121129758.355       -3782.963          32.516  
R09  21525154.845   114943092.470       -2654.377          40.800  
R10  19469487.854   103783353.289        -170.809          43.511  
R11  21468435.311   114720850.000        2918.531          33.666  
R19  21553517.011   115296781.996       -1944.101          25.643  
> 2019  5 20  8 10 27.0002133  0 25
C12  24870730.452   129508406.229       -2214.933          37.244  
C20  25807150.481   134384537.056         693.855          28.169  
C23  22623464.901   117806314.584        1748.436          41.310  
C25  22018289.455   114655022.418        -995.048          38.880  
E03                                                                                                                                  25339878.667    99439127.530        -751.477          35.765  
E11                                                                                                                                  25356264.423    99503424.928        2399.155          30.701  
E12                                                                                                                                  23622640.486    92700310.908        1063.721          37.065  
E25                                                                  23308311.092   122485964.006        1202.140          38.943    23308306.295    91466801.433         897.721          36.009  
G06  24377355.408   128103921.976        2961.707          32.444  
G10  24885056.334                       -1680.395          19.781  
G12  21103193.063   110898015.436        2296.828          45.349  
G13  24645092.857   129510858.587       -3838.551          39.939  
G15  23125885.583   121527328.648       -3251.105          45.120  
G17  22511010.052   118296170.153       -1962.893          39.646  
G19  21045256.072   110593647.472        -463.350          33.425  
G24  20199094.258   106147006.669         359.079          39.251    20199102.652    79265615.035         268.115          39.011  
G25  24487956.041                        3501.907          17.433    24487906.575                        2616.584          19.350  
G32  24896963.791   130834476.101        3265.515          27.649  
R01  21491460.571   114884255.687       -1367.758          32.243  
R02  23273058.797   124189471.115        2832.486          38.505  
R08  22620838.719   121133702.816       -3783.923          32.597  
R09  21525689.375   114945907.822       -2655.264          40.965  
R10  19469542.116   103783685.005        -171.910          43.375  
R11  21467937.656   114718092.404        2917.796          34.013  
R19  21553902.844   115298887.783       -1945.419          26.735  
> 2019  5 20  8 10 28.0002133  0 25
C12  24871155.557   129510621.540       -2215.312          37.252  
C20  25807015.275   134383843.652         693.405          28.952  
C23  22623128.834   117804566.337        1748.247          41.295  
C25  22018478.325   114656017.721        -995.303          38.570  
E03                                                                                                                                  25340070.534    99439879.346        -751.816          35.414  
E11                                                                                                                                  25355653.446    99501025.808        2399.120          30.811  
E12                                                                                                                                  23622369.474    92699247.527        1063.380          36.904  
E25                                                                  23308081.151   122484761.953        1202.054          39.631    23308078.153    91465903.821         897.612          36.707  
G06  24376800.492   128100960.331        2961.645          32.695    24376799.593    95659802.2001       2211.582          28.435  
G10  24885372.315                       -1686.556          20.012  
G12  21102756.566   110895718.908        2296.528          45.133  
G13  24645824.051   129514697.107       -3838.520          40.343  
G15  23126502.555   121530579.935       -3251.287          44.840  
G17  22511387.491   118298133.449       -1963.297          39.405  
G19  21045338.815   110594111.598        -464.126          32.969  
G24  20199026.205   106146648.072         358.597          38.848    20199034.000    79265347.242         267.793          39.464  
G25  24487276.112                        3508.960          15.980    24487238.338                        2616.367          20.384  
G32  24896345.319   130831210.802        3265.299          27.417  
R01  21491713.896   114885624.300       -1368.613          31.967  
R02  23272525.166   124186639.243        2831.872          38.259  
R08  22621539.034   121137486.999       -3784.183          33.253  
R09  21526187.031   114948563.292       -2655.470          41.250  
R10  19469580.490   103783857.267        -172.262          43.734  
R11  21467392.334   114715174.807        2917.596          35.093  
R19  21554266.192   115300833.992       -1946.209          26.392  
> 2019  5 20  8 10 29.0002134  0 24
C12  24871609.443   129512993.382       -2215.732          37.376  
C20  25806911.247   134383306.916         692.846          29.053  
C23  22622822.746   117802974.479        1747.967          41.527  
C25  22018702.869   114657169.493        -995.663          38.558  
E11                                                                                                                                  25355071.849    99498744.378        2399.074          30.911  
E12                                                                                                                                  23622127.841    92698302.147        1063.026          36.942  
E25                                                                  23307882.689   122483717.752        1201.742          39.496    23307879.391    91465124.024         897.443          35.467  
G06  24376260.866   128098156.517        2961.356          32.781    24376266.262    95657708.412        2211.433          28.105  
G10  24885704.185                       -1687.099          18.426  
G12  21102348.548   110893580.403        2296.047          45.058  
G13  24646583.425   129518693.307       -3838.658          40.749  
G15  23127151.306   121533989.084       -3251.607          44.705  
G17  22511791.011   118300254.831       -1963.840          39.553  
G19  21045460.531   110594734.016        -464.875          32.547  
G24  20198990.830   106146447.563         358.050          39.439    20198996.226    79265197.511         267.376          39.610  
G25  24486635.155                        3505.748          14.967    24486602.478                        2613.018          19.040  
G32  24895753.828   130828103.490        3264.854          27.770  
R01  21491998.099   114887154.034       -1369.477          29.647  
R02  23272029.010   124183968.146        2831.071          38.614  
R08  22622281.321   121141432.078       -3784.542          32.869  
R09  21526728.456   114951379.193       -2655.813          40.870  
R10  19469633.553   103784189.854        -172.780          43.208  
R11  21466859.602   114712417.642        2917.366          36.670  
R19  21554662.518                       -1945.815          25.360  
> 2019  5 20  8 10 30.0002135  0 24
C12  24872066.027   129515365.647       -2216.155          37.104  
C20  25806810.517   134382770.836         692.190          28.988  
C23  22622516.957   117801382.900        1747.689          41.501  
C25  22018926.215   114658321.654        -996.050          40.010  
E11                                                                                                                                  25354490.252    99496462.999        2399.024          30.960  
E12                                                                                                                                  23621887.108    92697357.096        1062.696          36.762  
E25                                                                  23307683.926   122482673.754        1201.540          39.727    23307679.729    91464344.403         897.266          34.018  
G06  24375721.239   128095352.993        2961.066          31.329    24375734.730    95655614.902        2211.154          27.963  
G10  24886068.733                       -1684.121          18.615  
G12  21101942.030   110891442.295        2295.649          44.681  
G13  24647344.598   129522689.526       -3838.677          40.832  
G15  23127800.057   121537398.446       -3251.820          44.110  
G17  22512196.031   118302376.648       -1964.274          39.059  
G19  21045575.951   110595357.170        -465.612          33.373  
G24  20198946.460   106146247.572         357.533          38.413    20198957.553    79265048.152         267.004          39.039  
G25                                                                  24485965.719                        2618.111          18.888  
G32  24895159.939   130824996.493        3264.539          27.641  
R01  21492281.703   114888684.485       -1370.195          29.453  
R02  23271524.759   124181297.678        2830.443          39.008  
R08  22623016.112   121145377.531       -3784.915          31.400  
R09  21527249.195   114954195.324       -2656.044          41.207  
R10  19469701.606   103784522.900        -173.241          42.684  
R11  21466341.261   114709660.765        2917.076          36.899  
R19  21555066.338                       -1948.398          25.026  
> 2019  5 20  8 10 31.0002135  0 25
C12  24872490.233   129517581.749       -2216.102          37.480  
C20  25806679.508   134382078.722         692.113          29.114  
C23  22622180.890   117799635.034        1747.866          40.864  
C25  22019115.683   114659317.548        -995.895          39.717  
E08                                                                                                                                  25103412.869                        1174.381          22.855  
E11                                                                                                                                  25353879.574    99494063.796        2399.203          30.951  
E12                                                                                                                                  23621616.995    92696294.409        1062.687          36.556  
E25                                                                  23307455.784   122481471.925        1201.829          39.714    23307451.287    91463446.954         897.448          34.007  
G06  24375159.728   128092391.534        2961.460          32.001    24375169.321    95653403.510        2211.393          27.594  
G10  24886402.102                       -1677.668          17.824  
G12  21101506.431   110889146.582        2295.713          44.979  
G13  24648076.092   129526527.793       -3838.267          41.187  
G15  23128420.927   121540650.093       -3251.648          44.308  
G17  22512570.472   118304341.009       -1964.362          39.839  
G19  21045657.794   110595823.152        -465.982          31.480  
G24  20198879.307   106145890.058         357.514          37.757    20198889.500    79264781.226         266.926          38.863  
G25  24485330.159                        3503.082          15.601    24485296.582                        2613.113          19.326  
G32  24894538.769   130821731.677        3264.816          27.712  
R01  21492549.118   114890055.054       -1370.569          27.924  
R02  23271002.220   124178467.450        2830.229          39.223  
R08  22623717.926   121149162.303       -3784.771          31.541  
R09  21527755.245   114956851.194       -2655.870          40.977  
R10  19469730.386   103784696.100        -173.199          42.549  
R11  21465800.136   114706743.366        2917.399          37.356  
R19  21555418.594                       -1949.869          24.533  
> 2019  5 20  8 10 32.0002136  0 24
C12  24872946.817   129519953.735       -2215.876          36.742  
C20  25806575.480   134381542.593         692.239          29.022  
C23  22621873.903   117798042.836        1748.308          41.247  
C25  22019338.429   114660469.187        -995.529          39.107  
E08                                                                                                                                  25103143.056    98510143.4091       1174.039          23.150  
E11                                                                                                                                  25353297.977    99491781.714        2399.727          30.609  
E12                                                                                                                                  23621374.763                        1063.716          35.600  
E25                                                                  23307258.221   122480427.191        1202.276          40.105    23307252.825    91462666.795         897.805          35.153  
G06  24374631.794   128089587.335        2961.740          32.716    24374635.091    95651309.450        2211.705          26.844  
G12  21101096.015   110887008.132        2295.992          44.835  
G13  24648836.066   129530523.013       -3837.678          41.184  
G15  23129066.680   121544058.833       -3251.197          43.898  
G17  22512974.592   118306462.709       -1964.158          40.232  
G19  21045779.510   110596446.679        -465.985          32.640  
G24  20198840.334   106145689.987         357.613          37.745    20198852.925    79264631.817         267.054          39.149  
G25  24484669.716                        3501.263          15.857    24484662.221                        2615.698          19.294  
G32  24893947.878   130818624.235        3264.984          27.435  
R01  21492835.420   114891586.162       -1370.852          30.054  
R02  23270496.471   124175797.150        2830.275          38.779  
R08  22624460.812   121153107.270       -3784.429          32.443  
R09  21528283.779   114959666.697       -2655.415          41.199  
R10  19469786.747   103785028.876        -172.970          43.223  
R11  21465274.899   114703985.614        2917.952          36.745  
R19  21555827.211                       -1950.697          24.964  
> 2019  5 20  8 10 33.0002136  0 25
C12  24873371.623   129522170.072       -2216.337          36.843  
C13  39146941.137   203848401.3541       1770.528          33.939  
C20  25806440.873   134380850.971         691.622          29.219  
C23  22621540.533   117796294.885        1747.951          41.593  
C25  22019528.797   114661465.093        -995.906          39.409  
E08                                                                                                                                  25102846.561    98508969.826        1173.582          22.895  
E11                                                                                                                                  25352686.101    99489382.156        2399.558          30.804  
E12                                                                                                                                  23621104.050    92694286.8061       1062.437          36.210  
E25                                                                  23307027.680   122479225.189        1202.002          40.554    23307024.982    91461769.190         897.605          35.280  
G06  24374069.083   128086625.859        2961.476          33.238    24374072.081    95649097.881        2211.569          27.182  
G12  21100662.815   110884712.643        2295.489          44.322  
G13  24649565.761   129534360.808       -3837.795          40.790  
G15  23129685.452   121547310.376       -3251.543          44.026  
G17  22513347.534   118308427.377       -1964.668          41.795  
G19  21045873.345   110596913.481        -466.802          33.135  
G24  20198771.681   106145332.954         357.034          37.335    20198783.073    79264365.200         266.617          39.021  
G25  24484017.367                        3503.904          13.922    24483999.680                        2616.808          20.135  
G32  24893328.807   130815359.476        3264.759          27.642  
R01  21493097.438   114892958.011       -1371.850          29.910  
R02  23269973.033   124172967.562        2829.588          38.536  
R08  22625168.921   121156892.117       -3784.848          32.946  
R09  21528774.540   114962322.468       -2655.772          41.097  
R10  19469826.320   103785202.393        -173.517          42.824  
R11  21464726.579   114701067.939        2917.675          36.272  
R19  21556179.767                       -1949.869          24.897  
> 2019  5 20  8 10 34.0002137  0 25
C12  24873826.109   129524542.983       -2216.801          36.665  
C13  39146631.451   203846787.178        1770.286          33.851  
C20  25806340.442   134380316.041         691.039          28.704  
C23  22621234.745   117794703.362        1747.632          40.970  
C25  22019747.346   114662617.576        -996.373          38.882  
E08                                                                                                                                  25102574.649    98507914.235        1173.236          22.102  
E11                                                                                                                                  25352103.304    99487100.373        2399.429          30.701  
E12                                                                                                                                  23620864.516    92693342.354        1062.097          36.168  
E25                                                                  23306828.918   122478180.971        1201.760          40.165    23306826.220    91460989.423         897.412          36.041  
G06  24373531.555   128083822.227        2961.175          33.518    24373539.949    95647004.344        2211.182          27.384  
G12  21100252.999   110882575.094        2295.090          44.033  
G13  24650326.334   129538356.236       -3837.887          41.491  
G15  23130334.503   121550719.719       -3251.801          44.013  
G17  22513754.652   118310550.163       -1965.244          41.613  
G19  21045988.166   110597538.548        -467.526          33.206  
G24  20198735.706   106145134.065         356.430          37.552    20198745.599    79264216.693         266.152          38.676  
G25  24483412.386                        3496.549          13.776    24483360.822                        2618.776          20.425  
G32  24892740.314   130812252.743        3264.274          27.123  
R01  21493379.843   114894490.734       -1372.467          30.777  
R02  23269474.778   124170298.668        2828.868          38.438  
R08  22625916.604   121160837.834       -3785.180          34.673  
R09  21529292.581   114965138.632       -2656.076          40.896  
R10  19469890.775   103785536.167        -173.968          43.161  
R11  21464215.133   114698310.879        2917.260          36.184  
R19  21556570.697   115313167.3641      -1950.324          25.192  
> 2019  5 20  8 10 35.0002138  0 24
C12  24874282.692   129526916.055       -2216.962          36.340  
C20  25806240.012   134379781.432         690.719          28.312  
C23  22620929.257   117793111.790        1747.682          38.272  
C25  22019970.691   114663770.036        -996.350          39.144  
E08                                                                                                                                  25102306.035    98506858.921        1172.959          21.115  
E11                                                                                                                                  25351522.606    99484818.434        2399.583          30.376  
E12                                                                                                                                  23620623.183    92692398.155        1061.844          36.174  
E25                                                                  23306629.856   122477136.726        1201.788          39.030    23306627.458    91460209.644         897.424          36.444  
G06  24373005.719   128081018.600        2961.168          32.371    24373006.918                        2211.036          27.529  
G12  21099847.979   110880437.750        2294.886          45.129  
G13  24651084.809   129542351.464       -3837.685          40.946  
G15  23130982.054   121554129.077       -3251.816          44.403  
G17  22514157.573   118312673.131       -1965.426          40.720  
G19  21046109.582   110598164.237        -468.147          32.629  
G24  20198694.934   106144935.494         356.114          37.368    20198708.125    79264068.370         265.968          39.495  
G25  24482757.640                        3496.858          13.726    24482725.262                        2613.567          20.359  
G32  24892153.321                        3264.000          26.594  
R01  21493667.344   114896024.387       -1373.397          30.965  
R02  23268972.026   124167630.127        2828.517          39.618  
R08  22626658.290   121164783.636       -3785.264          34.786  
R09  21529822.614   114967954.758       -2656.039          40.663  
R10  19469950.434   103785870.162        -174.189          43.218  
R11  21463706.685   114695553.684        2917.395          35.250  
R19  21556983.511                       -1950.393          25.301  
> 2019  5 20  8 10 36.0002138  0 24
C12  24874710.196   129529133.296       -2217.241          36.052  
C20  25806108.403   134379091.230         690.203          27.157  
C23  22620594.388   117791364.252        1747.538          38.194  
C25  22020156.863   114664766.678        -996.642          38.939  
E08                                                                                                                                  25102006.842    98505685.757        1173.164          21.315  
E11                                                                                                                                  25350911.629    99482418.885        2399.549          30.868  
E12                                                                                                                                  23620352.470    92691336.520        1061.635          36.099  
E25                                                                  23306402.313   122475934.990        1201.736          38.405    23306399.315    91459312.307         897.337          35.753  
G06  24372444.808   128078057.559        2961.041          33.488    24372444.808    95642699.4901       2211.221          27.968  
G12  21099410.282   110878143.149        2294.602          46.018  
G13  24651815.104   129546189.062       -3837.599          41.167  
G15  23131604.723   121557381.026       -3251.949          45.135  
G17  22514533.213   118314639.037       -1965.905          40.926  
G19  21046199.819   110598632.936        -468.699          33.323  
G24  20198631.378   106144579.714         355.779          37.793    20198640.072    79263802.705         265.665          39.048  
G25                                                                  24482057.324                        2609.213          21.116  
G32  24891532.451                        3263.557          25.251  
R01  21493939.855                       -1376.698          27.452  
R02  23268438.096   124164802.231        2827.895          37.854  
R08  22627350.211   121168569.090       -3785.454          34.802  
R09  21530316.072   114970611.022       -2656.264          39.989  
R10  19469981.312   103786044.705        -174.542          43.354  
R11  21463161.363   114692636.408        2917.276          37.441  
R19  21557335.767                       -1952.952          25.057  
> 2019  5 20  8 10 37.0002139  0 25
C12  24875164.682   129531507.064       -2217.658          35.695  
C13  39145674.513   203841788.5111       1770.112          34.140  
C20  25806005.574   134378557.451         689.888          25.344  
C23  22620288.300   117789773.157        1747.205          39.830  
C25  22020381.407   114665919.758        -996.971          39.348  
E08                                                                                                                                  25101738.528    98504630.951        1172.451          21.052  
E11                                                                                                                                  25350329.432    99480136.985        2399.545          30.580  
E12                                                                                                                                  23620112.037    92690392.850        1061.315          36.046  
E25                                                                  23306203.251   122474891.023        1201.509          39.621    23306199.954    91458532.688         897.264          35.274  
G06  24371907.579   128075254.243        2960.858          32.999    24371910.577    95640606.133        2211.002          28.571  
G12  21099003.764   110876006.479        2294.211          45.451  
G13  24652576.576   129550184.333       -3837.728          41.313  
G15  23132254.074   121560790.761       -3252.194          44.985  
G17  22514936.134   118316762.893       -1966.314          41.421  
G19  21046324.233   110599259.984        -469.506          33.820  
G24  20198598.701   106144382.063         355.193          38.753    20198602.299    79263655.096         265.254          38.896  
G25                                                                  24481421.165                        2609.475          20.429  
G32  24890944.558   130802775.6181       3263.784          24.038  
R01  21494222.859   114898933.2691      -1374.824          29.456  
R02  23267938.941   124162134.952        2827.254          36.167  
R08  22628106.288   121172515.342       -3785.714          33.692  
R09  21530836.812   114973427.564       -2656.454          40.148  
R10  19470056.860   103786379.512        -175.001          43.632  
R11  21462649.917   114689879.542        2917.066          38.087  
R19  21557729.694                       -1954.188          24.542  
> 2019  5 20  8 10 38.0002140  0 25
C12  24875622.465   129533881.131       -2217.958          35.952  
C13  39145365.128   203840174.422        1770.199          34.395  
C20  25805900.647   134378024.295         689.266          25.335  
C23  22619982.812   117788182.137        1747.130          40.431  
C25  22020596.958   114667073.011        -997.144          38.455  
E08                                                                                                                                  25101472.013    98503576.289        1172.307          21.408  
E11                                                                                                                                  25349748.734    99477855.062        2399.568          30.919  
E12                                                                                                                                  23619871.603    92689449.461        1061.034          36.018  
E25                                                                  23306005.988   122473847.181        1201.384          40.171    23306000.891    91457753.213         897.119          34.375  
G06  24371381.144   128072451.028        2960.757          33.747    24371377.247    95638512.890        2210.887          27.964  
G12  21098599.943   110873870.076        2293.946          44.542  
G13  24653337.150   129554179.500       -3837.626          41.568  
G15  23132900.426   121564200.705       -3252.402          44.137  
G17  22515336.957   118318887.154       -1966.720          42.058  
G19  21046440.253   110599887.688        -470.161          32.758  
G24  20198561.527   106144184.809         354.796          39.873    20198564.525    79263507.796         264.946          39.136  
G25                                                                  24480785.905                        2610.552          20.173  
G32  24890348.570   130799669.563        3263.597          24.340  
R01  21494497.769   114900468.982       -1375.457          29.273  
R02  23267434.990   124159468.298        2826.629          36.926  
R08  22628836.283   121176461.998       -3786.119          33.767  
R09  21531360.549   114976244.272       -2656.621          40.645  
R10  19470121.615   103786714.645        -175.327          43.544  
R11  21462141.169   114687122.753        2916.989          37.572  
R19  21558123.022                       -1951.994          24.678  
> 2019  5 20  8 10 39.0002140  0 26
C12  24876045.172   129536100.002       -2218.871          36.360  
C13  39145023.364   203838404.982        1769.440          34.046  
C20  25805767.539                         687.624          24.979  
C23  22619649.443   117786435.774        1746.363          40.506  
C24  26084460.304   135828855.0901      -2738.440          29.723  
C25  22020789.425   114668070.984        -997.973          38.558  
E08                                                                                                                                  25101171.021    98502404.727        1171.562          21.293  
E11                                                                                                                                  25349136.858    99475455.982        2399.080          30.768  
E12                                                                                                                                  23619600.891    92688389.173        1060.288          35.740  
E25                                                                  23305777.846   122472646.449        1200.732          39.673    23305773.948    91456856.523         896.690          34.552  
G06  24370812.138   128069491.146        2959.881          32.694  
G12  21098157.450   110871577.022        2293.054          44.081  
G13  24654064.147   129558017.684       -3838.184          40.907  
G15  23133521.896   121567453.749       -3253.044          43.676  
G17  22515713.196   118320854.800       -1967.646          41.468  
G19  21046535.886   110600358.922        -471.234          31.934  
G24  20198493.474   106143831.058         353.752          39.336    20198497.071    79263243.590         264.206          38.915  
G25                                                                  24480120.965                        2613.354          20.615  
G32  24889730.098   130796406.826        3262.737          24.019  
R01  21494757.689   114901845.905       -1376.923          27.317  
R02  23266912.751   124156642.757        2825.541          35.037  
R08  22629555.785   121180248.885       -3786.886          34.804  
R09  21531858.205   114978901.671       -2657.398          39.465  
R10  19470152.494   103786890.926        -176.281          43.459  
R11  21461596.146   114684206.482        2916.270          36.801  
R19  21558483.972   115323411.0111      -1954.499          24.703  
> 2019  5 20  8 10 40.0002141  0 26
C12  24876502.356   129538475.460       -2219.347          36.362  
C13  39144715.777   203836791.826        1769.266          34.998  
C20  25805665.909   134376804.5551        687.657          23.891  
C23  22619343.354   117784845.845        1746.038          40.199  
C25  22021009.772   114669225.455        -998.361          38.223  
E08                                                                                                                                  25100901.208    98501350.909        1171.463          20.498  
E11                                                                                                                                  25348555.860    99473174.715        2398.912          30.984  
E12                                                                                                                                  23619360.757    92687446.950        1059.868          35.567  
E25                                                                  23305577.584   122471603.570        1200.422          39.514    23305573.987    91456077.750         896.418          34.074  
G06  24370277.908   128066688.936        2959.752          33.902  
G12  21097751.830   110869442.009        2292.555          43.329  
G13  24654825.320   129562013.551       -3838.325          40.319  
G15  23134167.649   121570864.706       -3253.415          44.396  
G17  22516117.316   118322980.608       -1968.266          41.721  
G19  21046653.705   110600988.657        -472.194          31.909  
G24  20198457.199   106143635.391         353.208          39.565    20198459.897    79263097.525         263.710          38.434  
G25                                                                  24479488.703                        2612.619          20.352  
G28  25506265.880                       -2876.407          14.321  
G32  24889138.608   130793301.870        3262.497          24.036  
R01  21495036.796   114903383.804       -1377.643          28.349  
R02  23266415.995   124153978.049        2824.684          33.991  
R08  22630287.278   121184196.694       -3787.272          35.135  
R09  21532375.647   114981719.476       -2657.718          39.220  
R10  19470207.956   103787227.567        -176.835          43.095  
R11  21461071.809   114681450.673        2916.009          36.804  
R19  21558881.797                       -1955.969          25.226  
> 2019  5 20  8 10 41.0002142  0 26
C12  24876959.839   129540851.776       -2220.207          36.074  
C13  39144402.194   203835179.286        1768.650          34.730  
C20  25805572.074   134376274.091         686.575          24.387  
C23  22619038.166   117783256.646        1745.309          40.343  
C25  22021231.319   114670380.753        -999.188          37.920  
E08                                                                                                                                  25100634.093    98500298.060        1170.494          20.851  
E11                                                                                                                                  25347974.263    99470893.762        2398.598          31.115  
E12                                                                                                                                  23619120.623    92686505.612        1058.983          36.130  
E25                                                                  23305380.321   122470561.348        1199.763          39.284    23305377.923    91455299.500         895.895          34.681  
G06  24369746.975   128063887.611        2958.867          33.141  
G12  21097344.412   110867307.920        2291.631          43.118  
G13  24655585.893   129566009.913       -3838.820          40.450  
G15  23134816.100   121574276.400       -3254.152          43.160  
G17  22516522.636   118325107.346       -1969.196          41.967  
G19  21046769.125   110601619.553        -473.353          29.875  
G24  20198416.427   106143440.778         352.155          39.280    20198422.723    79262952.175         262.995          38.870  
G25                                                                  24478848.646                        2607.755          20.575  
G28  25506853.173                       -2884.646          14.469  
G32  24888550.715                        3260.552          23.056  
R01  21495316.202   114904923.153       -1379.092          27.119  
R02  23265910.245   124151314.403        2823.620          33.749  
R08  22631027.166   121188145.443       -3788.211          34.684  
R09  21532906.579   114984538.029       -2658.465          39.071  
R10  19470273.310   103787565.119        -177.746          43.667  
R11  21460564.860   114678695.544        2915.329          37.532  
R19  21559280.521                       -1958.765          24.169  
> 2019  5 20  8 10 42.0002142  0 26
C12  24877385.544   129543073.072       -2221.296          36.580  
C13  39144069.425   203833411.493        1767.793          35.700  
C20  25805433.870                         687.162          23.339  
C23  22618705.696   117781512.304        1744.342          39.232  
C24  26086090.275   135837119.8741      -2739.936          31.542  
C25  22021423.786   114671380.901       -1000.148          38.044  
E03                                                                  25343029.786                       -1013.928          40.754  
E08                                                                                                                                  25100335.799                        1168.408          19.712  
E11                                                                                                                                  25347364.185    99468495.828        2397.934          31.347  
E12                                                                                                                                  23618850.810    92685447.022        1058.590          35.680  
E25                                                                  23305152.479   122469362.462        1198.886          39.211    23305147.982    91454404.209         895.291          36.276  
G06  24369182.166   128060929.487        2958.124          32.543    24369185.464    95629909.1421       2208.949          28.494  
G12  21096908.214   110865017.281        2290.639          44.485  
G13  24656315.888   129569849.500       -3839.587          40.061  
G15  23135435.471   121577531.377       -3254.977          44.783  
G17  22516897.077   118327077.698       -1970.353          42.111  
G19  21046859.962   110602094.348        -474.795          30.585  
G24  20198350.473   106143089.781         350.997          39.529    20198356.469    79262690.078         262.098          39.381  
G32  24887930.144                        3260.220          22.559  
R01  21495580.619   114906303.732       -1380.579          27.188  
R02  23265379.613   124148492.082        2822.321          35.942  
R08  22631735.875   121191934.470       -3789.028          34.719  
R09  21533395.241   114987197.461       -2659.433          38.823  
R10  19470309.285   103787744.015        -178.896          43.220  
R11  21460021.636   114675781.130        2914.415          37.699  
R19  21559622.284                       -1959.726          24.625  
> 2019  5 20  8 10 43.0002143  0 25
C12  24877844.826   129545450.764       -2221.582          36.113  
C13  39143758.540   203831799.827        1767.776          35.592  
C20  25805333.140                         682.281          23.787  
C23  22618400.507   117779924.147        1744.267          40.332  
C24  26086644.892   135840015.900       -2739.916          31.792  
E03                                                                  25343256.728   133179458.0931      -1013.788          41.086  
E08                                                                                                                                  25100070.183                        1168.123          18.651  
E11                                                                                                                                  25346782.588    99466215.425        2398.048          30.925  
E12                                                                                                                                  23618611.276    92684506.558        1058.109          35.756  
E25                                                                  23304953.117   122468321.192        1198.811          39.815    23304950.119    91453626.595         895.259          36.993  
G06  24368646.137   128058129.113        2957.916          32.947    24368650.934    95627817.939        2208.848          28.498  
G12  21096501.396   110862884.466        2290.357          43.799  
G13  24657077.960   129573846.500       -3839.458          40.015  
G15  23136089.019   121580944.106       -3255.187          43.959  
G17  22517299.698   118329205.909       -1970.669          42.130  
G19  21046982.877   110602727.238        -475.349          32.016  
G24  20198312.699   106142896.697         350.626          39.405    20198319.894    79262545.942         261.781          39.307  
G32  24887339.553                        3259.732          22.788  
R01  21495871.718   114907845.343       -1381.355          29.459  
R02  23264869.366   124145830.275        2821.782          37.654  
R08  22632474.564   121195884.221       -3789.213          36.071  
R09  21533917.479   114990017.067       -2659.518          37.917  
R10  19470374.340   103788082.976        -179.154          43.842  
R11  21459502.396   114673026.990        2914.339          38.338  
R19  21560020.408                       -1959.532          24.003  
> 2019  5 20  8 10 44.0002144  0 25
C12  24878300.511   129547826.988       -2220.114          36.582  
C13  39143448.854   203830186.587        1769.350          35.180  
C20  25805231.210                         681.151          25.085  
C23  22618094.119   117778334.486        1745.771          41.584  
C24  26087198.908   135842910.108       -2738.099          32.730  
E03                                                                  25343475.877   133180628.094       -1012.459          40.441    25343475.577                        -758.937          35.306  
E08                                                                                                                                  25099800.969                        1171.015          21.206  
E11                                                                                                                                  25346201.290    99463933.839        2399.231          30.325  
E12                                                                                                                                  23618370.542    92683565.105        1059.098          35.844  
E25                                                                  23304755.254   122467278.357        1200.377          39.973    23304751.956    91452847.840         896.400          36.317  
G06  24368115.804   128055327.253        2959.402          32.823    24368118.802    95625725.693        2209.891          27.703  
G12  21096093.678   110860750.315        2291.693          43.572  
G13  24657834.936   129577841.814       -3837.772          39.831  
G15  23136735.371   121584355.290       -3253.642          43.742  
G17  22517703.218   118331332.903       -1969.452          42.349  
G19  21047107.890   110603359.188        -474.407          30.622  
G24  20198277.923   106142702.482         351.757          40.681    20198282.120    79262400.873         262.713          39.348  
G32  24886741.767   130780730.0181       3261.853          23.322  
R01  21496158.019   114909385.918       -1380.318          29.251  
R02  23264375.308   124143167.354        2822.896          37.835  
R08  22633218.949   121199832.579       -3787.820          35.776  
R09  21534448.711   114992835.151       -2657.996          37.916  
R10  19470427.404   103788420.627        -177.845          43.900  
R11  21458989.751   114670271.327        2915.864          37.033  
R19  21560403.843                       -1959.724          23.946  
> 2019  5 20  8 10 45.0002144  0 25
C12  24878725.017   129550046.195       -2219.207          35.715  
C13  39143107.990   203828415.827        1770.760          34.754  
C20  25805099.901   134373842.6861        687.164          26.694  
C23  22617761.050   117776587.460        1747.026          42.401  
C24  26087728.042   135845646.964       -2736.855          31.726  
C25  22022062.943   114674690.2081       -997.752          37.057  
E03                                                                  25343667.144   133181639.531       -1011.437          40.141    25343666.245    99453997.1751       -755.209          35.397  
E08                                                                                                                                  25099501.177                        1174.249          22.214  
E11                                                                                                                                  25345590.013    99461533.487        2400.352          30.826  
E12                                                                                                                                  23618101.029    92682505.228        1059.876          35.424  
E25                                                                  23304526.812   122466076.669        1201.689          40.109    23304522.615    91451950.430         897.410          34.969  
G06  24367542.301   128052366.466        2960.787          31.785    24367553.394    95623514.704        2210.989          27.291  
G12  21095657.780   110858457.477        2292.838          43.152  
G13  24658569.428   129581678.113       -3836.299          40.204  
G15  23137344.250   121587607.656       -3252.366          42.588  
G17  22518081.557   118333301.275       -1968.373          43.007  
G19  21047190.333   110603832.838        -473.650          29.321  
G24  20198210.170   106142349.682         352.800          41.142    20198214.967    79262137.397         263.477          38.711  
R01  21496425.135   114910765.568       -1379.650          28.091  
R02  23263839.279   124140343.573        2823.780          37.821  
R08  22633923.461   121203619.196       -3786.617          35.896  
R09  21534948.166   114995491.885       -2656.735          38.636  
R10  19470457.683   103788597.329        -176.702          43.140  
R11  21458433.636   114667354.013        2917.314          38.766  
R19  21560760.896                       -1955.418          23.475  
> 2019  5 20  8 10 46.0002145  0 24
C12  24879180.702   129552421.264       -2218.960          34.877  
C13  39142795.906   203826800.812        1771.125          34.348  
C20  25804997.972   134373311.659         687.137          27.518  
C23  22617454.962   117774996.211        1747.359          42.434  
C24  26088279.360   135848539.337       -2736.264          32.847  
C25  22022284.789   114675843.841        -997.524          37.782  
E03                                                                  25343885.393   133182808.343       -1011.270          40.357    25343888.391    99454869.966        -755.147          35.266  
E08                                                                                                                                  25099231.663    98494798.2201       1171.490          22.589  
E11                                                                                                                                  25345007.816    99459250.372        2400.760          30.876  
E12                                                                                                                                  23617859.996    92681562.920        1059.953          35.115  
E25                                                                  23304327.150   122465032.082        1202.129          40.398    23304322.953    91451170.430         897.644          34.655  
G06  24367008.971   128049562.822        2961.186          30.817  
G12  21095250.662   110856321.955        2293.064          43.307  
G13  24659327.303   129585671.403       -3835.748          40.195  
G15  23137997.498   121591017.197       -3251.999          42.683  
G17  22518484.777   118335427.058       -1968.240          43.475  
G24  20198173.296   106142154.275         352.949          40.767    20198177.493    79261991.520         263.522          38.443  
R01  21496706.040   114912305.696       -1379.872          25.997  
R02  23263345.221   124137679.845        2823.703          37.082  
R08  22634659.751   121207566.007       -3786.273          35.892  
R09  21535482.396   114998308.306       -2656.333          38.533  
R10  19470526.335   103788933.706        -176.571          43.255  
R11  21457919.491   114664596.584        2917.629          38.063  
R19  21561155.123                       -1954.168          23.819  
> 2019  5 20  8 10 47.0002146  0 26
C12  24879636.386   129554797.413       -2220.039          34.862  
C13  39142487.720   203825186.559        1770.362          35.466  
C20  25804896.942                         685.092          27.565  
C23  22617150.373   117773405.915        1746.406          42.241  
C24  26088838.473   135851432.468       -2737.021          33.140  
C25  22022509.334   114676998.408        -998.457          38.271  
E03                                                                  25344107.539   133183978.300       -1012.414          40.699    25344110.837    99455743.606        -755.995          34.989  
E08                                                                                                                                  25098966.947    98493745.217        1170.648          21.461  
E11                                                                                                                                  25344425.020    99456967.909        2400.107          29.629  
E12                                                                                                                                  23617620.162    92680621.401        1059.164          35.291  
E25                                                                  23304129.587   122463988.395        1201.228          40.014    23304125.090    91450391.088         896.988          34.940  
G06  24366477.439   128046760.282        2960.082          30.875    24366488.231    95619328.2301       2210.503          27.581  
G12  21094845.043   110854187.549        2291.948          42.631  
G13  24660089.375   129589665.400       -3836.455          41.080  
G15  23138653.144   121594427.671       -3252.932          43.181  
G17  22518888.598   118337553.991       -1969.391          42.860  
G19  21047419.375                        -478.237          23.293  
G24  20198138.819   106141960.117         351.700          41.455    20198140.019    79261846.506         262.659          38.472  
G32  24884921.427                        3261.469          24.311  
R01  21496993.541                       -1378.375          25.765  
R02  23262839.771   124135017.519        2822.301          37.508  
R08  22635396.341   121211513.883       -3787.339          36.125  
R09  21536013.628   115001125.760       -2657.367          38.138  
R10  19470590.191   103789271.184        -177.672          43.244  
R11  21457398.452   114661839.960        2916.824          38.141  
R19  21561549.950   115339760.3821      -1958.933          24.167  
> 2019  5 20  8 10 48.0002146  0 26
C12  24880063.291   129557018.718       -2221.305          35.673  
C13  39142146.556   203823417.343        1769.216          34.588  
C20  25804767.431   134372097.2821        684.460          27.994  
C23  22616814.905   117771660.685        1745.230          41.904  
C24  26089357.114   135854170.606       -2738.138          32.264  
C25  22022706.298   114677998.149        -999.741          38.904  
E03                                                                  25344300.606   133184992.127       -1013.827          39.833    25344303.604    99456500.688        -757.082          35.294  
E08                                                                                                                                  25098664.756    98492575.594        1169.623          22.397  
E11                                                                                                                                  25343814.342    99454568.593        2399.316          31.021  
E12                                                                                                                                  23617350.948    92679563.363        1058.038          35.544  
E25                                                                  23303901.145   122462788.347        1200.048          40.487    23303896.348    91449494.930         896.158          34.050  
G06  24365914.428   128043801.221        2959.061          30.923    24365925.521    95617118.576        2209.654          27.960  
G12  21094408.545   110851896.941        2290.607          42.393  
G13  24660820.269   129593502.848       -3837.448          41.094  
G15  23139273.115   121597681.774       -3254.103          44.198  
G17  22519263.338   118339524.837       -1970.846          42.942  
G19  21047509.313                        -482.907          21.639  
G24  20198073.764   106141609.904         350.213          41.562    20198073.764    79261584.961         261.546          38.415  
G32  24884300.857   130767994.9561       3261.151          24.796  
R01  21497252.862   114915230.4331      -1383.150          28.669  
R02  23262317.233   124132196.804        2820.715          37.401  
R08  22636106.550   121215302.451       -3788.568          36.099  
R09  21536506.187   115003784.262       -2658.502          38.779  
R10  19470631.262   103789450.243        -179.059          43.663  
R11  21456850.132   114658924.313        2915.647          37.492  
R19  21561921.093                       -1961.117          24.814  
> 2019  5 20  8 10 49.0002147  0 26
C12  24880519.275   129559396.958       -2222.131          35.545  
C13  39141833.572   203821804.646        1768.807          34.671  
C20  25804669.399   134371569.809         683.583          27.689  
C23  22616510.316   117770072.134        1744.661          42.527  
C24  26089922.223   135857065.160       -2738.444          33.568  
C25  22022925.746   114679154.671       -1000.412          39.159  
E03                                                                  25344524.551   133186164.241       -1014.572          40.343    25344528.448    99457376.023        -757.690          34.317  
E08                                                                                                                                  25098399.440    98491524.171        1169.068          22.324  
E11                                                                                                                                  25343232.745    99452287.179        2399.058          30.953  
E12                                                                                                                                  23617110.814    92678623.503        1057.505          35.257  
E25                                                                  23303701.483   122461746.346        1199.543          40.466    23303698.485    91448716.771         895.804          34.795  
G06  24365384.995   128041000.353        2958.409          31.127    24365391.890    95615026.897        2209.324          28.078  
G12  21093999.928   110849764.572        2289.912          42.260  
G13  24661578.145   129597498.228       -3837.838          40.540  
G15  23139920.666   121601094.020       -3254.704          44.308  
G17  22519665.060   118341654.002       -1971.623          43.085  
G19  21047652.014                        -485.576          19.627  
G24  20198038.089   106141418.029         349.417          41.626    20198037.789    79261441.703         260.903          39.060  
G32  24883707.868   130764891.894        3260.604          23.997  
R01  21497542.161   114916775.039       -1384.350          29.700  
R02  23261820.477   124129537.089        2819.690          37.416  
R08  22636840.741   121219252.228       -3789.239          36.180  
R09  21537023.029   115006603.471       -2659.122          37.708  
R10  19470694.519   103789789.893        -179.844          43.725  
R11  21456332.090   114656169.369        2915.144          38.241  
R19  21562332.108                       -1965.249          23.391  
> 2019  5 20  8 10 50.0002148  0 28
C12  24880979.456   129561775.803       -2222.735          36.020  
C13  39141527.784   203820192.460        1768.296          34.926  
C20  25804565.371   134371043.179         682.739          28.041  
C23  22616204.527   117768484.135        1744.108          42.772  
C24  26090470.843   135859960.262       -2738.992          33.152  
C25  22023150.590   114680311.801       -1001.020          38.792  
E03                                                                  25344748.196   133187337.148       -1015.365          39.849    25344750.594    99458251.875        -758.208          34.958  
E08                                                                                                                                  25098134.123    98490473.337        1168.480          21.743  
E11                                                                                                                                  25342651.148    99450006.095        2398.730          31.018  
E12                                                                                                                                  23616871.280    92677684.215        1056.933          34.980  
E25                                                                  23303503.320   122460704.829        1199.059          40.170    23303500.023    91447939.039         895.377          35.109  
G06  24364851.065   128038199.903        2957.993          30.513    24364859.459    95612935.815        2208.727          28.541  
G10  24892897.706                       -1688.126          20.045  
G12  21093596.407   110847632.916        2289.197          42.891  
G13  24662339.917   129601493.949       -3838.179          40.678  
G15  23140573.314   121604506.791       -3255.229          45.011  
G17  22520070.080   118343783.970       -1972.426          42.450  
G24  20198002.114   106141226.956         348.614          41.894    20198001.215    79261299.028         260.319          39.033  
G28  25511976.626                       -2885.782          16.118  
G32  24883121.174                        3259.591          23.609  
R01  21497829.063   114918320.688       -1385.393          30.708  
R02  23261318.924   124126878.298        2818.766          37.806  
R08  22637574.034   121223202.651       -3789.886          36.070  
R09  21537566.253   115009423.253       -2659.695          38.026  
R10  19470761.672   103790130.272        -180.573          43.734  
R11  21455821.244   114653414.988        2914.581          37.649  
R19  21562765.308                       -1963.533          24.273  
R20  20747996.261                        2541.085          25.725  
> 2019  5 20  8 10 51.0002148  0 27
C12  24881404.562   129563999.234       -2223.431          35.486  
C13  39141186.620   203818424.522        1767.938          34.749  
C20  25804436.161   134370361.190         681.989          27.757  
C23  22615870.858   117766740.513        1743.622          42.666  
C24  26090997.878   135862699.500       -2739.238          32.931  
C25  22023344.256   114681313.355       -1001.554          39.043  
E03                                                                  25344940.063   133188353.172       -1016.024          40.202    25344944.260    99459010.613        -758.738          34.495  
E08                                                                                                                                  25097834.031    98489305.165        1168.171          22.161  
E11                                                                                                                                  25342039.571    99447607.625        2398.469          30.932  
E12                                                                                                                                  23616602.067    92676627.821        1056.394          35.200  
E25                                                                  23303272.480   122459506.221        1198.608          40.221    23303271.881    91447043.962         895.077          35.516  
G06  24364288.954   128035242.477        2957.426          30.857    24364296.149    95610727.328        2208.487          28.323  
G12  21093161.408   110845344.354        2288.562          42.359  
G13  24663070.811   129605332.390       -3838.441          40.754  
G15  23141195.684   121607762.501       -3255.710          45.107  
G17  22520446.319   118345757.113       -1973.144          42.642  
G19  21047822.895                        -483.525          19.283  
G24  20197934.661   106140879.175         347.782          42.131    20197935.260    79261039.298         259.730          39.078  
G32  24882495.507                        3260.557          22.360  
R01  21498082.987   114919707.237       -1386.549          30.982  
R02  23260790.090   124124060.396        2817.902          37.479  
R08  22638288.439   121226993.106       -3790.455          36.196  
R09  21538055.514   115012083.431       -2660.178          37.858  
R10  19470787.155   103790311.524        -181.252          43.834  
R11  21455272.924   114650500.837        2914.151          37.696  
R19  21563102.875   115348218.1131      -1964.101          24.184  
R20  20747506.100                        2540.006          24.514  
> 2019  5 20  8 10 52.0002149  0 27
C12  24881863.245   129566379.314       -2223.970          34.966  
C13  39140878.434   203816813.016        1767.616          34.848  
C20  25804337.829   134369836.063         681.236          27.484  
C23  22615565.969   117765153.402        1743.220          42.842  
C24  26091555.492   135865595.069       -2739.460          34.870  
C25  22023568.501   114682471.525       -1002.060          39.120  
E03                                                                  25345165.207   133189527.378       -1016.663          40.900    25345167.306    99459887.468        -759.210          33.478  
E08                                                                                                                                  25097564.817    98488255.186        1167.624          22.007  
E11                                                                                                                                  25341458.873    99445326.913        2398.357          30.472  
E12                                                                                                                                  23616363.432    92675689.523        1055.943          34.735  
E25                                                                  23303076.416   122458465.478        1198.285          40.258    23303073.718    91446266.813         894.794          35.635  
G06                                                                  24363764.617    95608636.834        2208.139          28.047  
G12  21092756.389   110843213.869        2288.028          42.412  
G13  24663828.387   129609328.602       -3838.670          40.339  
G15  23141843.835   121611176.149       -3256.106          45.225  
G17  22520850.739   118347888.404       -1973.749          42.514  
G19  21047964.397                        -481.317          22.539  
G24  20197898.686   106140689.553         347.163          41.999    20197899.285    79260897.704         259.240          39.235  
G32  24881905.815                        3257.991          22.098  
R01  21498383.679   114921255.071       -1387.578          31.638  
R02  23260300.829   124121403.253        2817.119          37.405  
R08  22639017.534   121230944.537       -3790.893          35.873  
R09  21538594.241   115014904.149       -2660.630          38.149  
R10  19470856.706   103790653.199        -181.869          43.855  
R11  21454759.679   114647747.293        2913.745          37.525  
R19  21563501.898                       -1967.968          23.176  
R20  20747059.410                        2538.681          24.264  
> 2019  5 20  8 10 53.0002149  0 27
C12  24882291.048   129568603.769       -2224.455          35.002  
C13  39140536.670   203815045.610        1767.405          34.983  
C20  25804204.721   134369155.403         680.660          27.423  
C23  22615230.502   117763410.496        1742.906          42.742  
C24  26092079.829   135868334.731       -2739.662          34.891  
C25  22023760.368   114683473.961       -1002.436          39.307  
E03                                                                  25345357.974   133190544.529       -1017.151          40.403    25345360.372    99460647.022        -759.555          33.027  
E08                                                                                                                                  25097265.924    98487087.970        1167.216          22.876  
E11                                                                                                                                  25340849.395    99442928.669        2398.245          31.331  
E12                                                                                                                                  23616093.619    92674633.952        1055.571          34.674  
E25                                                                  23302847.974   122457267.499        1197.979          40.350    23302846.175    91445372.165         894.648          35.525  
G06  24363183.619   128029486.2311       2956.780          27.655    24363200.407    95606428.851        2207.984          27.700  
G12  21092321.690   110840926.327        2287.542          42.192  
G13  24664560.480   129613167.342       -3838.740          40.770  
G15  23142460.808   121614432.574       -3256.425          44.961  
G17  22521229.377   118349862.721       -1974.316          42.819  
G24  20197833.031   106140342.967         346.586          42.429    20197833.031    79260638.888         258.815          39.131  
G32  24881284.045                        3255.471          21.591  
R01  21498644.498   114922643.394       -1388.323          33.499  
R02  23259774.093   124118586.815        2816.438          37.199  
R08  22639728.342   121234735.872       -3791.335          35.848  
R09  21539090.098   115017565.032       -2660.883          38.278  
R10  19470883.988   103790835.561        -182.362          43.744  
R11  21454208.660   114644833.788        2913.504          37.648  
R19  21563867.645                       -1963.941          22.411  
R20  20746560.855                        2539.040          23.619  
R21  23665132.769   126636905.4291       4741.556          36.586  
> 2019  5 20  8 10 54.0002150  0 28
C12  24882746.433   129570984.640       -2224.761          35.967  
C13  39140225.486   203813434.346        1767.374          34.369  
C20  25804101.292   134368631.322         680.191          26.832  
C23  22614925.313   117761823.892        1742.714          42.763  
C24  26092636.244   135871230.552       -2739.712          34.841  
C25  22023982.814   114684632.769       -1002.698          39.598  
E03                                                                  25345581.019   133191719.626       -1017.555          40.380    25345586.116    99461524.513        -759.846          33.561  
E08                                                                                                                                  25097000.908    98486038.601        1167.014          22.964  
E11                                                                                                                                  25340267.198    99440648.146        2398.167          30.943  
E12                                                                                                                                  23615854.984    92673696.348        1055.249          34.998  
E25                                                                  23302648.912   122456227.162        1197.879          40.381    23302647.413    91444595.306         894.504          35.442  
G06  24362647.590   128026687.023        2956.750          26.296    24362669.475    95604338.635        2207.861          27.687  
G10  24894267.157                       -1695.524          20.649  
G12  21091916.370   110838796.641        2287.228          42.476  
G13  24665318.955   129617163.626       -3838.742          40.851  
G15  23143115.554   121617846.699       -3256.584          45.282  
G17  22521633.797   118351994.965       -1974.702          42.990  
G24  20197799.155   106140154.371         346.139          42.521    20197797.356    79260498.049         258.485          39.168  
G32  24880704.247                        3257.084          22.014  
R01  21498941.592   114924192.877       -1389.227          34.665  
R02  23259272.840   124115930.988        2815.802          37.152  
R08  22640463.433   121238687.981       -3791.572          35.630  
R09  21539624.628   115020386.205       -2661.086          38.213  
R10  19470953.839   103791178.131        -182.763          44.085  
R11  21453695.116   114642080.602        2913.386          37.049  
R19  21564281.658                       -1967.144          22.936  
R20  20746088.682                        2539.666          22.870  
R21  23664283.457   126632324.247        4741.607          36.946  
> 2019  5 20  8 10 55.0002151  0 27
C12  24883206.015   129573365.993       -2225.244          35.819  
C13  39139919.997   203811823.315        1767.141          34.846  
C20  25804003.860   134368107.819         679.613          26.646  
C23  22614620.424   117760237.603        1742.399          42.289  
C24  26093197.755   135874126.462       -2739.800          34.224  
C25  22024204.361   114685791.889       -1003.010          39.012  
E03                                                                  25345805.564   133192895.232       -1018.064          40.070    25345807.662    99462402.368        -760.210          34.107  
E08                                                                                                                                  25096735.591    98484989.561        1166.685          21.545  
E11                                                                                                                                  25339685.900    99438367.643        2398.149          30.401  
E12                                                                                                                                  23615616.049    92672759.094        1054.899          34.794  
E25                                                                  23302451.349   122455187.075        1197.630          40.176    23302450.449    91443818.641         894.310          35.201  
G06                                                                  24362137.943    95602248.637        2207.643          27.660  
G12  21091508.952   110836667.404        2286.779          42.757  
G13  24666080.128   129621160.011       -3838.842          40.695  
G15  23143767.303   121621261.104       -3256.863          45.433  
G17  22522041.815   118354127.758       -1975.251          43.288  
G24  20197767.377   106139966.329         345.583          42.794    20197761.381    79260357.628         258.066          39.006  
G32  24880106.161                        3262.827          22.286  
R01  21499246.481   114925743.170       -1390.037          35.072  
R02  23258777.284   124113275.924        2815.039          37.595  
R08  22641198.524   121242640.426       -3791.907          35.444  
R09  21540150.764   115023207.721       -2661.429          38.546  
R10  19471021.892   103791521.184        -183.247          44.394  
R11  21453172.877   114639327.647        2913.155          36.631  
R19  21564680.083                       -1965.675          25.027  
R20  20745678.566                        2537.080          23.413  
R21  23663424.552   126627743.164        4741.508          36.611  
> 2019  5 20  8 10 56.0002151  0 28
C12  24883632.620   129575591.766       -2225.773          36.666  
C13  39139581.232   203810056.533        1766.781          35.570  
C20  25803873.150   134367428.955         678.864          26.268  
C23  22614286.155   117758495.574        1742.029          42.825  
C24  26093720.593   135876866.526       -2740.063          34.590  
C25  22024395.928   114686795.434       -1003.545          39.021  
E03                                                                  25345995.333   133193913.898       -1018.666          38.875    25346000.729    99463163.064        -760.696          33.998  
E08                                                                                                                                  25096438.197    98483823.324        1166.237          21.590  
E11                                                                                                                                  25339074.624    99435969.739        2397.904          30.575  
E12                                                                                                                                  23615347.435    92671704.623        1054.471          36.239  
E25                                                                  23302223.806   122453989.819        1197.255          39.193    23302224.106    91442924.577         894.064          36.745  
G06  24361553.048   128020932.4131       2955.982          28.550    24361572.534    95600041.283        2207.354          26.727  
G12  21091076.052   110834381.156        2286.249          43.457  
G13  24666812.521   129624999.042       -3839.031          40.451  
G15  23144384.576   121624518.381       -3257.277          44.906  
G17  22522416.855   118356103.614       -1975.856          44.395  
G19  21048418.883   110609947.4611       -484.010          29.169  
G24  20197697.525   106139621.421         344.908          42.821    20197696.626    79260100.069         257.558          39.796  
G32  24879476.297                        3258.889          22.187  
R01  21499506.401   114927134.213       -1391.043          34.754  
R02  23258249.949   124110461.697        2814.227          38.496  
R08  22641901.838   121246432.831       -3792.405          34.681  
R09  21540650.818   115025869.499       -2661.777          38.880  
R10  19471055.469   103791705.051        -183.867          44.146  
R11  21452619.461   114636414.882        2912.765          35.601  
R19  21565056.622                       -1969.557          25.110  
R20  20745198.898                        2538.181          22.712  
R21  23662542.263   126623001.925        4741.239          37.194  
> 2019  5 20  8 10 57.0002152  0 29
C12  24884091.002   129577974.214       -2226.338          35.353  
C13  39139272.146   203808446.059        1766.584          36.725  
C20  25803772.120   134366906.760         678.304          25.822  
C23  22613980.967   117756909.964        1741.720          41.124  
C24  26094280.306   135879762.867       -2740.231          34.178  
C25  22024618.674   114687955.470       -1003.927          40.149  
E03                                                                  25346221.976   133195090.629       -1019.189          40.167    25346225.573    99464041.778        -761.070          32.814  
E08                                                                                                                                  25096166.885    98482775.283        1165.686          20.325  
E11                                                                                                                                  25338493.626    99433689.570        2397.814          30.657  
E12                                                                                                                                  23615109.100    92670768.284        1053.984          35.417  
E25                                                                  23302023.845   122452950.326        1197.035          38.522    23302025.344    91442148.361         893.861          36.255  
G06  24361023.015                        2955.380          28.078    24361043.101    95597951.800        2207.128          28.073  
G10  24895281.355                       -1691.943          20.732  
G12  21090673.730   110832252.952        2285.746          44.179  
G13  24667570.396   129628995.722       -3839.138          39.084  
G15  23145036.025   121627933.522       -3257.599          45.324  
G17  22522825.472   118358237.544       -1976.388          43.874  
G19  21048538.200   110610589.909        -484.907          31.353  
G24  20197665.447   106139434.658         344.306          43.530    20197661.250    79259960.592         257.122          39.874  
G32  24878891.402                        3250.576          20.031  
R01  21499793.902   114928686.445       -1391.975          35.947  
R02  23257750.195   124107808.203        2813.469          38.953  
R08  22642642.025   121250386.158       -3792.790          35.334  
R09  21541177.553   115028691.756       -2662.170          38.811  
R10  19471108.832   103792049.243        -184.385          44.351  
R11  21452127.201   114633662.518        2912.564          37.637  
R19  21565455.346   115360663.4441      -1969.500          27.015  
R20  20744722.827                        2537.615          24.350  
R21  23661679.460   126618421.166        4741.184          38.364  
> 2019  5 20  8 10 58.0002153  0 29
C12  24884545.787   129580356.959       -2226.635          34.947  
C13  39138962.460   203806835.796        1766.373          35.317  
C20  25803674.388   134366385.282         677.588          25.789  
C23  22613676.677   117755324.688        1741.386          39.464  
C24  26094828.326   135882659.287       -2740.310          33.243  
C25  22024841.120   114689115.842       -1004.262          39.095  
E03                                                                  25346445.621   133196267.860       -1019.690          40.578    25346449.518    99464920.902        -761.479          33.080  
E08                                                                                                                                  25095898.571                        1165.489          18.584  
E11                                                                                                                                  25337912.628    99431409.515        2397.700          31.015  
E12                                                                                                                                  23614870.465    92669832.243        1053.686          35.517  
E25                                                                  23301825.982   122451911.115        1196.754          39.052    23301827.780    91441372.313         893.693          35.915  
G06                                                                  24360508.871    95595862.497        2206.948          28.479  
G10  24895629.414                       -1689.512          20.361  
G12  21090268.411   110830125.168        2285.326          43.750  
G13  24668333.068   129632992.553       -3839.289          40.428  
G15  23145690.772   121631348.893       -3257.828          45.890  
G17  22523231.391   118360372.041       -1976.955          43.846  
G19  21048660.216   110611233.037        -485.586          30.456  
G24  20197630.671   106139248.464         343.735          43.358    20197625.875    79259821.516         256.721          39.664  
G32  24878320.897                        3246.816          19.451  
R01  21500093.995   114930239.603       -1392.902          32.883  
R02  23257254.338   124105155.411        2812.766          37.886  
R08  22643372.619   121254339.839       -3793.143          34.335  
R09  21541701.890   115031514.299       -2662.455          39.681  
R10  19471184.080   103792393.896        -184.847          44.102  
R11  21451613.657   114630910.483        2912.235          39.551  
R19  21565846.875   115362794.224       -1970.411          26.635  
R20  20744299.820                        2533.555          24.489  
R21  23660820.855   126613840.502        4741.089          37.668  
> 2019  5 20  8 10 59.0002153  0 27
C12  24884973.591   129582583.901       -2226.942          34.842  
C13  39138626.093   203805069.440        1766.357          37.298  
C20  25803544.578                         678.941          25.309  
C23  22613338.811   117753583.413        1741.275          40.244  
C24  26095358.060   135885399.643       -2740.356          34.635  
C25  22025030.888   114690120.375       -1004.532          39.150  
E03                                                                  25346638.987   133197287.877       -1020.017          40.299    25346644.383    99465682.619        -761.717          33.123  
E08                                                                                                                                  25095605.074                        1160.528          18.470  
E11                                                                                                                                  25337301.951    99429011.866        2397.649          30.428  
E12                                                                                                                                  23614601.851    92668778.824        1053.419          36.395  
E25                                                                  23301598.739   122450714.448        1196.667          38.709    23301600.837    91440478.709         893.604          36.186  
G06                                                                  24359948.259    95593655.650        2206.847          28.432  
G12  21089833.712   110827840.150        2285.018          44.613  
G13  24669063.363   129636831.746       -3839.193          40.038  
G15  23146310.143   121634606.910       -3258.017          45.613  
G17  22523605.532   118362349.333       -1977.292          43.780  
G19  21048748.655   110611719.174        -486.137          31.058  
G24  20197565.916   106138905.120         343.345          43.739    20197560.220    79259565.156         256.359          39.321  
R01  21500330.531   114931633.038       -1393.436          35.734  
R02  23256732.399   124102343.225        2812.186          38.894  
R08  22644088.224   121258133.162       -3793.323          35.377  
R09  21542199.246   115034176.875       -2662.577          39.411  
R10  19471217.956   103792579.101        -185.205          44.134  
R11  21451069.234   114627998.380        2912.103          37.821  
R19  21566223.414   115364765.345       -1971.121          26.134  
R20  20743849.832                        2533.019          25.406  
R21  23659931.370   126609099.349        4741.153          37.371  
> 2019  5 20  8 11  0.0002154  0 28
C12  24885431.374   129584967.483       -2227.472          35.098  
C13  39138314.908   203803459.406        1766.144          35.571  
C20  25803443.548                         675.837          25.097  
C23  22613038.719   117751998.593        1740.930          42.460  
C24  26095917.472   135888296.303       -2740.551          34.997  
C25  22025253.634   114691281.399       -1004.915          39.227  
E03                                                                  25346861.733   133198465.957       -1020.538          39.469    25346867.429    99466562.332        -762.067          34.287  
E08                                                                                                                                  25095340.657                        1162.324          19.180  
E11                                                                                                                                  25336720.653    99426731.823        2397.688          30.624  
E12                                                                                                                                  23614363.516    92667843.502        1052.967          35.470  
E25                                                                  23301401.176   122449675.605        1196.385          38.697    23301401.775    91439702.947         893.407          37.020  
G06  24359388.246                        2955.508          22.862    24359416.127    95591566.744        2206.551          28.711  
G10  24896299.750                       -1700.586          20.618  
G12  21089429.891   110825713.097        2284.595          44.581  
G13  24669825.135   129640828.572       -3839.284          40.171  
G15  23146954.997   121638022.761       -3258.309          45.458  
G17  22524014.149   118364484.725       -1977.851          43.808  
G19  21048867.073   110612363.840        -487.123          32.266  
G24  20197531.140   106138719.925         342.737          43.294    20197525.144    79259426.886         255.916          40.243  
R01  21500637.219   114933187.813       -1394.519          34.711  
R02  23256238.941   124099691.649        2811.551          38.597  
R08  22644815.221   121262087.462       -3793.762          34.834  
R09  21542732.277   115036999.907       -2662.944          38.424  
R10  19471283.911   103792924.658        -185.751          43.688  
R11  21450558.387   114625246.607        2911.973          37.250  
R19  21566608.947                       -1974.542          24.301  
R20  20743405.239                        2531.053          25.354  
R21  23659074.564   126604518.744        4741.030          37.194  
> 2019  5 20  8 11  1.0002155  0 29
C12  24885889.457   129587351.467       -2227.874          35.411  
C13  39138006.122   203801849.529        1765.986          35.866  
C20  25803347.314                         676.546          24.705  
C23  22612732.331   117750414.004        1740.699          41.382  
C24  26096470.589   135891193.049       -2740.636          34.400  
C25  22025475.181   114692442.688       -1005.179          38.610  
E03                                                                  25347086.277   133199644.523       -1021.023          40.465    25347093.173    99467442.443        -762.467          33.126  
E08                                                                                                                                  25095068.446                        1162.053          18.690  
E11                                                                                                                                  25336141.454    99424452.044        2397.424          30.305  
E12                                                                                                                                  23614126.380    92666908.466        1052.681          35.138  
E25                                                                  23301203.313   122448636.906        1196.240          38.893    23301205.711    91438927.270         893.322          36.202  
G06                                                                  24358883.096    95589478.041        2206.348          29.005  
G10  24896639.415                       -1699.259          21.021  
G12  21089025.471   110823586.450        2284.188          43.893  
G13  24670585.109   129644825.454       -3839.340          40.156  
G15  23147609.144   121641438.819       -3258.516          45.894  
G17  22524421.268   118366620.592       -1978.324          44.069  
G19  21048982.792   110613009.141        -487.760          33.304  
G24  20197497.863   106138535.239         342.228          43.342    20197490.069    79259288.934         255.597          39.532  
G32  24876517.645                        3253.717          20.987  
R01  21500949.003   114934743.425       -1395.356          32.451  
R02  23255742.484   124097040.771        2810.853          38.018  
R08  22645568.899   121266042.018       -3794.019          34.595  
R09  21543265.308   115039823.153       -2663.158          38.538  
R10  19471347.167   103793270.598        -186.134          43.138  
R11  21450046.642   114622495.153        2911.653          39.816  
R19  21567002.875                       -1973.192          23.729  
R20  20742985.230   110922063.1061       2532.493          27.182  
R21  23658233.646   126599938.156        4741.013          37.687  
> 2019  5 20  8 11  2.0002155  0 28
C12  24886318.160   129589579.759       -2228.292          34.931  
C13  39137668.556   203800083.761        1765.768          35.877  
C20  25803217.504   134363991.9701        675.436          25.174  
C23  22612398.962   117748673.623        1740.380          40.770  
C24  26096994.926   135893933.766       -2740.718          33.345  
C25  22025667.048   114693448.268       -1005.580          38.808  
E03                                                                  25347283.841   133200666.004       -1021.481          41.327    25347288.937    99468205.264        -762.821          33.726  
E08                                                                                                                                  25094770.452                        1165.210          18.087  
E11                                                                                                                                  25335528.678    99422054.539        2397.505          30.719  
E12                                                                                                                                  23613857.766    92665856.193        1052.273          35.155  
E25                                                                  23300979.068   122447440.967        1195.939          39.227    23300976.670    91438034.204         893.066          36.842  
G06                                                                  24358319.786    95587271.861        2206.180          29.981  
G12  21088591.972   110821302.701        2283.750          43.237  
G13  24671316.003   129648664.877       -3839.423          40.270  
G15  23148227.316   121644697.651       -3258.832          46.255  
G17  22524796.908   118368599.427       -1978.836          43.584  
G19  21049076.627   110613497.643        -488.502          35.236  
G24  20197431.609   106138193.577         341.662          43.127    20197425.313    79259033.811         255.122          39.646  
G32  24875906.968                        3252.186          20.643  
R01  21501199.629   114936139.504       -1396.079          31.208  
R02  23255222.345   124094230.527        2810.244          37.747  
R08  22646267.116   121269836.511       -3794.493          36.510  
R09  21543763.263   115042486.611       -2663.459          38.499  
R10  19471376.247   103793457.230        -186.632          43.436  
R11  21449510.013   114619583.746        2911.407          39.783  
R19  21567388.408                       -1975.342          22.809  
R20  20742506.761   110919531.491        2531.614          27.767  
R21  23657322.876   126595197.340        4740.816          36.858  
> 2019  5 20  8 11  3.0002156  0 28
C12  24886775.044   129591964.476       -2228.608          35.255  
C13  39137360.069   203798474.120        1765.751          35.896  
C20  25803112.277                         674.367          24.550  
C23  22612092.874   117747089.450        1740.284          40.745  
C24  26097550.442   135896830.550       -2740.674          33.527  
C25  22025888.595   114694610.119       -1005.741          38.344  
E03                                                                  25347506.586   133201845.352       -1021.806          41.041    25347511.983    99469085.935        -763.026          34.400  
E08                                                                                                                                  25094506.335                        1170.559          19.340  
E11                                                                                                                                  25334948.880    99419774.784        2397.400          30.526  
E12                                                                                                                                  23613620.031    92664921.810        1052.028          34.855  
E25                                                                  23300780.006   122446402.585        1195.924          39.097    23300779.406    91437258.776         893.073          36.775  
G06                                                                  24357788.554    95585183.355        2206.150          30.129  
G12  21088187.552   110819176.767        2283.476          43.298  
G13  24672076.577   129652661.761       -3839.342          40.302  
G15  23148875.467   121648114.137       -3258.945          46.744  
G17  22525201.927   118370736.160       -1979.191          43.492  
G19  21049203.140   110614144.426        -489.241          35.588  
G24  20197397.433   106138009.866         341.253          43.303    20197390.537    79258896.588         254.868          39.661  
G32  24875312.480                        3255.923          21.095  
R01  21501483.233   114937696.592       -1396.832          30.471  
R02  23254715.695   124091580.861        2809.641          37.896  
R08  22647003.406   121273791.680       -3794.631          36.498  
R09  21544287.300   115045310.282       -2663.583          38.210  
R10  19471445.199   103793804.002        -186.966          43.296  
R11  21448997.368   114616832.567        2911.379          40.343  
R19  21567787.132                       -1975.585          22.865  
R20  20742055.874   110917160.811        2530.993          28.453  
R21  23656475.663   126590616.803        4740.962          37.448  
> 2019  5 20  8 11  4.0002157  0 27
C12  24887234.026   129594349.637       -2229.051          35.066  
C13  39137052.183   203796864.643        1765.587          36.016  
C20  25803009.448                         672.491          23.809  
C23  22611788.884   117745505.572        1739.987          40.809  
C24  26098107.456   135899727.532       -2740.872          35.027  
C25  22026113.139   114695772.379       -1006.150          38.450  
E03                                                                  25347730.531   133203025.172       -1022.279          40.057    25347736.827    99469966.987        -763.406          35.211  
E08                                                                                                                                  25094238.021                        1167.368          19.235  
E11                                                                                                                                  25334366.983    99417495.002        2397.427          30.189  
E12                                                                                                                                  23613380.797    92663987.751        1051.704          35.222  
E25                                                                  23300581.843   122445364.468        1195.659          39.021    23300583.042    91436483.574         892.847          37.067  
G06                                                                  24357255.223    95583095.143        2205.857          29.875  
G12  21087786.129   110817051.329        2282.979          44.187  
G13  24672837.750   129656658.742       -3839.439          39.982  
G15  23149524.218   121651530.908       -3259.229          46.480  
G17  22525612.943   118372873.394       -1979.692          43.481  
G19  21049319.759   110614791.822        -489.854          33.799  
G24  20197362.957   106137826.678         340.730          43.283    20197355.162    79258759.833         254.400          39.685  
G32  24874724.587                        3258.824          21.755  
R01  21501768.635   114939254.539       -1397.690          28.011  
R02  23254226.134   124088931.883        2808.953          38.079  
R08  22647749.889   121277747.181       -3794.963          35.905  
R09  21544811.637   115048134.205       -2663.835          37.295  
R10  19471507.256   103794151.236        -187.428          42.902  
R11  21448475.130   114614081.605        2911.162          40.405  
R19  21568173.264                       -1971.869          21.218  
R20  20741611.281   110914791.014        2530.109          28.341  
> 2019  5 20  8 11  5.0002157  0 27
C12  24887658.533   129596578.971       -2229.334          34.739  
C13  39136710.719   203795099.152        1765.491          36.117  
C20  25802879.938                         673.050          22.813  
C23  22611456.714   117743765.792        1739.780          39.164  
C24  26098630.894   135902468.370       -2740.837          34.723  
C25  22026302.908   114696778.782       -1006.403          38.307  
E03                                                                  25347930.193   133204047.876       -1022.704          40.317    25347931.692    99470730.706        -763.719          36.429  
E08                                                                                                                                  25093943.325                        1163.650          18.291  
E11                                                                                                                                  25333754.806    99415097.715        2397.287          30.185  
E12                                                                                                                                  23613112.782    92662936.387        1051.364          35.119  
E25                                                                  23300355.799   122444168.972        1195.496          38.657    23300354.001    91435590.838         892.736          37.354  
G06                                                                  24356692.513    95580889.279        2205.865          29.399  
G12  21087351.131   110814768.632        2282.697          45.305  
G13  24673567.744   129660498.161       -3839.419          39.361  
G15  23150144.488   121654790.328       -3259.420          45.939  
G17  22525987.683   118374853.544       -1980.150          43.570  
G19  21049419.590   110615282.472        -490.650          34.654  
G24  20197294.904   106137486.393         340.285          43.023    20197290.707    79258505.710         254.123          39.911  
G32  24874109.712                        3257.928          22.603  
R01  21502016.264   114940652.986       -1398.447          27.951  
R02  23253685.908   124086123.568        2808.315          37.249  
R08  22648463.995   121281542.352       -3795.172          35.819  
R09  21545314.689   115050798.258       -2664.053          37.994  
R10  19471545.929   103794339.058        -187.822          42.902  
R11  21447931.906   114611170.644        2910.961          40.675  
R19  21568536.013                       -1974.148          21.041  
R20  20741140.607   110912261.599        2529.415          27.042  
> 2019  5 20  8 11  6.0002158  0 27
C12  24888114.217   129598964.856       -2229.775          33.615  
C13  39136402.532   203793489.935        1765.327          35.516  
C20  25802777.709                         672.097          22.498  
C23  22611152.125   117742182.355        1739.546          38.677  
C24  26099181.613   135905365.556       -2741.077          34.766  
C25  22026530.150   114697941.635       -1006.743          39.026  
E03                                                                  25348153.239   133205228.600       -1023.182          40.580    25348155.637    99471612.439        -764.088          36.385  
E08                                                                                                                                  25093674.710                        1164.282          17.515  
E11                                                                                                                                  25333175.008    99412818.052        2397.308          29.406  
E12                                                                                                                                  23612876.846    92662003.004        1051.028          35.283  
E25                                                                  23300156.437   122443131.182        1195.332          38.089    23300156.437    91434815.898         892.585          36.824  
G06                                                                  24356162.480    95578801.416        2205.508          29.126  
G12  21086950.308   110812643.928        2282.246          46.270  
G13  24674328.618   129664495.145       -3839.442          39.401  
G15  23150790.841   121658207.529       -3259.659          45.342  
G17  22526396.900   118376991.711       -1980.625          43.554  
G19  21049540.406   110615931.390        -491.376          34.729  
G24  20197258.629   106137304.235         339.700          42.835    20197255.931    79258369.693         253.662          39.647  
G32  24873523.618   130711286.2131       3254.304          23.155  
R01  21502295.071   114942212.625       -1399.384          28.616  
R02  23253190.351   124083476.016        2807.527          34.433  
R08  22649199.086   121285498.479       -3795.589          35.165  
R09  21545842.324   115053622.719       -2664.374          38.528  
R10  19471606.188   103794687.160        -188.295          42.883  
R11  21447416.562   114608420.143        2910.701          41.144  
R19  21568967.115                       -1976.537          18.843  
R20  20740696.315   110909893.191        2528.721          25.867  
> 2019  5 20  8 11  7.0002158  0 25
C12  24888544.719   129601195.128       -2230.272          34.724  
C13  39136063.767   203791724.876        1765.059          35.515  
C20  25802651.196                         674.344          21.543  
C23  22610818.756   117740443.131        1739.224          39.613  
C24  26099712.845   135908106.791       -2741.235          34.533  
E03                                                                  25348349.303   133206252.281       -1023.681          41.132    25348350.802    99472376.822        -764.383          34.787  
E11                                                                                                                                  25332563.431    99410420.847        2397.205          29.465  
E12                                                                                                                                  23612608.231    92660952.365        1050.639          35.359  
E25                                                                  23299928.295   122441936.090        1195.092          37.308    23299930.094    91433923.483         892.415          36.129  
G06                                                                  24355599.469    95576596.038        2205.377          28.709  
G12  21086516.209   110810362.079        2281.850          45.280  
G13  24675061.311   129668334.750       -3839.605          40.264  
G15  23151409.313   121661467.472       -3259.943          45.144  
G17  22526771.341   118378972.830       -1981.119          43.423  
G19  21049635.740   110616423.557        -492.167          35.303  
G24  20197193.574   106136965.099         339.135          42.762    20197191.475    79258116.436         253.257          39.622  
G32  24872905.146                        3251.321          22.843  
R01  21502564.584   114943612.979       -1400.353          27.723  
R02  23252653.123   124080669.145        2806.870          32.812  
R08  22649903.298   121289294.382       -3795.903          34.916  
R09  21546345.975   115056287.389       -2664.669          38.840  
R10  19471643.961   103794875.906        -188.746          42.494  
R11  21446865.244   114605509.626        2910.517          40.338  
R19  21569352.948                       -1983.725          17.956  
R20  20740243.628                        2527.338          26.342  
> 2019  5 20  8 11  8.0002159  0 24
C12  24889002.802   129603581.742       -2230.504          33.020  
C13  39135753.182   203790115.965        1765.021          36.291  
C20  25802559.160                         671.655          20.252  
C23  22610515.066   117738860.219        1739.022          39.469  
E03                                                                  25348573.847   133207433.896       -1024.073          41.032    25348575.946    99473259.228        -764.761          34.690  
E11                                                                                                                                  25331982.733    99408141.359        2397.133          29.799  
E12                                                                                                                                  23612372.295    92660019.679        1050.332          34.735  
E25                                                                  23299731.332   122440898.725        1194.908          37.433    23299732.531    91433148.811         892.317          36.130  
G06                                                                  24355069.136    95574508.434        2205.250          27.129  
G10  24899028.461                       -1693.190          17.783  
G12  21086110.889   110808238.122        2281.499          44.612  
G13  24675822.484   129672331.792       -3839.500          40.274  
G15  23152059.263   121664885.110       -3260.096          45.163  
G17  22527179.358   118381111.930       -1981.558          43.603  
G19  21049766.750   110617074.014        -492.915          35.731  
G24  20197158.798   106136783.941         338.700          42.355    20197157.599    79257981.176         252.905          39.837  
G32  24872320.551   130704935.7731       3253.863          23.569  
R01  21502882.964                       -1401.790          26.065  
R02  23252156.967   124078022.877        2806.243          34.372  
R08  22650642.287   121293251.169       -3796.249          35.321  
R09  21546875.708   115059112.301       -2664.825          39.076  
R10  19471707.517   103795224.874        -189.162          42.781  
R11  21446349.601   114602759.473        2910.353          40.872  
R20  20739786.145   110904998.4411       2527.208          26.966  
> 2019  5 20  8 11  9.0002160  0 26
C12  24889464.482   129605968.921       -2231.069          34.004  
C13  39135440.199   203788507.257        1764.818          35.021  
C20  25802463.226                         669.453          19.093  
C23  22610208.978   117737277.613        1738.716          39.870  
C24  26100825.375   135913901.3171      -2741.164          35.204  
E03                                                                  25348799.891   133208616.013       -1024.576          40.251    25348800.191    99474141.981        -765.108          34.919  
E11                                                                                                                                  25331401.735    99405862.060        2396.944          28.209  
E12                                                                                                                                  23612133.060    92659087.341        1049.983          35.521  
E25                                                                  23299534.668   122439861.565        1194.701          37.675    23299534.668    91432374.327         892.129          36.457  
G06                                                                  24354535.806    95572420.950        2205.129          29.453  
G10  24899378.019                       -1704.118          18.136  
G12  21085706.169   110806114.521        2281.143          44.500  
G13  24676584.556   129676328.936       -3839.602          39.325  
G15  23152709.213   121668303.035       -3260.383          44.280  
G17  22527582.579   118383251.544       -1982.072          43.441  
G19  21049885.767   110617725.164        -493.608          35.098  
G24  20197121.923   106136603.425         338.058          41.111    20197122.823    79257846.343         252.477          40.338  
G32  24871728.161                        3253.516          23.277  
R01  21503159.373   114946736.6611      -1401.837          28.379  
R02  23251662.609   124075377.238        2805.614          33.731  
R08  22651376.478   121297208.271       -3796.565          33.881  
R09  21547409.339   115061937.506       -2665.118          40.060  
R10  19471776.170   103795574.245        -189.565          42.620  
R11  21445833.658   114600009.436        2910.237          39.625  
R19  21570090.137                       -1983.594          15.814  
R20  20739340.054                        2527.404          25.885  
> 2019  5 20  8 11 10.0002160  0 25
C12  24889891.687   129608200.280       -2231.359          33.000  
C13  39135105.630   203786742.612        1764.645          34.838  
C23  22609873.510   117735539.128        1738.485          38.848  
C24  26101355.408   135916642.732       -2741.414          34.850  
E03                                                                  25348994.756   133209641.022       -1025.008          38.885    25348995.655    99474907.308        -765.327          35.018  
E11                                                                                                                                  25330790.159    99403465.035        2397.025          28.433  
E12                                                                                                                                  23611867.145    92658037.633        1049.707          35.290  
E25                                                                  23299305.626   122438667.110        1194.455          37.583    23299307.725    91431482.341         891.986          35.555  
G06                                                                  24353972.795    95570216.068        2204.882          29.098  
G10  24899712.588                       -1706.005          15.287  
G12  21085273.569   110803833.911        2280.611          45.269  
G13  24677311.253   129680168.683       -3839.748          39.875  
G15  23153327.985   121671563.678       -3260.642          42.810  
G17  22527964.215   118385234.100       -1982.557          43.207  
G19  21049984.099   110618219.494        -494.330          34.782  
G24  20197059.267   106136265.789         337.636          41.483    20197058.667    79257594.208         252.135          38.992  
G32  24871105.192                        3250.504          22.150  
R01  21503421.091                       -1403.952          24.908  
R02  23251119.385   124072572.340        2804.898          30.138  
R08  22652094.182   121301005.150       -3796.879          34.921  
R09  21547909.693   115064602.841       -2665.335          39.634  
R10  19471810.346   103795764.373        -190.128          42.730  
R11  21445285.937   114597099.479        2909.957          41.738  
R19  21570446.890                       -1975.426          13.958  
R20  20738883.170                        2524.301          28.343  
> 2019  5 20  8 11 11.0002161  0 25
C12  24890348.270   129610588.250       -2231.861          32.925  
C13  39134793.246   203785134.155        1764.568          34.771  
C23  22609571.020   117733956.882        1738.356          39.272  
C24  26101901.330   135919540.168       -2741.326          34.385  
E03                                                                  25349220.800   133210823.862       -1025.298          39.210    25349220.200    99475790.629        -765.676          35.709  
E11                                                                                                                                  25330210.360    99401185.621        2397.059          28.475  
E12                                                                                                                                  23611628.510    92657106.013        1049.266          35.391  
E25                                                                  23299112.260   122437630.217        1194.436          37.498    23299110.761    91430708.008         891.978          36.276  
G06                                                                  24353441.563    95568128.915        2204.798          29.777  
G10  24900060.647                       -1699.818          16.624  
G12  21084868.849   110801711.100        2280.353          43.100  
G13  24678076.323   129684165.837       -3839.612          41.322  
G15  23153978.834   121674981.910       -3260.690          44.836  
G17  22528368.635   118387374.498       -1982.856          43.075  
G19  21050112.410   110618871.967        -494.931          35.735  
G24  20197021.793   106136086.124         337.207          41.886    20197023.891    79257460.090         251.763          40.068  
G32  24870515.500                        3252.487          21.923  
R01  21503714.288                       -1403.040          25.630  
R02  23250643.914   124069927.769        2804.545          34.464  
R08  22652837.067   121304962.660       -3796.973          35.113  
R09  21548441.824   115067428.468       -2665.539          39.833  
R10  19471877.800   103796114.576        -190.397          42.475  
R11  21444770.894   114594349.830        2909.849          41.409  
R19  21570967.630                       -1975.030          14.842  
R20  20738438.878                        2524.299          29.269  
> 2019  5 20  8 11 12.0002162  0 24
C12  24890807.552   129612976.229       -2231.869          33.171  
C13  39134490.456   203783525.593        1764.672          34.755  
C23  22609266.431   117732374.780        1738.212          40.357  
C24  26102462.541   135922437.664       -2741.386          34.094  
E03                                                                  25349445.044   133212007.142       -1025.738          38.019    25349445.644    99476674.247        -765.974          36.261  
E11                                                                                                                                  25329628.463    99398906.243        2397.023          29.169  
E12                                                                                                                                  23611391.374    92656174.549        1049.109          35.693  
E25                                                                  23298914.397   122436593.439        1194.320          38.622    23298911.999    91429933.780         891.873          36.104  
G06                                                                  24352908.232    95566041.938        2204.622          30.197  
G10  24900390.718                       -1691.810          15.606  
G12  21084464.129   110799588.566        2280.075          41.766  
G13  24678834.199   129688162.922       -3839.542          41.013  
G15  23154630.283   121678400.407       -3260.955          44.914  
G17  22528774.254   118389515.336       -1983.295          43.241  
G19  21050231.128   110619525.092        -495.582          36.673  
G24  20196985.518   106135906.911         336.755          42.044    20196990.914    79257326.245         251.490          39.996  
G32  24869928.207                        3256.165          20.904  
R01  21503993.395   114951270.2041      -1403.952          29.157  
R02  23250151.055   124067283.801        2803.944          37.112  
R08  22653551.173   121308920.486       -3797.288          35.012  
R09  21548958.966   115070254.246       -2665.691          38.977  
R10  19471939.557   103796465.112        -190.730          42.736  
R11  21444259.448   114591600.385        2909.645          39.628  
R20  20738011.373   110895374.6451       2524.017          29.095  
> 2019  5 20  8 11 13.0002162  0 25
C12  24891236.855   129615208.739       -2232.510          32.778  
C13  39134147.793   203781761.331        1764.261          35.052  
C23  22608931.862   117730636.937        1737.842          42.214  
C24  26102988.677   135925179.290       -2741.627          34.711  
E03                                                                  25349640.809   133213033.380       -1026.238          38.133    25349640.809    99477440.556        -766.308          37.013  
E08                                                                                                                                  25091727.259                        1163.763          20.258  
E11                                                                                                                                  25329020.484    99396509.425        2396.819          30.208  
E12                                                                                                                                  23611124.259    92655125.575        1048.974          34.936  
E25                                                                  23298686.855   122435399.436        1194.003          39.400    23298684.157    91429042.132         891.648          34.808  
G06  24352571.266   127973441.7451       2952.079          24.175    24352346.721    95563837.477        2204.461          30.785  
G12  21084030.330   110797308.974        2279.592          41.475  
G13  24679562.694   129692002.617       -3839.696          41.386  
G15  23155254.751   121681661.653       -3261.246          45.444  
G17  22529153.492   118391499.201       -1983.866          42.871  
G19  21050325.863   110620021.600        -496.508          36.222  
G24  20196927.958   106135570.744         336.167          42.486    20196926.459    79257075.204         251.042          39.901  
G28  25524988.518                       -2883.213          14.405  
G32  24869308.836                        3252.050          23.051  
R01  21504248.519   114952675.282       -1405.078          28.709  
R02  23249627.018   124064480.697        2803.104          36.930  
R08  22654275.172   121312718.215       -3797.729          34.024  
R09  21549463.217   115072920.323       -2666.076          39.117  
R10  19471980.928   103796656.413        -191.301          42.856  
R11  21443713.226   114588690.892        2909.493          39.461  
R20  20737539.200   110892851.466        2523.179          28.771  
> 2019  5 20  8 11 14.0002163  0 27
C12  24891693.139   129617597.740       -2232.891          33.146  
C13  39133837.508   203780153.204        1764.237          35.208  
C23  22608629.072   117729055.319        1737.728          40.195  
C24  26103542.693   135928077.030       -2741.630          33.244  
C25  22028220.980   114706787.1851      -1009.120          36.744  
E03                                                                  25349868.351   133214217.610       -1026.688          36.869    25349865.653    99478324.845        -766.645          35.962  
E08                                                                                                                                  25091461.343                        1160.974          21.754  
E11                                                                                                                                  25328438.287    99394230.311        2396.759          30.522  
E12                                                                                                                                  23610886.823                        1049.016          35.002  
E25                                                                  23298489.591   122434363.090        1193.888          38.660    23298488.392    91428268.268         891.509          35.151  
G06  24352050.226                        2951.459          21.928    24351815.489    95561750.845        2204.277          30.448  
G12  21083622.612   110795187.166        2279.351          41.236  
G13  24680326.565   129695999.784       -3839.625          41.767  
G15  23155903.202   121685080.539       -3261.345          45.442  
G17  22529559.710   118393641.005       -1984.262          42.930  
G19  21050448.778   110620676.250        -497.108          34.150  
G24  20196892.582   106135392.542         335.744          42.944    20196891.983    79256942.149         250.699          39.447  
G28  25525571.914                       -2880.967          15.233  
G32  24868712.848   130686050.4011       3252.196          24.063  
R01  21504540.217   114954241.327       -1405.789          28.225  
R02  23249133.260   124061838.179        2802.492          36.927  
R08  22655007.265   121316676.655       -3797.902          35.137  
R09  21549987.854   115075746.633       -2666.223          39.286  
R10  19472041.486   103797007.860        -191.640          42.622  
R11  21443201.181   114585941.726        2909.366          39.714  
R19  21572036.090                       -1977.674          13.443  
R20  20737094.009   110890489.427        2522.352          27.494  
> 2019  5 20  8 11 15.0002164  0 26
C12  24892153.321   129619986.934       -2233.084          32.870  
C13  39133529.321   203778545.044        1764.269          35.209  
C23  22608325.982   117727473.945        1737.484          39.840  
C24  26104100.008   135930974.625       -2741.484          32.732  
C25  22028443.426   114707952.692       -1009.398          35.591  
E03                                                                  25350093.196   133215402.030       -1026.878          36.585    25350090.797    99479209.403        -766.913          35.326  
E08                                                                                                                                  25091193.628                        1156.874          21.549  
E11                                                                                                                                  25327856.090    99391951.070        2396.886          29.810  
E12                                                                                                                                  23610649.987    92653264.6491       1048.110          35.015  
E25                                                                  23298292.927   122433326.793        1193.839          38.694    23298290.829    91427494.486         891.427          35.409  
G06                                                                  24351283.357    95559664.283        2204.207          30.187  
G12  21083208.898   110793065.749        2278.959          37.475  
G13  24681086.539   129699996.986       -3839.660          41.559  
G15  23156555.550   121688499.683       -3261.601          44.742  
G17  22529967.128   118395783.163       -1984.615          42.574  
G19  21050575.890   110621331.592        -497.800          34.232  
G24  20196861.104   106135214.763         335.321          43.226    20196859.005    79256809.429         250.365          39.442  
G28  25526155.310                       -2878.585          15.259  
G32  24868128.253                        3252.039          23.517  
R01  21504824.720   114955808.049       -1406.465          27.808  
R02  23248645.797   124059196.246        2801.909          36.302  
R08  22655740.257   121320635.513       -3798.321          33.973  
R09  21550526.581   115078573.139       -2666.419          39.905  
R10  19472107.441   103797359.670        -192.004          42.581  
R11  21442678.343   114583192.722        2909.205          40.239  
R20  20736646.418   110888128.032        2521.707          28.369  
> 2019  5 20  8 11 16.0002164  0 26
C12  24892585.322   129622220.608       -2233.675          32.194  
C13  39133191.755   203776781.163        1763.881          34.466  
C23  22607988.415   117725736.725        1737.219          40.950  
C24  26104626.143   135933716.389       -2741.764          33.499  
C25  22028638.891   114708962.397       -1009.705          36.259  
E03                                                                  25350292.857   133216429.542       -1027.512          36.155    25350286.562    99479976.742        -767.339          33.181  
E08                                                                                                                                  25090898.932                        1159.161          21.989  
E11                                                                                                                                  25327245.413    99389554.235        2396.835          29.679  
E12                                                                                                                                  23610382.872    92652216.939        1047.710          35.002  
E25                                                                  23298068.383   122432133.219        1193.574          38.012    23298064.186    91426603.134         891.352          35.019  
G06                                                                  24350721.246    95557460.147        2204.136          30.383  
G12  21082781.994   110790787.282        2278.466          39.579  
G13  24681816.534   129703836.635       -3839.649          41.464  
G15  23157175.821   121691761.461       -3261.778          46.011  
G17  22530344.267   118397768.304       -1985.141          42.725  
G19  21050669.425   110621830.106        -498.514          33.803  
G24  20196798.148   106134880.028         334.735          43.042    20196796.349    79256559.382         250.048          39.797  
G28  25526713.224                       -2877.790          15.576  
G32  24867510.980   130679704.9981       3251.480          23.423  
R01  21505082.541   114957215.271       -1407.222          30.734  
R02  23248110.668   124056395.023        2801.223          36.129  
R08  22656471.751   121324434.138       -3798.624          31.027  
R09  21551020.639   115081239.780       -2666.641          39.994  
R10  19472138.619   103797552.117        -192.447          41.965  
R11  21442143.513   114580283.773        2908.949          39.755  
R20  20736177.243   110885607.323        2520.709          27.862  
> 2019  5 20  8 11 17.0002165  0 26
C12  24893039.807   129624610.425       -2233.707          33.188  
C13  39132884.768   203775173.152        1764.121          36.754  
C23  22607685.625   117724155.676        1737.160          41.410  
C24  26105184.657   135936614.178       -2741.679          33.361  
C25  22028861.636   114710128.362       -1009.856          35.942  
E03                                                                  25350520.700   133217885.835       -1027.750          32.594    25350514.404    99480861.809        -767.421          30.415  
E08                                                                                                                                  25090633.016    98461038.5471       1159.835          21.945  
E11                                                                                                                                  25326666.514    99387275.056        2396.825          30.988  
E12                                                                                                                                  23610145.436    92651287.024        1047.560          36.682  
E25                                                                  23297870.820   122431097.208        1193.552          37.675    23297866.023    91425829.504         891.275          33.908  
G06                                                                  24350188.815    95555373.955        2203.837          28.940  
G12  21082376.974   110788666.447        2278.377          38.138  
G13  24682575.009   129707833.702       -3839.525          42.211  
G15  23157828.469   121695180.871       -3261.869          46.165  
G17  22530753.484   118399911.270       -1985.425          42.206  
G19  21050788.442   110622486.733        -499.084          33.823  
G24  20196765.170   106134703.127         334.443          43.503    20196761.873    79256427.315         249.712          39.253  
G28  25527304.715                       -2881.088          15.979  
G32  24866916.492   130676610.966        3251.575          24.418  
R01  21505383.233   114958783.554       -1408.027          32.163  
R02  23247615.411   124053754.260        2800.738          36.593  
R08  22657234.723   121328393.373       -3798.698          27.440  
R09  21551556.368   115084066.618       -2666.751          39.895  
R10  19472213.567   103797904.635        -192.712          41.975  
R11  21441629.369   114577535.058        2908.915          40.452  
R20  20735747.641   110883247.245        2520.390          27.542  
> 2019  5 20  8 11 18.0002166  0 25
C12  24893499.389   129626999.248       -2232.714          33.151  
C13  39132575.082   203773563.898        1765.364          37.426  
C23  22607380.136   117722573.427        1738.359          41.327  
C24  26105739.872   135939510.546       -2740.258          33.148  
C25  22029085.881   114711293.288       -1008.816          35.500  
E03                                                                  25350742.846   133219070.084       -1026.708          33.131    25350738.649    99481746.220        -766.767          28.627  
E08                                                                                                                                  25090369.798    98459995.495        1160.696          22.053  
E11                                                                                                                                  25326084.317    99384994.898        2397.803          31.316  
E12                                                                                                                                  23609910.399    92650356.338        1048.331          36.910  
E25                                                                  23297673.856   122430059.934        1194.816          37.518    23297669.659    91425054.958         892.191          33.964  
G06                                                                  24349659.082    95553286.663        2204.937          29.618  
G12  21081976.152   110786544.628        2279.361          39.532  
G13  24683336.782   129711829.391       -3838.146          41.621  
G15  23158474.821   121698599.072       -3260.659          45.333  
G17  22531158.204   118402053.277       -1984.465          41.797  
G19  21050916.754   110623142.567        -498.292          33.107  
G24  20196730.095   106134525.328         335.341          43.465    20196728.296    79256294.560         250.399          39.125  
G28  25527841.343                       -2881.519          18.663  
G32  24866332.496   130673515.899        3252.608          24.838  
R01  21505676.730   114960351.133       -1407.323          32.623  
R02  23247124.950   124051112.713        2801.522          36.286  
R09  21552084.303   115086892.217       -2665.511          39.655  
R10  19472270.528   103798256.123        -191.682          41.968  
R11  21441111.327   114574785.038        2910.220          40.278  
R20  20735303.948                        2519.186          25.370  
> 2019  5 20  8 11 19.0002166  0 24
C12  24893924.794   129629231.165       -2231.917          31.766  
C13  39132232.119   203771797.694        1766.204          34.270  
C23  22607047.367   117720834.058        1739.369          40.485  
C24  26106265.409   135942249.680       -2739.134          33.646  
C25  22029283.145   114712301.133       -1007.846          36.909  
E03                                                                  25350943.707   133220096.094       -1026.010          31.095    25350934.114    99482512.334        -766.114          27.259  
E08                                                                                                                                  25090073.903    98458834.261        1161.234          22.244  
E11                                                                                                                                  25325472.440    99382596.090        2398.808          31.823  
E12                                                                                                                                  23609643.584    92649307.442        1048.896          35.690  
E25                                                                  23297446.913   122428864.062        1195.873          37.113    23297440.018    91424161.980         892.978          32.059  
G06                                                                  24349096.371    95551081.045        2205.618          31.241  
G12  21081540.253   110784264.430        2280.198          39.257  
G13  24684070.673   129715666.301       -3836.910          39.803  
G15  23159095.692   121701858.719       -3259.647          44.926  
G17  22531536.842   118404037.025       -1983.748          40.548  
G24  20196668.038   106134189.231         336.097          42.388    20196664.140    79256043.566         250.994          38.926  
G32  24865709.527   130670261.828        3254.072          24.869  
R01  21505946.843   114961758.084       -1406.951          32.963  
R02  23246603.012   124048310.487        2802.226          36.988  
R08  22658702.507                       -3795.293          23.365  
R09  21552582.258   115089556.731       -2664.514          39.194  
R10  19472317.895   103798446.960        -190.837          41.740  
R11  21440566.305   114571873.683        2911.355          41.046  
R20  20734799.997                        2518.749          23.563  
> 2019  5 20  8 11 20.0002167  0 25
C12  24894381.378   129631619.057       -2231.782          30.894  
C13  39131923.033   203770186.989        1766.815          33.444  
C23  22606741.878   117719250.547        1739.621          39.912  
C24  26106820.624   135945144.434       -2738.644          33.198  
C25  22029504.991   114713464.840       -1007.597          36.953  
E03                                                                  25351168.851   133221279.418       -1025.782          28.962    25351159.857    99483396.099        -766.120          26.629  
E08                                                                                                                                  25089803.490    98457790.576        1161.331          21.314  
E11                                                                                                                                  25324890.843    99380314.668        2399.067          32.116  
E12                                                                                                                                  23609405.848                        1046.381          34.360  
E25                                                                  23297247.851   122427825.391        1196.213          36.371    23297243.954    91423386.341         893.284          30.759  
G06  24348582.527   127952612.8251       2953.995          31.520    24348565.139    95548992.805        2205.884          31.933  
G12  21081135.534   110782141.615        2280.357          39.660  
G13  24684825.851   129719660.281       -3836.438          39.199  
G15  23159748.640   121705275.579       -3259.318          45.479  
G17  22531946.058   118406178.179       -1983.612          40.691  
G19  21051113.118                        -496.813          25.978  
G24  20196635.960   106134010.655         336.118          42.007    20196629.964    79255910.230         250.982          38.839  
G32  24865122.234                        3253.381          25.123  
R01  21506241.839   114963325.514       -1407.174          32.915  
R02  23246099.060   124045668.319        2802.142          37.545  
R08  22659382.436                       -3797.561          20.250  
R09  21553111.691   115092380.992       -2664.174          38.927  
R10  19472378.753   103798797.484        -190.718          41.329  
R11  21440050.062   114569122.204        2911.680          41.362  
R20  20734355.105   110876004.9161       2521.195          24.928  
> 2019  5 20  8 11 21.0002168  0 25
C12  24894845.157   129634008.460       -2233.293          31.879  
C13  39131613.048   203768577.452        1765.647          33.370  
C23  22606440.287   117717668.380        1738.277          40.749  
C24  26107374.041   135948040.484       -2739.940          33.564  
C25  22029729.835   114714629.871       -1008.921          36.095  
E03                                                                  25351384.102   133222464.292       -1027.332          28.680    25351384.102    99484280.713        -766.968          26.229  
E08                                                                                                                                  25089539.973    98456748.102        1160.119          21.797  
E11                                                                                                                                  25324310.145    99378034.178        2398.135          32.170  
E12                                                                                                                                  23609168.713    92647446.0221       1047.759          36.602  
E25                                                                  23297048.489   122426788.066        1194.867          37.589    23297045.191    91422611.587         892.399          33.264  
G06  24348042.601   127949817.844        2952.523          32.207    24348032.108    95546905.633        2204.818          31.678  
G12  21080732.313   110780020.100        2279.057          38.978  
G13  24685584.625   129723655.342       -3837.519          40.477  
G15  23160395.292   121708693.772       -3260.650          44.665  
G17  22532352.277   118408320.823       -1985.102          40.685  
G19  21051244.127                        -500.142          26.427  
G24  20196598.186   106133833.697         334.500          42.359    20196597.586    79255778.076         249.799          39.975  
G32  24864540.337                        3251.677          25.164  
R01  21506542.830   114964894.917       -1409.147          33.258  
R02  23245612.797   124043027.903        2800.392          37.732  
R08  22660128.919                       -3800.498          21.167  
R09  21553635.728   115095206.625       -2665.546          39.067  
R10  19472441.709   103799149.558        -192.268          41.826  
R11  21439536.218   114566372.053        2910.351          40.839  
R20  20733895.523                        2522.796          22.936  
> 2019  5 20  8 11 22.0002168  0 26
C12  24895272.062   129636242.813       -2234.353          31.377  
C13  39131274.582                        1762.418          33.556  
C23  22606105.119   117715931.057        1737.323          41.872  
C24  26107904.973   135950781.244       -2740.760          34.299  
C25  22029928.598   114715639.949       -1010.078          36.969  
E03                                                                  25351578.068   133223492.975       -1028.683          36.166    25351579.567    99485048.954        -768.241          34.176  
E08                                                                                                                                  25089244.677    98455588.596        1159.506          21.841  
E11                                                                                                                                  25323698.568    99375636.593        2397.585          30.139  
E12                                                                                                                                  23608900.398    92646399.061        1046.961          35.496  
E25                                                                  23296820.647   122425594.086        1193.980          36.404    23296819.747    91421720.065         891.522          36.429  
G06  24347477.192                        2950.137          32.909    24347470.297    95544701.509        2204.124          29.970  
G12  21080298.813   110777742.384        2277.716          42.683  
G13  24686314.620   129727493.668       -3838.326          40.501  
G15  23161016.762   121711955.437       -3261.666          44.781  
G17  22532725.819   118410307.269       -1986.445          40.588  
G19  21051343.058   110625452.4221       -501.402          28.982  
G24  20196533.431   106133500.522         333.175          42.705    20196533.431    79255529.210         248.866          39.549  
G32  24863914.970   130660819.9371       3251.321          24.662  
R01  21506808.446   114966305.772       -1410.855          32.560  
R02  23245092.058   124040229.044        2798.858          37.469  
R08  22660851.719                       -3799.029          29.953  
R09  21554141.478   115097873.214       -2666.589          38.432  
R10  19472477.984   103799343.046        -193.488          42.328  
R11  21438991.795   114563462.713        2909.340          39.511  
R19  21575165.624                       -1988.947          21.800  
R20  20733414.956                        2520.108          22.401  
> 2019  5 20  8 11 23.0002169  0 26
C12  24895734.042   129638634.099       -2235.177          33.871  
C13  39130963.098   203765204.7261       1764.126          34.210  
C23  22605802.928   117714350.456        1736.711          42.144  
C24  26108460.789   135953678.293       -2740.939          32.719  
C25  22030150.144   114716806.791       -1010.732          36.214  
E03                                                                  25351805.610   133224679.886       -1029.369          37.636    25351805.310    99485935.215        -768.616          37.153  
E08                                                                                                                                  25088982.059    98454547.443        1158.798          22.288  
E11                                                                                                                                  25323118.170    99373356.961        2397.277          29.480  
E12                                                                                                                                  23608664.462                        1046.292          36.327  
E25                                                                  23296622.184   122424558.241        1193.387          38.038    23296621.584    91420946.509         891.200          35.650  
G06  24346943.262   127944073.1681       2951.139          32.661    24346940.864                        2203.312          30.105  
G12  21079893.493   110775622.880        2277.046          42.799  
G13  24687076.093   129731489.941       -3838.731          40.296  
G15  23161665.812   121715375.244       -3262.265          45.471  
G17  22533136.534   118412452.014       -1987.204          40.823  
G19  21051467.772                        -505.427          27.923  
G24  20196498.655   106133325.674         332.390          41.020    20196500.154    79255398.708         248.147          39.903  
G28  25530708.558                       -2884.062          20.302  
R01  21507113.935   114967877.912       -1411.884          30.620  
R02  23244589.905   124037591.127        2797.892          37.777  
R08  22661578.116   121351811.3791      -3799.479          32.028  
R09  21554666.415   115100700.464       -2667.163          38.482  
R10  19472541.840   103799697.071        -194.219          42.978  
R11  21438483.647   114560714.072        2908.841          40.256  
R19  21575572.742                       -1987.961          24.156  
R20  20732996.445                        2513.417          21.115  
> 2019  5 20  8 11 24.0002170  0 27
C12  24896193.624   129641025.687       -2235.478          32.727  
C13  39130656.710   203763596.870        1763.966          34.161  
C23  22605496.241   117712770.184        1736.382          41.959  
C24  26109021.700   135956575.691       -2741.288          34.289  
C25  22030373.190   114717973.994       -1011.094          37.273  
E03                                                                  25352026.557   133225867.300       -1029.872          37.045    25352031.054    99486821.921        -769.061          36.563  
E08                                                                                                                                  25088717.642    98453506.632        1158.456          22.619  
E11                                                                                                                                  25322537.472    99371077.448        2397.158          29.791  
E12                                                                                                                                  23608428.225    92644542.1741       1045.954          36.301  
E25                                                                  23296422.822   122423522.527        1193.256          37.515    23296425.820    91420173.192         890.962          33.721  
G06  24346416.227   127941279.789        2950.921          32.295    24346407.533    95540529.4711       2203.531          30.671  
G12  21079495.969   110773503.847        2276.575          43.196  
G13  24687833.968   129735486.271       -3838.788          40.528  
G15  23162315.762   121718795.283       -3262.497          44.504  
G17  22533542.453   118414597.270       -1987.714          39.618  
G19  21051588.588   110626773.8181       -503.661          25.983  
G24  20196463.279   106133151.408         331.808          42.204    20196468.076    79255268.587         247.765          40.341  
G28  25531293.154                       -2881.834          19.794  
G32  24862740.083                        3250.404          25.330  
R01  21507412.528   114969450.941       -1412.773          30.799  
R02  23244097.346   124034953.867        2797.235          38.272  
R08  22662320.402   121355771.629       -3799.713          31.952  
R09  21555189.853   115103527.902       -2667.351          37.867  
R10  19472612.891   103800051.667        -194.789          42.689  
R11  21437969.503   114557965.666        2908.606          39.455  
R19  21575983.457                       -1993.656          23.198  
R20  20732580.633                        2514.448          23.633  
> 2019  5 20  8 11 25.0002170  0 27
C12  24896620.828   129643261.643       -2235.956          33.636  
C13  39130315.846   203761833.134        1763.736          34.371  
C23  22605163.171   117711034.084        1736.100          40.864  
C24  26109540.941   135959317.152       -2741.461          34.361  
C25  22030568.954   114718985.476       -1011.481          38.420  
E03                                                                  25352227.718   133226897.602       -1030.302          37.078    25352227.418    99487591.353        -769.432          35.258  
E08                                                                                                                                  25088422.047    98452348.588        1158.044          21.989  
E11                                                                                                                                  25321925.296    99368680.490        2396.958          28.405  
E12                                                                                                                                  23608161.110    92643496.634        1045.540          36.119  
E25                                                                  23296192.581   122422329.672        1192.855          37.663    23296197.378    91419282.293         890.900          35.675  
G06  24345857.713   127938328.884        2950.905          32.702    24345846.321    95538326.133        2203.338          31.139  
G12  21079060.070   110771227.763        2276.084          40.005  
G13  24688565.762   129739325.205       -3838.934          41.132  
G15  23162937.832   121722058.098       -3262.815          44.022  
G17  22533919.592   118416585.559       -1988.289          39.273  
G19  21051679.126                        -503.503          24.731  
G24  20196401.222   106132820.221         331.187          42.411    20196405.120    79255021.256         247.331          39.898  
G28  25531841.174                       -2880.550          20.690  
G32  24862113.517                        3249.897          24.544  
R01  21507671.549   114970864.631       -1413.690          31.670  
R02  23243571.510   124032157.482        2796.386          38.240  
R08  22663036.306   121359571.768       -3800.139          34.810  
R09  21555699.500   115106195.715       -2667.813          38.462  
R10  19472649.165   103800246.904        -195.237          42.539  
R11  21437428.977   114555057.315        2908.352          39.710  
R19  21576351.902                       -1992.978          23.701  
R20  20732115.355                        2513.575          22.009  
> 2019  5 20  8 11 26.0002171  0 25
C12  24897081.909   129645654.076       -2236.323          32.542  
C23  22604861.880   117709454.157        1736.036          40.266  
C24  26110102.452   135962214.573       -2741.312          33.978  
C25  22030791.700   114720153.242       -1011.656          38.667  
E03                                                                  25352449.265   133228085.870       -1030.726          38.842    25352453.162    99488478.698        -769.700          33.982  
E08                                                                                                                                  25088156.731    98451308.418        1157.816          22.012  
E11                                                                                                                                  25321344.898    99366401.061        2397.073          28.401  
E12                                                                                                                                  23607924.874                        1044.793          36.565  
E25                                                                  23295996.517   122421294.315        1192.899          38.574    23296000.415    91418509.101         890.836          36.732  
G06  24345317.188   127935535.990        2950.436          32.302    24345316.588    95536240.726        2203.052          31.056  
G12  21078660.147   110769109.401        2275.903          43.183  
G13  24689323.037   129743321.486       -3838.739          40.122  
G15  23163587.482   121725478.481       -3262.841          43.656  
G17  22534333.006   118418731.663       -1988.563          39.286  
G24  20196369.145   106132646.883         330.880          42.726    20196370.943    79254891.809         247.092          40.776  
G28  25532423.071                       -2880.235          20.298  
G32  24861521.127   130648291.2461       3249.833          24.714  
R01  21507966.844   114972439.217       -1414.329          31.517  
R02  23243085.547   124029521.519        2795.938          37.621  
R08  22663778.293   121363532.648       -3800.342          35.254  
R09  21556228.933   115109023.657       -2667.854          39.353  
R10  19472720.816   103800602.214        -195.504          42.669  
R11  21436923.227   114552309.269        2908.246          38.956  
R19  21576771.012                       -1994.788          24.082  
R20  20731663.868                        2514.266          22.879  
> 2019  5 20  8 11 27.0002172  0 26
C12  24897542.090   129648046.525       -2236.339          32.459  
C13  39129695.575   203758617.6271       1763.978          31.813  
C23  22604556.991   117707874.253        1736.014          40.977  
C24  26110661.865   135965111.862       -2741.179          34.327  
C25  22031018.343   114721321.000       -1011.649          38.712  
E03                                                                  25352673.210   133229274.255       -1030.844          39.445    25352680.105    99489366.091        -769.748          33.477  
E08                                                                                                                                  25087892.014    98450268.343        1157.720          21.276  
E11                                                                                                                                  25320765.399    99364121.439        2397.267          29.542  
E12                                                                                                                                  23607688.337    92641641.4401       1045.072          36.171  
E25                                                                  23295799.254   122420258.863        1192.994          38.815    23295803.751    91417735.905         890.841          36.168  
G06  24344784.456   127932743.133        2950.398          31.812    24344786.255    95534155.089        2203.281          31.833  
G12  21078256.627   110766991.150        2275.793          42.903  
G13  24690085.709   129747317.603       -3838.576          40.506  
G15  23164239.231   121728898.894       -3262.872          43.589  
G17  22534739.524   118420877.954       -1988.749          39.503  
G24  20196334.069   106132473.824         330.601          41.520    20196339.765    79254762.578         246.875          40.153  
G28  25532990.279                       -2881.302          19.321  
G32  24860936.832                        3249.561          23.815  
R01  21508256.144   114974014.371       -1414.899          32.035  
R02  23242593.887   124026885.960        2795.534          37.754  
R08  22664520.879   121367493.519       -3800.334          34.570  
R09  21556758.367   115111851.599       -2667.854          39.076  
R10  19472786.770   103800957.716        -195.695          43.040  
R11  21436408.183   114549560.982        2908.487          39.609  
R19  21577174.833                       -1996.386          24.011  
R20  20731231.867                        2515.994          23.606  
> 2019  5 20  8 11 28.0002172  0 25
C12  24897968.095   129650283.259       -2236.734          32.489  
C23  22604221.823   117706138.355        1735.898          38.835  
C24  26111190.999   135967853.039       -2741.177          34.376  
C25  22031210.810   114722332.946       -1011.946          38.465  
E03                                                                  25352868.674   133230305.482       -1031.226          39.447    25352875.869    99490136.197        -770.106          34.811  
E08                                                                                                                                  25087596.718                        1156.753          19.189  
E11                                                                                                                                  25320154.122    99361724.264        2397.175          28.677  
E12                                                                                                                                  23607422.122    92640596.554        1044.886          35.562  
E25                                                                  23295570.212   122419065.950        1192.913          37.520    23295577.108    91416845.169         890.736          36.773  
G06  24344224.744   127929792.876        2950.258          32.813    24344223.245    95531951.903        2203.186          31.604  
G12  21077825.225   110764715.756        2275.394          44.007  
G13  24690817.503   129751156.092       -3838.488          41.145  
G15  23164859.501   121732161.874       -3262.979          43.645  
G17  22535117.263   118422867.149       -1989.195          38.042  
G24  20196269.314   106132143.600         330.224          41.317    20196275.909    79254515.987         246.591          39.778  
G28  25533538.899                       -2881.024          18.370  
G32  24860329.452   130641950.0871       3249.394          23.275  
R01  21508522.060   114975429.993       -1415.622          29.983  
R02  23242071.349   124024091.030        2794.930          36.385  
R08  22665218.196   121371294.084       -3800.565          34.581  
R09  21557252.724   115114519.619       -2668.020          39.308  
R10  19472826.043   103801153.809        -196.093          42.818  
R11  21435859.563   114546652.700        2908.282          40.526  
R19  21577542.378   115425176.4721      -1993.047          24.304  
R20  20730775.882                        2512.564          23.834  
> 2019  5 20  8 11 29.0002173  0 27
C12  24898433.973   129652676.659       -2237.289          33.483  
C20  25800293.029                         663.551          20.920  
C23  22603920.531   117704559.075        1735.390          39.922  
C24  26111742.617   135970750.681       -2741.532          34.227  
C25  22031436.854   114723501.509       -1012.453          38.068  
E03                                                                  25353093.519   133231494.858       -1031.834          39.102    25353101.913    99491024.391        -770.549          34.131  
E05                                                                                                                                  26852939.897                       -2162.816          35.541  
E08                                                                                                                                  25087330.802                        1164.999          17.789  
E11                                                                                                                                  25319572.225    99359444.891        2397.017          28.871  
E12                                                                                                                                  23607186.185    92639669.548        1044.651          35.669  
E25                                                                  23295377.146   122418031.128        1192.364          37.968    23295380.444    91416072.347         890.466          36.366  
G06  24343695.011   127927000.532        2949.885          31.749    24343691.713    95529866.818        2202.730          31.096  
G12  21077424.103   110762598.483        2274.816          43.770  
G13  24691575.678   129755152.430       -3838.796          40.721  
G15  23165510.351   121735582.907       -3263.492          43.494  
G17  22535525.280   118425014.552       -1989.861          37.323  
G24  20196236.936   106131971.731         329.411          40.445    20196244.131    79254387.624         246.008          40.043  
G28  25534115.999                       -2878.142          18.609  
G32  24859727.769                        3253.744          20.747  
R01  21508827.249   114977006.884       -1416.634          29.507  
R02  23241581.488   124021456.924        2794.081          32.811  
R08  22665940.396   121375255.684       -3801.063          34.019  
R09  21557793.250   115117348.196       -2668.490          38.855  
R10  19472891.698   103801510.373        -196.758          43.146  
R11  21435340.922   114543905.159        2907.740          40.639  
R19  21577946.498                       -1992.409          24.694  
R20  20730321.097                        2511.853          25.919  
> 2019  5 20  8 11 30.0002174  0 27
C12  24898892.655   129655070.583       -2237.815          32.181  
C13  39128739.237   203753639.4311       1763.205          32.115  
C20  25800197.395                         666.717          17.130  
C23  22603615.942   117702980.103        1735.082          39.712  
C24  26112299.331   135973648.419       -2741.628          33.850  
C25  22031662.897   114724670.519       -1012.901          38.624  
E03                                                                  25353320.761   133232684.815       -1032.415          39.228    25353328.556    99491913.013        -770.977          34.106  
E05                                                                                                                                  26853518.796                       -2157.013          35.646  
E08                                                                                                                                  25087068.484                        1160.316          21.083  
E11                                                                                                                                  25318993.026    99357165.699        2396.837          29.068  
E12                                                                                                                                  23606949.949                        1042.737          35.535  
E25                                                                  23295177.784   122416996.494        1192.176          37.888    23295183.180    91415299.760         890.232          36.471  
G06  24343161.080   127924208.667        2949.408          29.617    24343160.780    95527781.874        2202.590          31.390  
G12  21077019.983   110760481.657        2274.367          43.369  
G13  24692335.652   129759148.897       -3838.925          40.360  
G15  23166161.500   121739004.198       -3263.748          43.807  
G17  22535932.399   118427162.601       -1990.507          36.833  
G24  20196204.559   106131800.425         328.848          40.223    20196209.955    79254259.711         245.558          39.867  
G28  25534704.192                       -2875.531          19.870  
R01  21509123.743   114978584.722       -1417.582          31.073  
R02  23241090.428   124018823.468        2793.430          32.480  
R08  22666708.164   121379217.753       -3801.532          34.810  
R09  21558316.088   115120177.069       -2668.786          38.131  
R10  19472953.155   103801867.441        -197.262          43.442  
R11  21434821.982   114541157.824        2907.535          41.080  
R19  21578358.413                       -1993.205          23.996  
R20  20729889.696   110851971.0941       2511.065          26.074  
> 2019  5 20  8 11 31.0002174  0 26
C12  24899322.857   129657308.802       -2238.219          31.781  
C20  25800080.776                         664.575          14.449  
C23  22603282.873   117701245.332        1734.771          39.907  
C24  26112827.566   135976390.245       -2741.826          34.093  
C25  22031857.163   114725683.749       -1013.230          38.392  
E03                                                                  25353516.826   133233717.779       -1032.964          39.265    25353525.220    99492684.335        -771.322          33.940  
E05                                                                                                                                  26854068.915                       -2157.877          35.853  
E08                                                                                                                                  25086771.390    98445876.2341       1156.223          22.672  
E11                                                                                                                                  25318380.550    99354769.011        2396.689          29.495  
E12                                                                                                                                  23606683.733    92637699.8951       1043.588          35.476  
E25                                                                  23294950.841   122415804.514        1191.980          37.463    23294955.938    91414409.666         890.094          36.158  
G06  24342600.169   127921259.369        2949.298          28.755    24342598.969    95525579.550        2202.324          31.698  
G12  21076587.382   110758207.734        2273.924          43.943  
G13  24693068.944   129762987.874       -3838.977          40.699  
G15  23166786.567   121742268.305       -3264.107          44.071  
G17  22536310.137   118429153.496       -1990.895          36.952  
G24  20196138.904   106131472.159         328.266          40.619    20196148.797    79254014.536         245.175          39.785  
G28  25535266.003                       -2877.460          20.206  
R01  21509384.563   114980003.044       -1418.322          31.627  
R02  23240567.290   124016030.771        2792.697          33.580  
R08  22667406.981   121383019.718       -3801.965          34.064  
R09  21558809.847   115122846.215       -2669.146          38.136  
R10  19472987.931   103802065.192        -197.751          43.215  
R11  21434280.257   114538250.530        2907.293          40.854  
R19  21578714.567   115431482.2551      -1995.907          25.555  
R20  20729413.326                        2511.427          24.893  
> 2019  5 20  8 11 32.0002175  0 28
C12  24899783.339   129659703.500       -2238.588          32.184  
C13  39128093.784   203750269.5651       1762.967          31.681  
C20  25799980.645                         659.188          19.809  
C23  22602980.982   117699666.940        1734.502          39.845  
C24  26113384.280   135979288.254       -2741.900          34.699  
C25  22032082.607   114726853.376       -1013.517          38.904  
E03                                                                  25353745.567   133234908.655       -1033.335          39.980    25353752.163    99493573.650        -771.671          33.937  
E05                                                                                                                                  26854648.414                       -2155.964          36.542  
E08                                                                                                                                  25086510.570    98444837.845        1156.034          21.267  
E11                                                                                                                                  25317800.152    99352489.970        2396.685          29.783  
E12                                                                                                                                  23606448.096    92636774.290        1043.251          35.021  
E25                                                                  23294755.077   122414770.397        1191.659          38.283    23294758.974    91413637.392         889.919          35.588  
G06  24342064.439   127918467.954        2948.957          29.642    24342069.236    95523495.048        2202.147          31.248  
G12  21076184.461   110756091.747        2273.529          43.512  
G13  24693828.318   129766984.445       -3839.029          40.706  
G15  23167437.717   121745690.058       -3264.211          43.998  
G17  22536722.052   118431302.503       -1991.465          37.262  
G24  20196111.023   106131301.904         327.797          40.423    20196116.120    79253887.449         244.732          40.079  
G28  25535814.623                       -2881.966          19.557  
G32  24857937.708                        3245.608          20.999  
R01  21509678.959   114981582.637       -1419.336          31.570  
R02  23240063.939   124013398.794        2791.952          37.890  
R08  22668140.573   121386982.355       -3802.099          33.760  
R09  21559344.976   115125675.659       -2669.357          38.469  
R10  19473060.481   103802423.225        -198.227          42.327  
R11  21433768.511   114535503.625        2907.106          39.503  
R19  21579121.685   115433639.309       -1996.685          26.225  
R20  20728954.044                        2512.078          23.566  
> 2019  5 20  8 11 33.0002176  0 26
C12  24900242.921   129662098.672       -2239.063          32.012  
C20  25799895.804                         661.316          19.456  
C23  22602678.491   117698088.785        1734.264          39.680  
C25  22032304.453   114728023.377       -1013.892          38.407  
E03                                                                  25353971.611   133236100.025       -1033.828          39.532    25353977.906    99494463.259        -771.963          34.289  
E05                                                                                                                                  26855228.512   105385678.3861      -2157.851          36.202  
E08                                                                                                                                  25086245.853    98443800.008        1155.482          21.423  
E11                                                                                                                                  25317219.154    99350210.982        2396.634          29.282  
E12                                                                                                                                  23606212.159    92635849.020        1042.914          35.245  
E25                                                                  23294555.115   122413736.386        1191.554          38.039    23294562.310    91412865.227         889.810          34.802  
G06                                                                  24341536.505    95521410.661        2202.032          31.823  
G12  21075783.039   110753976.154        2273.135          43.127  
G13  24694590.391   129770981.048       -3839.061          40.765  
G15  23168084.669   121749112.137       -3264.538          43.329  
G17  22537129.470   118433451.873       -1991.829          35.793  
G24  20196080.444   106131132.194         327.251          40.638    20196083.143    79253760.697         244.397          40.152  
G28  25536383.030                       -2882.368          19.051  
G32  24857350.414                        3248.526          20.958  
R01  21509969.158   114983162.912       -1420.019          30.954  
R02  23239556.690   124010767.481        2791.288          37.277  
R08  22668885.257   121390945.368       -3802.475          33.152  
R09  21559873.510   115128505.417       -2669.670          36.789  
R10  19473122.238   103802781.645        -198.613          42.220  
R11  21433249.270   114532756.887        2906.937          39.826  
R19  21579516.811   115435797.203       -1997.525          26.343  
R20  20728545.726                        2508.182          24.587  
> 2019  5 20  8 11 34.0002176  0 27
C12  24900671.924   129664337.809       -2239.137          32.210  
C20  25799781.283                         658.431          20.134  
C23  22602345.422   117696354.467        1734.319          39.814  
C24  26114464.732   135984928.1681      -2741.764          32.363  
C25  22032498.719   114729037.297       -1013.920          37.608  
E03                                                                  25354168.874   133237134.003       -1033.978          39.529    25354175.769    99495235.440        -772.182          34.610  
E05                                                                                                                                  26855778.332   105387836.095       -2157.709          35.743  
E08                                                                                                                                  25085950.558    98442644.452        1155.555          21.016  
E11                                                                                                                                  25316609.676    99347814.177        2396.805          29.142  
E12                                                                                                                                  23605946.243    92634806.214        1042.806          34.849  
E25                                                                  23294329.371   122412544.760        1191.626          38.289    23294335.667    91411975.392         889.835          34.969  
G06                                                                  24340977.092    95519208.636        2202.025          32.383  
G12  21075349.839   110751703.131        2273.023          43.527  
G13  24695320.086   129774819.900       -3838.852          40.747  
G15  23168704.939   121752376.621       -3264.484          42.988  
G17  22537506.009   118435443.914       -1992.040          34.673  
G19  21052734.695   110632798.4301       -510.238          28.703  
G24  20196016.888   106130805.163         327.031          40.449    20196021.685    79253516.498         244.200          40.023  
G32  24856720.850                        3249.886          20.295  
R01  21510251.563   114984583.498       -1420.586          30.318  
R02  23239045.244   124007976.505        2790.976          38.067  
R08  22669605.659   121394747.827       -3802.459          33.544  
R09  21560369.067   115131175.015       -2669.598          37.345  
R10  19473159.712   103802980.493        -198.848          42.098  
R11  21432700.950   114529849.903        2906.985          38.761  
R19  21579877.162   115437795.337       -1998.134          25.512  
R20  20728055.266   110842255.2521       2507.977          26.343  
> 2019  5 20  8 11 35.0002177  0 27
C12  24901133.304   129666732.497       -2238.579          32.837  
C13  39127132.650   203745292.5181       1763.727          31.290  
C20  25799666.463                         657.880          22.313  
C23  22602042.032   117694775.538        1735.038          39.833  
C24  26115018.749   135987825.163       -2740.885          33.615  
C25  22032723.563   114730206.649       -1013.242          37.838  
E03                                                                  25354396.716   133238324.993       -1033.448          39.909    25354402.412    99496124.807        -771.722          34.928  
E05                                                                                                                                  26856358.730   105390110.746       -2157.006          36.686  
E08                                                                                                                                  25085685.541    98441606.029        1156.069          20.208  
E11                                                                                                                                  25316027.779    99345534.411        2397.411          29.241  
E12                                                                                                                                  23605711.806    92633880.685        1043.174          34.969  
E25                                                                  23294132.408   122411509.916        1192.385          37.872    23294138.703    91411202.610         890.427          35.564  
G06  24340450.357   127909935.8641       2949.505          30.855    24340444.961    95517123.726        2202.554          32.514  
G12  21074948.717   110749587.024        2273.649          43.646  
G13  24696078.860   129778815.289       -3837.847          40.767  
G15  23169357.887   121755797.832       -3263.669          42.512  
G17  22537920.023   118437593.010       -1991.554          34.999  
G24  20195988.108   106130635.196         327.510          41.174    20195988.708    79253389.588         244.554          39.697  
G32  24856126.062                        3246.850          20.286  
R01  21510536.366   114986164.224       -1420.470          30.470  
R02  23238553.284   124005345.164        2791.316          38.756  
R08  22670324.861   121398710.161       -3801.797          33.616  
R09  21560898.501   115134003.942       -2668.839          37.710  
R10  19473219.671   103803338.482        -198.183          41.201  
R11  21432187.705   114527102.324        2907.779          38.353  
R19  21580272.288                       -1996.593          24.238  
R20  20727610.974                        2507.549          26.884  
> 2019  5 20  8 11 36.0002178  0 27
C12  24901593.186   129669127.764       -2239.157          32.967  
C13  39126826.861   203743685.323        1763.305          31.882  
C20  25799561.235                         659.312          21.221  
C23  22601740.441   117693197.048        1734.599          39.363  
C24  26115577.562   135990722.457       -2741.184          33.691  
C25  22032948.407   114731376.488       -1013.729          37.289  
E03                                                                  25354622.460   133239516.593       -1034.058          39.491    25354628.456    99497014.628        -772.176          34.202  
E05                                                                                                                                  26856937.929   105392385.669       -2157.277          36.885  
E08                                                                                                                                  25085423.223                        1157.683          19.568  
E11                                                                                                                                  25315447.081    99343254.827        2397.229          29.651  
E12                                                                                                                                  23605474.670    92632955.639        1042.692          34.990  
E25                                                                  23293936.044   122410475.395        1192.063          38.071    23293942.039    91410430.099         890.156          35.742  
G06  24339915.527   127907144.315        2949.090          30.251    24339914.928    95515039.071        2202.300          32.049  
G12  21074546.095   110747471.547        2273.019          44.142  
G13  24696841.832   129782810.932       -3838.101          41.108  
G15  23170005.439   121759219.538       -3264.163          42.726  
G17  22538324.443   118439742.807       -1992.255          34.944  
G24  20195953.033   106130465.918         326.820          41.959    20195957.230    79253263.197         244.036          39.538  
G32  24855535.771                        3243.426          18.975  
R01  21510820.869   114987745.973       -1421.492          29.709  
R02  23238055.929   124002714.706        2790.432          38.717  
R08  22671074.642   121402673.037       -3802.339          34.319  
R09  21561431.831   115136833.304       -2669.275          37.669  
R10  19473293.419   103803697.142        -198.853          41.341  
R11  21431664.867   114524355.172        2907.352          37.439  
R19  21580675.509                       -1995.389          24.955  
R20  20727178.673   110837560.1921       2507.305          29.359  
> 2019  5 20  8 11 37.0002178  0 27
C12  24902024.287   129671367.000       -2239.236          32.293  
C23  22601404.373   117691462.418        1734.631          39.351  
C24  26116106.396   135993463.454       -2740.997          34.430  
C25  22033141.174   114732390.243       -1013.755          37.389  
E03                                                                  25354822.721   133240550.836       -1034.243          39.814    25354825.420    99497786.986        -772.359          34.241  
E05                                                                                                                                  26857488.648   105394542.840       -2157.171          37.432  
E08                                                                                                                                  25085124.330    98439412.6781       1155.466          20.689  
E11                                                                                                                                  25314835.804    99340857.445        2397.382          30.006  
E12                                                                                                                                  23605209.354    92631913.042        1042.597          34.972  
E25                                                                  23293709.700   122409283.279        1192.116          37.424    23293714.497    91409539.875         890.224          35.281  
G06  24339356.714   127904195.133        2949.182          30.363    24339352.817    95512836.757        2202.314          32.983  
G12  21074111.696   110745198.598        2272.949          43.410  
G13  24697570.028   129786648.770       -3837.838          40.575  
G15  23170626.609   121762483.636       -3264.099          42.781  
G17  22538706.678   118441735.219       -1992.413          35.464  
G19  21053090.249   110634646.1491       -511.825          30.035  
G24  20195893.974   106130139.376         326.542          41.272    20195894.273    79253019.346         243.851          40.128  
G28  25538671.346                       -2874.403          18.208  
G32  24854918.198                        3244.312          18.636  
R01  21511091.281   114989167.953       -1421.980          29.966  
R02  23237534.889   123999924.537        2790.169          39.384  
R08  22671788.747   121406475.415       -3802.378          34.332  
R09  21561928.587   115139502.567       -2669.263          37.163  
R10  19473329.694   103803896.125        -198.983          41.721  
R11  21431125.541   114521447.662        2907.510          37.450  
R19  21581045.453                       -2001.411          25.207  
R20  20726706.799   110835053.234        2506.957          28.817  
> 2019  5 20  8 11 38.0002179  0 28
C12  24902482.370   129673761.386       -2238.276          32.675  
C20  25799329.496                         663.589          20.785  
C23  22601101.283   117689882.763        1735.765          39.344  
C24  26116661.611   135996359.240       -2739.676          34.716  
C25  22033367.217   114733559.097       -1012.744          37.290  
E03                                                                  25355047.266   133241741.657       -1033.279          40.031    25355051.763    99498676.235        -771.604          34.144  
E05                                                                                                                                  26858068.146   105396816.636       -2156.151          37.607  
E08                                                                                                                                  25084863.810    98438374.356        1155.967          20.414  
E11                                                                                                                                  25314254.806    99338576.754        2398.336          30.040  
E12                                                                                                                                  23604974.916    92630987.421        1043.267          34.913  
E25                                                                  23293510.338   122408247.490        1193.331          37.436    23293518.133    91408766.412         891.108          35.689  
G06                                                                  24338821.285    95510751.231        2203.171          32.600  
G12  21073710.274   110743082.191        2273.949          43.509  
G13  24698329.103   129790642.788       -3836.475          40.592  
G15  23171278.058   121765904.037       -3262.859          42.589  
G17  22539114.096   118443884.205       -1991.443          34.851  
G19  21053222.158   110635314.357        -510.666          31.130  
G24  20195863.694   106129969.479         327.439          41.526    20195862.495    79252892.482         244.509          40.141  
G28  25539243.949                       -2879.514          17.935  
G32  24854321.911                        3247.640          17.663  
R01  21511391.374   114990749.613       -1421.404          29.379  
R02  23237044.729   123997293.612        2790.900          39.045  
R08  22672526.237   121410437.182       -3801.229          34.140  
R09  21562454.423   115142330.717       -2668.062          37.051  
R10  19473390.852   103804253.946        -198.015          41.263  
R11  21430614.694   114518699.132        2908.730          37.122  
R19  21581448.074                       -2003.294          25.322  
R20  20726277.197   110832706.040        2507.507          28.929  
> 2019  5 20  8 11 39.0002180  0 29
C12  24902944.950   129676154.862       -2237.366          33.952  
C13  39125872.922   203738703.5251       1765.789          32.877  
C20  25799232.063                         663.910          21.638  
C23  22600798.193   117688302.050        1736.822          39.022  
C24  26117218.626   135999253.932       -2738.582          34.754  
C25  22033592.961   114734726.992       -1011.785          37.381  
E03                                                                  25355275.708   133242931.636       -1032.437          39.769    25355278.406    99499564.863        -770.983          33.746  
E05                                                                                                                                  26858646.446   105399089.594       -2155.313          37.254  
E08                                                                                                                                  25084602.991    98437335.214        1156.787          20.302  
E11                                                                                                                                  25313674.108    99336295.158        2399.241          30.509  
E12                                                                                                                                  23604737.480    92630061.175        1043.890          34.633  
E25                                                                  23293313.974   122407210.628        1194.404          37.789    23293319.970    91407992.099         891.958          35.655  
G06  24338295.449   127898608.4061       2951.358          29.675    24338289.453    95508664.916        2203.960          32.354  
G12  21073306.753   110740964.926        2274.807          43.463  
G13  24699091.175   129794635.621       -3835.291          40.767  
G15  23171929.507   121769323.462       -3261.883          42.910  
G17  22539520.315   118446032.380       -1990.633          34.644  
G19  21053353.167   110635982.009        -510.110          32.286  
G24  20195830.118   106129798.830         328.190          42.158    20195828.919    79252765.024         245.103          39.666  
G28  25539816.553                       -2880.371          17.763  
G32  24853730.720                        3252.899          18.430  
R01  21511693.864   114992330.801       -1420.932          30.086  
R02  23236551.270   123994662.152        2791.435          38.593  
R08  22673280.814   121414397.982       -3800.263          34.024  
R09  21562987.754   115145157.803       -2666.998          37.053  
R10  19473454.108   103804610.873        -197.121          40.794  
R11  21430092.456   114515949.488        2909.844          37.063  
R19  21581850.995                       -2001.152          25.656  
R20  20725830.806   110830358.327        2508.025          28.525  
> 2019  5 20  8 11 40.0002180  0 29
C12  24903373.953   129678392.327       -2237.465          32.106  
C13  39125535.056   203736937.458        1766.067          32.187  
C20  25799102.853                         659.306          20.684  
C23  22600462.725   117686565.111        1736.939          39.331  
C24  26117745.061   136001992.056       -2738.124          33.986  
C25  22033786.627   114735738.666       -1011.674          38.052  
E03                                                                  25355472.372   133243964.129       -1032.492          39.587    25355474.470    99500335.898        -771.035          33.370  
E05                                                                                                                                  26859196.265   105401244.711       -2155.116          36.858  
E08                                                                                                                                  25084303.498    98436178.391        1156.823          21.254  
E11                                                                                                                                  25313062.531    99333895.680        2399.478          30.146  
E12                                                                                                                                  23604470.965    92629017.314        1043.861          34.628  
E25                                                                  23293086.132   122406016.027        1194.602          37.221    23293092.727    91407100.019         892.081          35.016  
G06                                                                  24337729.740    95506460.819        2204.097          33.940  
G12  21072872.354   110738690.130        2274.795          43.906  
G13  24699820.270   129798470.472       -3834.851          40.878  
G15  23172547.079   121772585.159       -3261.696          42.584  
G17  22539901.051   118448023.103       -1990.723          35.981  
G19  21053455.696   110636492.425        -510.416          34.205  
G24  20195766.262   106129470.726         328.105          41.521    20195767.461    79252519.993         245.031          39.564  
G28  25540359.477                       -2869.942          15.117  
G32  24853133.234                        3251.365          19.984  
R01  21511954.384   114993752.038       -1421.237          29.583  
R02  23236021.837   123991870.919        2791.233          38.793  
R08  22673976.333   121418198.073       -3800.091          33.175  
R09  21563484.810   115147824.678       -2666.875          37.739  
R10  19473508.670   103804808.038        -197.165          41.449  
R11  21429541.737   114513039.547        2909.941          38.802  
R19  21582238.327                       -1998.984          26.531  
R20  20725374.522                        2508.024          27.064  
> 2019  5 20  8 11 41.0002181  0 28
C12  24903832.036   129680786.827       -2238.391          34.502  
C20  25799018.011                         654.491          21.984  
C23  22600159.635   117684985.173        1736.048          38.446  
C24  26118297.279   136004887.163       -2738.997          34.459  
C25  22034011.771   114736907.423       -1012.647          38.225  
E03                                                                  25355699.315   133245155.256       -1033.585          39.187    25355700.214    99501225.355        -771.812          32.460  
E05                                                                                                                                  26859775.764   105403518.004       -2155.648          36.466  
E08                                                                                                                                  25084043.878    98435140.045        1155.991          20.622  
E11                                                                                                                                  25312480.634    99331614.455        2398.870          29.914  
E12                                                                                                                                  23604235.628    92628091.919        1043.041          36.038  
E25                                                                  23292887.070   122404979.764        1193.805          37.364    23292896.064    91406326.187         891.477          34.863  
G06  24337202.405   127892863.7081       2950.668          30.461    24337198.208    95504375.044        2203.420          33.401  
G12  21072470.632   110736573.838        2273.834          43.942  
G13  24700579.944   129802463.579       -3835.565          40.543  
G15  23173195.830   121776005.283       -3262.582          42.025  
G17  22540308.769   118450172.455       -1991.810          35.132  
G19  21053583.108   110637161.793        -511.826          35.358  
G24  20195736.882   106129301.313         326.955          41.906    20195733.884    79252393.501         244.137          39.613  
G28  25540937.777                       -2867.125          15.096  
G32  24852526.154                        3250.335          18.175  
R01  21512247.581   114995335.149       -1422.855          29.693  
R02  23235533.775   123989240.988        2789.905          39.214  
R08  22674725.214   121422159.536       -3800.925          34.162  
R09  21564014.543   115150652.507       -2667.741          37.659  
R10  19473562.933   103805166.104        -198.260          41.732  
R11  21429026.094   114510290.538        2909.210          37.956  
R19  21582638.550                       -2001.468          25.480  
R20  20724929.930   110825504.8911       2506.139          26.736  
> 2019  5 20  8 11 42.0002182  0 28
C12  24904291.318   129683182.965       -2240.028          35.462  
C20  25798919.080                         655.990          19.391  
C23  22599855.645   117683406.712        1734.571          38.638  
C24  26118852.495   136007783.513       -2740.241          32.479  
C25  22034237.815   114738077.733       -1014.200          37.765  
E03                                                                  25355928.356   133246348.088       -1035.290          39.196    25355928.956    99502116.052        -773.052          33.340  
E05                                                                                                                                  26860354.963   105405792.263       -2156.614          36.354  
E08                                                                                                                                  25083774.364    98434102.806        1154.884          21.893  
E11                                                                                                                                  25311899.037    99329334.102        2397.998          29.092  
E12                                                                                                                                  23604000.590    92627167.761        1041.803          36.303  
E25                                                                  23292694.603   122403944.941        1192.365          37.691    23292698.800    91405553.406         890.426          34.658  
G06                                                                  24336666.976    95502290.392        2202.297          32.943  
G12  21072071.309   110734459.231        2272.149          43.813  
G13  24701339.618   129806457.945       -3836.824          40.688  
G15  23173849.977   121779426.820       -3263.995          42.198  
G17  22540724.881   118452323.528       -1993.531          35.718  
G19  21053708.421   110637833.083        -513.748          34.427  
G24  20195701.507   106129133.677         325.178          42.187    20195703.006    79252268.293         242.853          39.807  
G28  25541499.588                       -2860.213          14.051  
G32  24851949.653                        3240.890          17.330  
R01  21512548.273   114996920.252       -1424.847          30.031  
R02  23235040.017   123986612.970        2787.993          37.214  
R08  22675453.410   121426122.757       -3802.683          34.366  
R09  21564557.168   115153481.819       -2669.225          37.857  
R10  19473630.986   103805525.881        -199.971          41.765  
R11  21428523.042   114507543.037        2907.701          37.436  
R19  21583053.163                       -2002.836          25.278  
R20  20724479.941   110823161.166        2504.038          26.468  
> 2019  5 20  8 11 43.0002182  0 27
C12  24904723.918   129685423.573       -2240.608          34.959  
C20  25798788.670                         657.149          19.883  
C23  22599523.775   117681672.529        1734.183          39.525  
C24  26119381.928   136010523.978       -2740.465          33.768  
C25  22034434.778   114739092.374       -1014.641          37.718  
E03                                                                  25356123.521   133247383.972       -1035.885          39.802    25356125.020    99502889.584        -773.533          33.135  
E05                                                                                                                                  26860905.082   105407949.105       -2156.842          36.873  
E08                                                                                                                                  25083481.767    98432948.598        1154.208          22.114  
E11                                                                                                                                  25311288.360    99326936.246        2397.856          29.770  
E12                                                                                                                                  23603735.574    92626126.456        1041.305          35.422  
E25                                                                  23292467.660   122402752.898        1192.043          38.899    23292471.557    91404663.273         890.133          34.127  
G06                                                                  24336104.266    95500088.296        2202.095          33.354  
G12  21071638.408   110732187.607        2271.624          43.351  
G13  24702075.309   129810294.930       -3836.985          39.678  
G15  23174471.147   121782691.205       -3264.385          42.994  
G17  22541101.120   118454317.648       -1994.120          35.042  
G19  21053806.753   110638347.775        -514.692          33.664  
G24  20195640.949   106128809.148         324.529          42.951    20195640.349    79252025.977         242.316          39.845  
G32  24851339.276                        3238.170          17.232  
R01  21512819.285   114998346.057       -1425.804          29.029  
R02  23234518.078   123983825.871        2787.099          38.863  
R08  22676182.506   121429925.855       -3803.098          35.272  
R09  21565059.320   115156151.438       -2669.619          38.625  
R10  19473668.760   103805726.397        -200.516          41.319  
R11  21427980.418   114504635.621        2907.416          39.162  
R19  21583421.608   115456755.3601      -2003.196          25.387  
R20  20724026.055   110820657.787        2503.379          27.857  
> 2019  5 20  8 11 44.0002183  0 27
C12  24905186.198   129687820.630       -2240.947          34.930  
C20  25798677.747                         658.322          20.097  
C23  22599221.285   117680094.677        1733.961          39.017  
C24  26119938.343   136013420.681       -2740.594          34.708  
C25  22034662.620   114740263.435       -1014.951          37.696  
E03                                                                  25356351.063   133248577.822       -1036.307          39.944    25356351.663    99503781.160        -773.930          32.098  
E05                                                                                                                                  26861484.581   105410223.715       -2156.965          36.249  
E08                                                                                                                                  25083219.449    98431912.319        1153.924          21.350  
E11                                                                                                                                  25310707.062    99324656.203        2397.688          29.338  
E12                                                                                                                                  23603500.237    92625203.126        1040.974          35.350  
E25                                                                  23292270.996   122401718.624        1191.816          37.991    23292275.493    91403890.934         889.984          34.240  
G06                                                                  24335575.432    95498004.032        2201.909          33.868  
G12  21071234.288   110730073.909        2271.241          43.469  
G13  24702834.384   129814289.564       -3837.092          40.362  
G15  23175116.900   121786113.434       -3264.687          42.738  
G17  22541514.534   118456469.836       -1994.646          36.895  
G19  21053938.362   110639020.714        -515.397          34.930  
G24  20195610.070   106128642.667         324.023          42.340    20195608.571    79251901.660         241.962          39.673  
G32  24850745.387                        3242.350          18.468  
R01  21513075.308   114999933.049       -1426.736          27.774  
R02  23234023.120   123981199.327        2786.519          39.601  
R08  22676909.502   121433889.793       -3803.401          35.445  
R09  21565582.758   115158981.414       -2669.889          36.988  
R10  19473743.108   103806087.186        -200.983          42.014  
R11  21427467.173   114501888.699        2907.122          40.026  
R19  21583818.833                       -2001.971          24.836  
R20  20723578.465   110818315.820        2502.279          27.414  
> 2019  5 20  8 11 45.0002184  0 27
C12  24905646.080   129690218.883       -2242.144          33.616  
C20  25798583.912                         655.416          22.768  
C23  22598919.094   117678517.826        1732.961          39.008  
C24  26120494.158   136016318.156       -2741.365          33.484  
C25  22034885.666   114741435.542       -1015.998          37.832  
E03                                                                  25356579.805   133249772.891       -1037.528          40.046    25356578.306    99504673.565        -774.760          31.490  
E05                                                                                                                                  26862063.780   105412498.933       -2157.573          36.584  
E08                                                                                                                                  25082951.434    98430876.704        1153.261          20.497  
E11                                                                                                                                  25310126.364    99322376.788        2397.060          28.627  
E12                                                                                                                                  23603265.200    92624280.878        1039.894          34.679  
E25                                                                  23292073.433   122400685.286        1190.880          38.576    23292078.829    91403119.291         889.288          33.924  
G06  24335047.797   127881542.1071       2947.581          30.186    24335043.600    95495920.549        2201.128          33.743  
G12  21070836.164   110727961.387        2270.063          43.057  
G13  24703596.456   129818284.940       -3837.833          41.306  
G15  23175774.345   121789536.592       -3265.616          43.495  
G17  22541924.650   118458623.226       -1995.848          38.048  
G19  21054067.273   110639695.100        -516.844          35.640  
G24  20195574.095   106128477.497         322.712          42.111    20195576.493    79251778.287         241.018          39.814  
G32  24850158.693                        3250.098          15.903  
R01  21513411.675   115001521.441       -1428.135          28.615  
R02  23233531.161   123978574.193        2785.109          40.120  
R08  22677644.893   121437854.806       -3804.476          34.899  
R09  21566103.197   115161812.455       -2670.954          36.672  
R10  19473823.453   103806449.187        -202.195          42.247  
R11  21426962.922   114499142.648        2906.251          39.224  
R19  21584233.746   115461085.8491      -2005.674          25.614  
R20  20723137.770   110815975.349        2500.784          27.846  
> 2019  5 20  8 11 46.0002184  0 27
C12  24906078.081   129692461.860       -2242.977          33.730  
C20  25798459.798                         651.899          23.220  
C23  22598585.425   117676785.596        1732.230          38.632  
C24  26121018.195   136019060.115       -2741.958          32.992  
C25  22035078.433   114742452.368       -1016.825          37.879  
E03                                                                  25356777.069   133250811.303       -1038.411          40.341    25356777.668    99505449.026        -775.461          31.485  
E05                                                                                                                                  26862614.199   105414656.947       -2158.014          36.301  
E08                                                                                                                                  25082658.837                        1152.046          19.655  
E11                                                                                                                                  25309515.387    99319980.158        2396.630          28.415  
E12                                                                                                                                  23602999.883    92623241.325        1039.552          34.857  
E25                                                                  23291848.889   122399495.092        1190.194          38.146    23291850.987    91402230.520         888.770          33.497  
G06  24334487.785   127878595.185        2946.922          30.472    24334482.688    95493719.996        2200.552          33.776  
G12  21070406.261   110725692.149        2269.238          42.911  
G13  24704324.352   129822123.290       -3838.350          40.596  
G15  23176398.213   121792802.911       -3266.319          43.257  
G17  22542306.586   118460620.020       -1996.794          38.942  
G19  21054165.005   110640213.216        -518.117          35.445  
G24  20195514.736   106128155.738         321.759          41.573    20195515.935    79251538.012         240.275          39.819  
G32  24849539.022                        3248.666          17.831  
R01  21513677.291   115002951.064       -1429.623          29.419  
R02  23233009.522   123975790.264        2783.929          39.696  
R08  22678366.793   121441660.087       -3805.281          34.062  
R09  21566614.044   115164484.165       -2671.710          36.667  
R10  19473853.132   103806652.303        -203.115          42.162  
R11  21426418.799   114496237.184        2905.464          40.024  
R19  21584585.702                       -2009.026          25.829  
R20  20722673.092   110813475.852        2499.497          28.781  
> 2019  5 20  8 11 47.0002185  0 26
C12  24906536.164   129694861.201       -2243.230          34.328  
C20  25798359.967                         653.481          21.225  
C23  22598283.834   117675209.602        1732.104          38.550  
C24  26121571.912   136021958.250       -2742.025          31.682  
C25  22035302.078   114743625.486       -1017.008          38.517  
E03                                                                  25357005.810   133252007.590       -1038.745          40.373    25357003.712    99506342.274        -775.603          31.644  
E05                                                                                                                                  26863194.298   105416932.575       -2157.984          36.638  
E11                                                                                                                                  25308935.289    99317701.105        2396.699          28.474  
E12                                                                                                                                  23602766.345    92622319.786        1039.184          34.573  
E25                                                                  23291653.424   122398462.477        1190.158          38.153    23291655.522    91401459.368         888.798          33.624  
G06                                                                  24333951.756    95491637.125        2200.516          33.937  
G12  21070003.040   110723580.720        2268.971          43.048  
G13  24705086.425   129826119.100       -3838.268          40.398  
G15  23177042.467   121796226.878       -3266.424          42.394  
G17  22542718.201   118462774.659       -1997.097          38.903  
G19  21054293.916   110640889.479        -518.721          35.539  
G24  20195483.258   106127991.946         321.334          42.043    20195484.757    79251415.692         239.966          39.613  
G32  24848943.934                        3243.982          17.766  
R01  21513991.474   115004541.500       -1430.180          29.431  
R02  23232522.659   123973166.866        2783.373          39.291  
R08  22679079.700   121445626.062       -3805.438          33.595  
R09  21567139.580   115167315.967       -2671.714          37.163  
R10  19473925.382   103807015.534        -203.425          42.288  
R11  21425904.655   114493491.972        2905.412          40.084  
R19  21585015.005   115465260.8121      -2007.686          26.002  
R20  20722236.894   110811137.241        2498.924          28.768  
> 2019  5 20  8 11 48.0002186  0 26
C12  24906999.343   129697261.034       -2243.724          35.662  
C23  22597982.842   117673633.998        1731.714          38.172  
C24  26122130.425   136024856.482       -2742.122          31.375  
C25  22035529.021   114744799.058       -1017.462          38.570  
E03                                                                  25357233.652   133253204.453       -1039.322          40.498    25357232.453    99507236.072        -776.153          32.390  
E05                                                                                                                                  26863773.796   105419208.406       -2158.186          36.017  
E08                                                                                                                                  25082131.202    98427655.4661       1152.037          20.175  
E11                                                                                                                                  25308353.691    99315422.259        2396.491          28.321  
E12                                                                                                                                  23602530.708    92621398.727        1038.704          34.339  
E25                                                                  23291458.559   122397430.222        1189.796          38.465    23291457.659    91400688.525         888.487          33.150  
G06                                                                  24333421.723    95489554.566        2200.204          33.255  
G12  21069602.518   110721469.823        2268.439          42.994  
G13  24705846.698   129830115.071       -3838.429          40.327  
G15  23177696.615   121799651.200       -3266.780          42.564  
G17  22543127.418   118464929.960       -1997.759          39.698  
G19  21054426.724   110641566.560        -519.539          36.587  
G24  20195452.679   106127828.797         320.691          41.577    20195453.279    79251293.863         239.474          39.509  
G32  24848352.743                        3243.587          15.271  
R01  21514280.474   115006132.967       -1431.211          29.086  
R02  23232031.299   123970544.228        2782.613          39.826  
R08  22679833.078   121449592.433       -3805.833          34.320  
R09  21567667.514   115170148.197       -2672.143          37.725  
R10  19473989.538   103807379.332        -203.991          41.903  
R11  21425395.607   114490747.041        2905.131          40.335  
R19  21585420.324   115467429.704       -2008.523          25.892  
R20  20721800.696   110808799.694        2497.859          27.992  
> 2019  5 20  8 11 49.0002186  0 25
C12  24907429.545   129699505.374       -2244.339          36.480  
C23  22597650.072   117671902.680        1731.318          38.251  
C24  26122661.058   136027598.863       -2742.381          33.335  
C25  22035723.586   114745816.991       -1017.933          38.396  
E03                                                                  25357430.616   133254244.379       -1039.925          40.009    25357431.515    99508012.725        -776.653          33.131  
E05                                                                                                                                  26864323.616   105421366.799       -2158.393          36.123  
E08                                                                                                                                  25081837.705                        1155.414          19.793  
E11                                                                                                                                  25307742.714    99313025.933        2396.326          27.951  
E12                                                                                                                                  23602266.891                        1039.662          35.175  
E25                                                                  23291231.016   122396240.715        1189.507          38.434    23291232.215    91399800.345         888.180          33.361  
G06  24332858.113   127870071.0401       2946.191          29.077    24332859.612    95487354.598        2199.968          32.232  
G12  21069169.318   110719201.953        2267.871          42.505  
G13  24706578.492   129833953.727       -3838.656          41.070  
G15  23178322.881   121802918.376       -3267.176          43.606  
G17  22543505.156   118466928.326       -1998.367          38.871  
G19  21054523.557   110642087.023        -520.462          37.308  
G24  20195386.125   106127508.799         319.998          40.060    20195392.721    79251054.888         238.975          39.805  
R01  21514555.083   115007565.215       -1432.248          28.515  
R02  23231508.162   123967762.458        2781.770          39.771  
R08  22680533.693   121453398.784       -3806.351          33.911  
R09  21568171.765   115172820.788       -2672.591          38.043  
R10  19474021.016   103807583.910        -204.578          41.483  
R11  21424851.784   114487842.262        2904.779          40.495  
R19  21585789.069                       -2007.989          23.927  
R20  20721327.623   110806302.805        2496.889          27.065  
> 2019  5 20  8 11 50.0002187  0 25
C12  24907890.027   129701906.201       -2244.717          36.392  
C23  22597346.083   117670327.685        1731.105          38.315  
C24  26123218.072   136030497.493       -2742.521          35.438  
C25  22035945.133   114746991.327       -1018.227          38.707  
E03                                                                  25357657.859   133255442.324       -1040.404          40.148    25357657.559    99508907.246        -776.876          33.418  
E05                                                                                                                                  26864904.014   105423642.917       -2158.473          36.329  
E08                                                                                                                                  25081573.888    98425470.6931       1151.090          21.049  
E11                                                                                                                                  25307162.016    99310747.251        2396.327          28.812  
E12                                                                                                                                  23602031.254    92619439.2741       1037.869          35.012  
E25                                                                  23291035.552   122395209.038        1189.219          37.941    23291035.552    91399029.880         888.110          33.299  
G06  24332330.778   127867282.793        2945.789          30.406    24332330.778    95485272.417        2199.826          34.235  
G12  21068767.596   110717091.996        2267.498          42.184  
G13  24707338.765   129837949.946       -3838.677          41.131  
G15  23178977.628   121806343.350       -3267.432          44.793  
G17  22543918.570   118469084.651       -1998.782          39.044  
G19  21054650.968   110642765.742        -521.177          37.251  
G24  20195354.947   106127346.826         319.515          40.170    20195361.242    79250933.928         238.604          39.279  
R01  21514832.991   115009158.487       -1433.015          29.367  
R02  23231010.206   123965141.290        2781.144          39.540  
R08  22681281.675   121457365.954       -3806.632          33.623  
R09  21568705.396   115175653.688       -2672.813          37.926  
R10  19474086.371   103807948.762        -205.045          41.953  
R11  21424337.939   114485097.948        2904.514          40.688  
R19  21586206.380                       -2010.555          23.518  
R20  20720881.832   110803966.942        2496.175          26.333  
> 2019  5 20  8 11 51.0002188  0 26
C12  24908351.107   129704307.324       -2245.013          36.643  
C20  25797945.654                         647.201          21.480  
C23  22597049.888   117668752.855        1730.940          38.903  
C24  26123772.988   136033396.151       -2742.548          35.134  
C25  22036169.977   114748165.917       -1018.480          38.574  
E03                                                                  25357885.701   133256640.603       -1040.736          40.172    25357886.600    99509802.049        -777.158          33.260  
E05                                                                                                                                  26865483.813   105425919.045       -2158.483          36.489  
E08                                                                                                                                  25081311.869                        1154.514          19.554  
E11                                                                                                                                  25306581.618    99308468.649        2396.247          29.040  
E12                                                                                                                                  23601796.516    92618519.276        1037.643          35.094  
E25                                                                  23290837.988   122394177.397        1189.182          38.275    23290840.087    91398259.476         888.049          34.026  
G06  24331801.045   127864494.753        2945.582          30.270    24331798.646    95483190.319        2199.743          33.390  
G12  21068362.576   110714982.365        2267.174          40.869  
G13  24708098.439   129841946.048       -3838.560          41.258  
G15  23179627.878   121809768.438       -3267.546          44.889  
G17  22544331.684   118471241.412       -1999.219          39.240  
G19  21054783.177   110643445.159        -521.875          37.008  
G24  20195321.970   106127185.282         319.086          39.556    20195330.364    79250813.319         238.255          39.596  
R01  21515133.383   115010752.435       -1433.692          29.435  
R02  23230527.241   123962520.715        2780.550          39.253  
R08  22682017.666   121461333.388       -3806.897          33.393  
R09  21569239.027   115178486.737       -2672.961          38.053  
R10  19474169.113   103808313.928        -205.360          41.967  
R11  21423820.198   114482353.705        2904.443          40.637  
R19  21586637.182                       -2010.940          23.748  
R20  20720435.441   110801631.810        2495.445          26.441  
> 2019  5 20  8 11 52.0002188  0 26
C12  24908784.307   129706552.703       -2245.380          35.701  
C23  22596713.821   117667022.230        1730.624          38.591  
C24  26124300.323   136036138.702       -2742.551          34.319  
C25  22036366.341   114749184.723       -1018.805          39.009  
E03                                                                  25358084.164   133257681.830       -1041.227          40.513    25358085.363    99510579.551        -777.502          34.412  
E05                                                                                                                                  26866033.332   105428077.629       -2158.584          35.725  
E08                                                                                                                                  25081019.272                        1151.715          19.134  
E11                                                                                                                                  25305971.241    99306072.485        2396.163          29.689  
E12                                                                                                                                  23601532.699    92617481.970        1037.306          35.343  
E25                                                                  23290612.245   122392988.440        1188.957          38.375    23290614.643    91397371.646         887.830          34.760  
G06                                                                  24331239.533    95480990.982        2199.338          33.183  
G12  21067932.074   110712715.553        2266.812          41.810  
G13  24708831.132   129845784.733       -3838.685          41.808  
G15  23180254.744   121813036.262       -3267.824          45.777  
G17  22544708.223   118473241.089       -1999.676          39.070  
G19  21054880.310   110643967.718        -522.559          37.238  
G24  20195266.508   106126866.747         318.536          40.450    20195269.806    79250575.452         237.867          39.508  
G32  24845953.205                        3246.481          19.188  
R01  21515381.611   115012187.053       -1434.618          28.693  
R02  23230005.002   123959740.877        2779.838          38.897  
R08  22682737.767   121465140.554       -3807.166          34.901  
R09  21569739.380   115181159.977       -2673.240          38.157  
R10  19474195.195   103808519.803        -205.875          42.071  
R11  21423277.274   114479449.511        2904.194          40.181  
R19  21586990.637                       -2012.331          23.759  
R20  20719974.060                        2493.939          25.861  
> 2019  5 20  8 11 53.0002189  0 26
C12  24909242.990   129708954.710       -2245.897          35.963  
C23  22596412.529   117665447.973        1730.367          38.501  
C24  26124858.537   136039037.541       -2742.729          35.736  
C25  22036590.886   114750360.013       -1019.180          39.375  
E03                                                                  25358312.006   133258881.092       -1041.720          40.479    25358311.406    99511475.116        -777.920          33.979  
E05                                                                                                                                  26866613.730   105430354.003       -2158.729          35.526  
E08                                                                                                                                  25080753.955                        1150.495          18.105  
E11                                                                                                                                  25305392.042    99303794.018        2396.112          29.484  
E12                                                                                                                                  23601297.362    92616562.750        1036.865          34.926  
E25                                                                  23290415.281   122391957.340        1188.642          38.592    23290418.579    91396601.630         887.661          34.718  
G06  24330718.494   127858761.6891       2945.245          31.550    24330708.901    95478909.391        2199.235          33.056  
G12  21067530.352   110710606.759        2266.336          41.218  
G13  24709590.806   129849781.066       -3838.792          41.462  
G15  23180904.094   121816461.899       -3268.095          44.836  
G17  22545122.536   118475398.852       -2000.222          40.701  
G19  21055012.218   110644648.687        -523.427          37.077  
G24  20195232.032   106126706.392         317.897          40.387    20195238.927    79250455.689         237.408          39.445  
G32  24845372.507                        3243.495          19.286  
R01  21515682.303                       -1435.604          27.383  
R02  23229517.839   123957121.834        2779.018          38.931  
R08  22683479.754   121469108.691       -3807.600          34.379  
R09  21570269.413   115183993.600       -2673.536          37.774  
R10  19474265.646   103808885.960        -206.351          41.788  
R11  21422758.633   114476705.734        2903.977          39.665  
R19  21587392.959                       -2012.230          22.411  
R20  20719511.181                        2492.934          24.444  
> 2019  5 20  8 11 54.0002190  0 26
C12  24909706.169   129711357.267       -2246.447          35.975  
C13  39121098.127   203713828.1021       1760.544          32.202  
C23  22596107.041   117663874.153        1729.930          37.105  
C24  26125409.555   136041936.691       -2743.040          33.521  
C25  22036819.627   114751535.787       -1019.665          39.021  
E03                                                                  25358540.448   133260080.905       -1042.271          39.618    25358539.848    99512371.066        -778.305          32.316  
E05                                                                                                                                  26867193.829   105432630.521       -2158.873          36.565  
E11                                                                                                                                  25304809.845    99301515.772        2395.892          29.611  
E12                                                                                                                                  23601064.123    92615643.954        1036.441          35.601  
E25                                                                  23290218.917   122390926.482        1188.400          39.037    23290221.615    91395831.893         887.382          35.630  
G06                                                                  24330178.868    95476828.071        2198.966          33.602  
G12  21067121.435   110708498.564        2265.737          40.828  
G13  24710350.181   129853777.521       -3838.913          41.524  
G15  23181556.742   121819887.952       -3268.511          44.630  
G17  22545532.952   118477557.167       -2000.772          39.099  
G19  21055143.228   110645330.482        -524.253          36.396  
G24  20195200.853   106126546.595         317.339          40.528    20195208.648    79250336.382         236.952          39.317  
G32  24844764.228                        3242.786          18.134  
R01  21515954.814   115015109.3311      -1436.190          27.390  
R02  23229033.675   123954503.418        2778.390          37.627  
R08  22684202.553   121473077.209       -3807.980          33.984  
R09  21570800.346   115186827.649       -2673.961          37.584  
R10  19474344.192   103809252.656        -206.890          41.161  
R11  21422253.483   114473962.293        2903.641          40.696  
R19  21587796.779                       -2014.567          21.412  
R20  20719070.486   110794180.3051       2492.926          24.898  
> 2019  5 20  8 11 55.0002190  0 26
C12  24910133.973   129713604.061       -2246.795          35.019  
C13  39120759.062   203712067.771        1760.331          32.299  
C23  22595773.971   117662144.423        1729.729          37.223  
C24  26125940.488   136044679.737       -2743.046          34.620  
C25  22037014.792   114752555.699       -1019.912          38.158  
E03                                                                  25358740.110   133261123.663       -1042.758          40.174    25358740.110    99513149.728        -778.662          32.322  
E05                                                                                                                                  26867743.648   105434789.488       -2158.967          34.705  
E11                                                                                                                                  25304201.266    99299119.930        2395.841          29.979  
E12                                                                                                                                  23600798.507    92614607.825        1036.130          34.153  
E25                                                                  23289994.073   122389738.320        1188.162          39.263    23289995.871    91394944.593         887.300          35.389  
G06  24329624.551   127853030.1181       2944.478          30.666    24329618.256    95474629.224        2198.847          34.285  
G12  21066691.233   110706233.126        2265.437          41.597  
G13  24711083.473   129857616.499       -3838.978          41.506  
G15  23182179.411   121823156.657       -3268.705          45.803  
G17  22545910.091   118479558.453       -2001.287          37.236  
G19  21055244.258   110645855.441        -524.959          35.904  
G24  20195144.193   106126229.862         316.732          40.596    20195148.390    79250099.866         236.516          39.303  
G32  24844170.639                        3242.790          19.700  
R01  21516227.626   115016546.620       -1437.289          29.713  
R02  23228510.537   123951725.730        2777.689          37.585  
R08  22684923.254   121476885.610       -3808.400          33.550  
R09  21571291.106   115189501.817       -2674.168          36.384  
R10  19474368.775   103809459.970        -207.313          40.629  
R11  21421704.563   114471058.816        2903.477          40.174  
R19  21588171.820                       -2017.016          23.197  
R20  20718628.592                        2492.133          25.324  
> 2019  5 20  8 11 56.0002191  0 27
C12  24910596.853   129716007.345       -2247.174          36.527  
C13  39120454.773   203710463.658        1760.223          33.230  
C23  22595476.277   117660571.050        1729.483          38.950  
C24  26126496.903   136047578.953       -2743.106          34.287  
C25  22037242.035   114753732.056       -1020.247          39.366  
E03                                                                  25358968.551   133262324.351       -1043.146          40.959    25358966.753    99514046.377        -779.003          32.671  
E05                                                                                                                                  26868324.046   105437066.199       -2159.066          36.080  
E08                                                                                                                                  25079933.723                        1149.178          20.147  
E11                                                                                                                                  25303619.069    99296841.849        2395.727          29.774  
E12                                                                                                                                  23600564.669    92613689.704        1035.766          34.627  
E25                                                                  23289799.208   122388707.818        1188.044          38.456    23289800.407    91394175.082         887.156          34.586  
G06                                                                  24329088.223    95472548.193        2198.676          34.135  
G12  21066285.614   110704125.667        2265.001          39.924  
G13  24711841.948   129861613.016       -3838.975          41.263  
G15  23182832.359   121826583.074       -3268.876          45.134  
G17  22546322.006   118481717.696       -2001.700          37.656  
G19  21055376.766   110646538.699        -525.716          36.940  
G24  20195108.218   106126071.157         316.247          39.769    20195117.811    79249981.306         236.205          39.120  
G32  24843587.542                        3241.718          20.237  
R01  21516521.122                       -1438.162          26.718  
R02  23228013.481   123949108.653        2777.052          38.000  
R08  22685667.339   121480854.698       -3808.551          33.814  
R09  21571837.328   115192336.339       -2674.435          37.708  
R10  19474445.222   103809827.511        -207.735          41.816  
R11  21421194.016   114468315.815        2903.201          40.707  
R19  21588573.242                       -2016.143          24.302  
R20  20718181.302   110789357.3211       2491.312          26.609  
> 2019  5 20  8 11 57.0002192  0 27
C12  24911058.233   129718411.055       -2247.600          35.442  
C13  39120145.687   203708859.688        1760.079          32.568  
C23  22595174.386   117658997.964        1729.197          38.666  
C24  26127057.814   136050478.282       -2743.219          34.971  
C25  22037470.776   114754908.738       -1020.572          40.025  
E03                                                                  25359196.394   133263525.492       -1043.599          40.735    25359197.893    99514943.345        -779.323          34.239  
E05                                                                                                                                  26868904.445   105439342.940       -2159.096          36.036  
E08                                                                                                                                  25079671.105                        1147.049          21.026  
E11                                                                                                                                  25303039.270    99294563.703        2395.791          29.824  
E12                                                                                                                                  23600330.831    92612771.943        1035.406          35.044  
E25                                                                  23289599.846   122387677.533        1187.827          38.389    23289604.043    91393405.768         886.958          34.780  
G06                                                                  24328558.489    95470467.332        2198.506          35.416  
G12  21065887.190   110702018.586        2264.623          40.044  
G13  24712605.219   129865609.562       -3839.004          41.545  
G15  23183487.106   121830009.756       -3269.139          45.196  
G17  22546732.422   118483877.425       -2002.187          39.615  
G19  21055502.979   110647222.671        -526.430          35.257  
G24  20195081.236   106125912.908         315.791          40.303    20195088.131    79249863.195         235.756          38.992  
G32  24842998.150                        3238.612          21.256  
R01  21516833.806   115019744.4241      -1438.892          27.960  
R02  23227528.417   123946492.208        2776.420          38.378  
R08  22686418.619   121484824.230       -3808.994          34.370  
R09  21572364.962   115195171.105       -2674.678          37.828  
R10  19474518.971   103810195.561        -208.244          41.920  
R11  21420681.970   114465572.928        2903.087          39.920  
R19  21588986.656                       -2014.333          24.186  
R20  20717776.882   110787027.135        2490.498          27.532  
> 2019  5 20  8 11 58.0002192  0 27
C12  24911492.932   129720659.091       -2248.036          34.728  
C13  39119811.118   203707099.868        1759.820          32.710  
C23  22594841.916   117657268.952        1729.012          39.429  
C24  26127582.751   136053221.645       -2743.363          34.330  
C25  22037665.941   114755929.630       -1020.892          39.610  
E03                                                                  25359394.556   133264569.630       -1044.138          40.591    25359394.856    99515723.018        -779.673          33.839  
E05                                                                                                                                  26869453.964   105441502.169       -2159.229          35.940  
E08                                                                                                                                  25079379.707                        1147.877          18.678  
E11                                                                                                                                  25302428.893    99292168.052        2395.651          30.237  
E12                                                                                                                                  23600067.313    92611736.791        1035.152          34.806  
E25                                                                  23289374.701   122386489.981        1187.552          38.180    23289377.699    91392518.913         886.855          35.269  
G06  24327999.976   127844513.2301       2943.771          28.962    24327998.477    95468269.221        2198.110          34.509  
G12  21065456.688   110699754.363        2264.223          38.746  
G13  24713334.315   129869448.630       -3839.067          41.584  
G15  23184107.077   121833279.162       -3269.406          45.772  
G17  22547111.060   118485880.130       -2002.705          39.579  
G19  21055601.910   110647749.861        -527.190          36.141  
G24  20195018.580   106125597.707         315.200          39.875    20195028.173    79249627.785         235.410          39.447  
G32  24842388.972                        3243.920          21.802  
R01  21517111.414   115021184.067       -1439.643          29.252  
R02  23227003.180   123943716.529        2775.679          38.251  
R08  22687133.924   121488633.372       -3809.142          34.051  
R09  21572871.012   115197846.076       -2674.971          36.992  
R10  19474560.942   103810404.194        -208.633          41.468  
R11  21420134.849   114462670.122        2902.806          39.177  
R19  21589361.996                       -2016.362          25.438  
R20  20717326.293   110784853.601        2489.533          28.599  
> 2019  5 20  8 11 59.0002193  0 26
C12  24911951.315   129723063.441       -2248.240          35.143  
C13  39119502.932   203705496.254        1759.724          32.939  
C23  22594540.625   117655696.394        1728.667          38.933  
C24  26128136.168   136056121.194       -2743.439          34.969  
C25  22037894.383   114757106.962       -1021.223          40.455  
E03                                                                  25359623.598   133265771.668       -1044.495          40.751    25359623.898    99516620.672        -780.009          33.894  
E08                                                                                                                                  25079117.388                        1147.530          19.711  
E11                                                                                                                                  25301848.195    99289890.133        2395.564          30.416  
E12                                                                                                                                  23599833.475    92610819.782        1034.655          34.545  
E25                                                                  23289181.035   122385460.123        1187.400          38.919    23289181.635    91391749.841         886.717          35.124  
G06                                                                  24327467.245    95466188.694        2198.172          34.063  
G12  21065051.368   110697648.132        2263.772          38.864  
G13  24714093.089   129873445.299       -3839.127          41.865  
G15  23184762.123   121836706.290       -3269.586          46.446  
G17  22547525.673   118488040.875       -2003.203          39.020  
G19  21055737.716   110648435.278        -527.875          35.902  
G24  20194991.898   106125440.511         314.738          39.525    20194998.194    79249510.395         235.035          39.016  
G32  24841796.882                        3243.390          20.905  
R01  21517416.303   115022784.916       -1440.592          29.588  
R02  23226515.418   123941101.441        2775.064          38.459  
R08  22687870.814   121492603.470       -3809.560          34.829  
R09  21573406.441   115200681.328       -2675.165          36.516  
R10  19474639.188   103810773.049        -209.048          41.890  
R11  21419613.210   114459927.609        2902.713          38.637  
R19  21589748.728   115490702.1941      -2017.754          26.192  
R20  20716895.492   110782525.054        2488.860          30.009  
> 2019  5 20  8 12  0.0002194  0 25
C12  24912413.895   129725468.312       -2248.761          36.609  
C13  39119196.844   203703892.756        1759.607          33.488  
C23  22594239.034   117654123.969        1728.535          37.827  
C24  26128702.775   136059020.740       -2743.436          34.864  
C25  22038119.827   114758284.587       -1021.515          40.101  
E03                                                                  25359852.340   133266974.134       -1044.925          41.010    25359852.040    99517518.632        -780.315          33.454  
E08                                                                                                                                  25078855.070                        1139.250          18.528  
E11                                                                                                                                  25301267.797    99287612.223        2395.555          30.449  
E12                                                                                                                                  23599600.237    92609903.012        1034.414          34.502  
E25                                                                  23288982.573   122384430.431        1187.234          39.137    23288986.170    91390980.939         886.548          35.612  
G06                                                                  24326936.912    95464108.408        2197.931          34.562  
G12  21064651.445   110695542.197        2263.478          38.381  
G13  24714855.162   129877441.973       -3839.133          41.066  
G15  23185412.673   121840133.675       -3269.843          46.274  
G17  22547937.588   118490202.000       -2003.583          38.434  
G24  20194964.017   106125283.869         314.184          38.893    20194967.915    79249393.395         234.645          38.838  
G32  24841214.385                        3239.504          20.287  
R01  21517726.288   115024386.469       -1441.297          29.581  
R02  23226023.159   123938486.959        2774.457          38.503  
R08  22688617.297   121496573.870       -3809.863          34.758  
R09  21573939.772   115203516.839       -2675.423          36.482  
R10  19474702.144   103811142.378        -209.523          42.162  
R11  21419092.771   114457185.333        2902.476          38.527  
R19  21590173.234                       -2022.626          25.077  
R20  20716464.390   110780197.368        2487.999          31.251  
> 2019  5 20  8 12  1.0002194  0 27
C12  24912845.296   129727717.561       -2249.250          36.189  
C13  39118855.980   203702133.400        1759.356          33.780  
C23  22593907.164   117652395.814        1728.156          39.246  
C24  26129226.813   136061764.433       -2743.694          35.159  
C25  22038316.191   114759306.529       -1021.942          40.501  
E03                                                                  25360052.601   133268019.612       -1045.477          40.710    25360050.502    99518299.354        -780.722          33.729  
E08                                                                                                                                  25078564.871                        1138.287          17.994  
E11                                                                                                                                  25300656.520    99285216.790        2395.433          30.082  
E12                                                                                                                                  23599336.120    92608869.112        1033.900          34.808  
E25                                                                  23288758.628   122383243.479        1186.952          38.274    23288761.026    91390094.540         886.399          36.342  
G06  24326376.900   127835998.3411       2943.102          30.222    24326378.399    95461910.721        2197.687          34.598  
G12  21064220.643   110693279.174        2263.023          38.308  
G13  24715583.957   129881281.202       -3839.229          41.355  
G15  23186032.044   121843403.800       -3270.125          46.385  
G17  22548319.223   118492206.136       -2004.136          39.297  
G19  21055973.353   110649650.9011       -529.436          34.077  
G24  20194901.960   106124970.203         313.666          38.601    20194908.856    79249159.175         234.220          39.189  
G25  24427180.915                        3486.438          17.952  
G32  24840587.819                        3238.503          21.177  
R01  21518000.898   115025828.799       -1442.329          29.385  
R02  23225510.813   123935713.287        2773.672          38.788  
R08  22689328.705   121500384.051       -3810.181          34.921  
R09  21574436.828   115206192.591       -2675.752          35.781  
R10  19474738.719   103811352.399        -210.021          42.412  
R11  21418554.343   114454283.242        2902.092          38.766  
R19  21590553.671   115494900.8991      -2019.576          24.586  
R20  20715989.519   110777710.153        2487.214          31.794  
