     3.03           OBSERVATION DATA    M: Mixed            RINEX VERSION / TYPE
Geo++ RINEX Logger  Geo++               20190520 082348 UTC PGM / RUN BY / DATE
************************************************************COMMENT
This file was generated by the Geo++ RINEX Logger App       COMMENT
for Android devices (Version   2.1). If you encounter       COMMENT
any issues, please send an email to android@geopp.de        COMMENT
************************************************************COMMENT
Geo++                                                       MARKER NAME
GEODETIC                                                    MARKER TYPE
Geo++               Geo++                                   OBSERVER / AGENCY
unknown             Xiaomi              MI 8                REC # / TYPE / VERS
unknown             MI 8                                    ANT # / TYPE
3995173.8868 1384946.8013 4759490.132                       APPROX POSITION XYZ
        0.0000        0.0000        0.0000                  ANTENNA: DELTA H/E/N
G    8 C1C L1C D1C S1C C5Q L5Q D5Q S5Q                      SYS / # / OBS TYPES
R    4 C1C L1C D1C S1C                                      SYS / # / OBS TYPES
E   12 C1B L1B D1B S1B C1C L1C D1C S1C C5Q L5Q D5Q S5Q      SYS / # / OBS TYPES
C    4 C2I L2I D2I S2I                                      SYS / # / OBS TYPES
J    8 C1C L1C D1C S1C C5Q L5Q D5Q S5Q                      SYS / # / OBS TYPES
  2019     5    20     8    24    6.0263300     GPS         TIME OF FIRST OBS
 24 R01  1 R02 -4 R03  5 R04  6 R05  1 R06 -4 R07  5 R08  6 GLONASS SLOT / FRQ #
    R09 -2 R10 -7 R11  0 R12 -1 R13 -2 R14 -7 R15  0 R16 -1 GLONASS SLOT / FRQ #
    R17  4 R18 -3 R19  3 R20  2 R21  4 R22 -3 R23  3 R24  2 GLONASS SLOT / FRQ #
G L1C                                                       SYS / PHASE SHIFT
G L5Q -0.25000                                              SYS / PHASE SHIFT
R L1C                                                       SYS / PHASE SHIFT
E L1B                                                       SYS / PHASE SHIFT
E L1C +0.50000                                              SYS / PHASE SHIFT
E L5Q -0.25000                                              SYS / PHASE SHIFT
C L2I                                                       SYS / PHASE SHIFT
J L1C                                                       SYS / PHASE SHIFT
J L5Q -0.25000                                              SYS / PHASE SHIFT
 C1C    0.000 C1P    0.000 C2C    0.000 C2P    0.000        GLONASS COD/PHS/BIS
                                                            END OF HEADER
> 2019  5 20  8 24  6.0002633  3  1
Geo++                                                       MARKER NAME
> 2019  5 20  8 24  6.0002633  0 22
C13  38896041.831   202541896.2811       1637.545          29.516  
C20  25748756.907   134080533.5181        241.506          28.281  
C23  22380634.809   116541837.5611       1529.476          37.552  
C25  22210983.756   115658420.8181      -1260.834          37.959  
E03                                                                  25540547.447   134216482.7901      -1368.055          34.198    25540547.747   100226594.7411      -1021.592          32.043  
E11                                                                                                                                  24877914.378    97626279.0601       2325.258          27.672  
E12                                                                  23446033.649   123209738.6411       1033.815          29.711    23446035.747    92007279.4451        771.953          27.085  
E25                                                                  23149124.295   121649469.1281       1035.607          41.427    23149126.993    90842145.7331        773.337          40.695  
G02  25055434.084   131667194.7051       3052.387          27.404  
G06  23948055.007   125847877.5481       2730.785          36.732    23948052.308    93977300.4791       2039.282          32.096  
G10                                                                  25189152.912    98847646.0411      -1504.138          32.676  
G12  20786397.876   109233258.0011       1961.933          44.305  
G15  23661904.305   124344145.4281      -3419.306          36.783  
G17  22861563.969   120138329.4651      -2330.924          44.888  
G24  20192157.061   106110501.1181        -76.165          43.893    20192153.163    79238345.2981        -56.864          43.929  
G25  23967210.246   125948539.0361       3373.266          29.326  
G32  24424566.125                        2981.038          27.132    24424540.043    95847140.4381       2226.342          24.747  
R01  21767119.137                       -2018.822          20.455  
R02  22897142.438   122183538.9351       2251.422          34.911  
R10  19539393.459   104155962.0401       -539.804          36.751  
R20  20433902.204   109269257.4741       1867.671          26.607  
R21  22982912.761   122986208.5441       4651.970          36.337  
> 2019  5 20  8 24  7.0002633  0 23
C13  38895725.550   202540259.079        1637.202          29.381  
C20  25748707.741   134080292.676         240.842          27.849  
C23  22380338.914   116540308.538        1529.023          36.625  
C25  22211226.588   115659682.070       -1261.252          37.145  
E03                                                                  25540804.069   134217851.514       -1368.725          34.600    25540808.566   100227616.814       -1022.073          31.769  
E11                                                                  24877331.582   130731355.1321       3113.645          30.631    24877322.888    97623953.829        2325.231          28.679  
E12                                                                  23445838.184   123208705.589        1033.052          29.652    23445837.285                         771.583          26.498  
E25                                                                  23148926.731   121648433.919        1035.208          40.962    23148929.729    90841372.667         773.066          40.650  
G02  25054853.986   131664142.519        3052.186          27.617  
G06  23947535.466   125845147.282        2730.266          36.361    23947534.867    93975261.692        2038.787          32.104  
G10  25189526.454                       -2016.365          19.567    25189534.548    98849150.659       -1504.618          32.572  
G12  20786027.333   109231296.693        1961.308          44.734  
G13  25261148.671                       -3850.841          22.794  
G15  23662556.653   124347565.049       -3419.621          40.345  
G17  22862007.661   120140661.075       -2331.610          43.807  
G24  20192172.950   106110578.016         -76.898          43.271    20192167.553    79238402.710         -57.413          43.984  
G25  23966571.388   125945166.204        3372.832          29.130  
G32  24423995.919   128348980.5691       2980.631          27.105    24423972.835    95844914.698        2225.740          23.946  
R01  21767485.184                       -2020.119          22.147  
R02  22896715.534   122181288.509        2250.426          35.032  
R10  19539495.389   104156502.506        -540.466          35.901  
R20  20433551.447   109267390.809        1866.665          27.716  
R21  22982033.469   122981556.924        4651.620          37.985  
> 2019  5 20  8 24  8.0002634  0 23
C13  38895439.248   202538778.291        1636.898          30.123  
C20  25748694.250   134080208.769         240.017          26.889  
C23  22380076.595   116538936.037        1528.610          35.900  
C25  22211498.799   115661099.919       -1261.740          38.954  
E03                                                                  25541091.870   134219378.311       -1369.255          33.550    25541099.964   100228756.992       -1022.533          32.656  
E11                                                                  24876766.473   130728399.345        3113.330          32.505    24876757.779    97621746.523        2324.951          27.978  
E12                                                                  23445672.399   123207830.662        1032.470          28.547    23445670.900    92005854.5351        771.020          26.818  
E25                                                                  23148759.148   121647556.544        1034.917          41.320    23148763.644    90840717.519         772.793          41.041  
G02  25054303.567   131661247.963        3052.098          27.542  
G06  23947040.809   125842575.028        2729.796          37.086    23947045.605    93973340.928        2038.409          31.110  
G10  25189932.373                       -2016.795          18.547    25189949.761    98850773.229       -1504.925          32.839  
G12  20785683.171   109229493.461        1960.774          45.369  
G13  25261893.055                       -3851.023          24.411  
G15  23663235.083   124351142.528       -3419.937          43.275  
G17  22862483.732   120143150.673       -2332.056          40.783  
G24  20192220.916   106110813.141         -77.584          41.929    20192212.222    79238578.284         -57.928          44.503  
G25  23965955.614   125941951.200        3372.546          28.026  
G32  24423447.299   128346158.066        2980.046          26.515    24423433.209                        2225.029          23.667  
R01  21767867.119                       -2020.082          24.242  
R02  22896346.489   122179198.775        2249.708          32.916  
R10  19539628.796   104157203.390        -541.078          35.264  
R20  20433227.371   109265685.566        1865.556          29.346  
R21  22981195.250   122977066.063        4651.286          38.152  
> 2019  5 20  8 24  9.0002634  0 25
C12  25260677.397                       -2525.272          21.885  
C13  38895126.864   202537141.606        1636.684          30.780  
C20  25748647.782   134079969.205         239.564          25.975  
C23  22379780.400   116537407.754        1528.283          35.858  
C25  22211741.032   115662362.068       -1262.149          39.948  
E03                                                                  25541351.790   134220748.057       -1369.746          32.872    25541360.484   100229779.825       -1022.833          32.752  
E08                                                                  24901855.504                        1208.419          33.937  
E11                                                                  24876176.182   130725286.199        3113.145          32.752    24876166.288    97619421.773        2324.750          28.519  
E12                                                                  23445480.232   123206798.703        1031.959          29.122    23445475.435    92005083.969         770.565          27.483  
E25                                                                  23148562.484   121646521.933        1034.611          41.426    23148566.081    90839944.885         772.634          40.728  
G02  25053729.164   131658195.967        3051.996          27.855  
G06  23946523.067   125839845.690        2729.338          37.615    23946525.465    93971302.669        2038.259          31.246  
G12  20785311.428   109227533.152        1960.309          45.401  
G13  25262635.042   132756113.7011      -3851.115          24.307  
G15  23663885.633   124354562.669       -3420.141          43.189  
G17  22862923.228   120145483.219       -2332.546          39.662  
G19  21180192.358   111302724.3761      -1061.310          30.204  
G24  20192230.809   106110891.278         -78.137          41.792    20192227.512    79238636.627         -58.343          44.856  
G25  23965308.362   125938578.928        3372.272          26.882  
G32                                                                  24422864.803                        2225.920          22.308  
R01  21768228.669                       -2018.939          24.412  
R02  22895915.388   122176950.008        2248.767          31.972  
R10  19539735.523   104157744.915        -541.525          35.878  
R20  20432885.907   109263820.932        1864.634          30.149  
R21  22980325.252   122972414.939        4651.124          38.466  
> 2019  5 20  8 24 10.0002635  0 24
C12  25261223.919                       -2525.908          24.495  
C13  38894840.262   202535661.332        1636.384          29.862  
C20  25748626.797   134079886.454         238.861          24.940  
C23  22379517.782   116536036.014        1527.850          35.997  
C25  22212012.344   115663780.769       -1262.591          39.428  
E03                                                                  25541647.086   134222275.952       -1370.353          34.941    25541650.983   100230920.794       -1023.324          34.819  
E08                                                                  24901660.039   130859291.5821       1208.109          33.427  
E11                                                                  24875614.371   130722330.868        3112.873          32.735    24875602.679    97617214.914        2324.503          28.358  
E12                                                                  23445313.847   123205924.940        1031.305          29.686    23445311.149    92004431.385         770.229          28.153  
E25                                                                  23148396.399   121645645.238        1034.238          40.987    23148399.696    90839290.184         772.346          41.029  
G02  25053174.848   131655301.728        3051.781          27.848  
G06  23946038.003   125837274.304        2728.929          35.447    23946038.303    93969382.452        2037.862          31.252  
G12  20784966.067   109225730.977        1959.717          45.733  
G13  25263400.112                       -3851.555          24.083  
G15  23664564.663   124358140.697       -3420.486          42.603  
G17  22863399.598   120147973.916       -2333.155          41.664  
G24  20192279.376   106111127.646         -78.826          41.061    20192272.181    79238813.168         -58.897          45.331  
G25  23964700.683   125935364.548        3371.922          27.218  
G32  24422339.266   128340356.7561       2979.199          26.221  
R01  21768631.290                       -2019.475          22.692  
R02  22895538.848   122174862.118        2247.865          32.839  
R10  19539872.828   104158446.872        -542.151          36.332  
R20  20432581.318   109262117.644        1863.601          32.028  
R21  22979481.636   122967924.591        4650.773          37.999  
> 2019  5 20  8 24 11.0002636  0 24
C12  25261737.763                       -2525.546          24.221  
C13  38894554.860   202534181.285        1636.158          29.860  
C20  25748609.109   134079804.404         238.160          25.446  
C23  22379257.263   116534664.635        1527.489          37.815  
C25  22212285.155   115665199.866       -1262.987          39.191  
E03                                                                  25541934.886   134223804.240       -1370.746          38.085    25541941.182   100232062.042       -1023.603          35.146  
E08                                                                  24901454.682   130858241.518        1207.606          33.084  
E11                                                                  24875051.060   130719375.779        3112.631          32.152    24875042.067    97615008.124        2324.435          28.339  
E12                                                                  23445149.860   123205051.769        1030.713          30.069    23445145.064    92003779.396         769.634          28.884  
E25                                                                  23148228.815   121644768.719        1034.061          39.587    23148232.712    90838635.671         772.157          41.191  
G06  23945540.048   125834703.192        2728.654          34.428    23945547.542    93967462.552        2037.545          30.766  
G12  20784624.304   109223929.244        1959.275          46.279  
G13  25264162.484                       -3851.926          23.844  
G15  23665247.890   124361718.930       -3420.691          41.980  
G17  22863876.268   120150465.081       -2333.623          41.739  
G19  21180659.435   111305164.5141      -1063.005          30.194  
G24  20192319.548   106111364.608         -79.420          43.609    20192318.049    79238990.112         -59.299          45.621  
G25  23964086.108                        3371.227          25.005  
G32  24421802.038   128337535.626        2978.672          25.606  
R01  21769021.320                       -2019.970          20.663  
R02  22895152.416   122172775.055        2247.038          33.703  
R10  19539998.141   104159149.289        -542.611          36.985  
R20  20432262.339   109260415.468        1862.488          31.786  
R21  22978653.609   122963434.447        4650.569          36.575  
> 2019  5 20  8 24 12.0002636  0 25
C12  25262221.928   131546904.6161      -2525.788          24.818  
C13  38894239.179   202532545.395        1635.889          29.379  
C20  25748567.737                         237.122          25.908  
C23  22378960.768   116533137.484        1527.151          36.877  
C25  22212530.085   115666463.272       -1263.406          39.308  
E03                                                                  25542195.106   134225175.560       -1371.320          38.246    25542203.500   100233086.134       -1024.091          35.001  
E08                                                                  24901224.441   130857034.446        1207.072          32.976  
E11                                                                  24874457.172   130716263.330        3112.449          32.177    24874449.077    97612683.981        2324.143          28.033  
E12                                                                  23444953.496   123204021.604        1030.165          30.360    23444947.800    92003010.127         769.269          28.554  
E25                                                                  23148032.750   121643735.031        1033.688          39.452    23148036.048    90837863.763         771.909          40.831  
G02  25052050.926   131649355.9741       3051.560          28.971  
G06  23945021.407   125831975.135        2728.057          34.862    23945028.602    93965425.211        2037.341          31.368  
G12  20784252.561   109221970.502        1958.742          46.377  
G13  25264902.372                       -3851.892          23.985  
G15  23665897.540   124365139.860       -3420.930          42.287  
G17  22864320.260   120152799.210       -2334.129          40.615  
G19  21180864.792                       -1064.095          29.921  
G24  20192333.039   106111444.655         -80.048          43.848    20192333.039    79239049.908         -59.795          46.356  
G25  23963443.353   125928779.2061       3371.509          23.440  
G32  24421229.135   128334557.472        2978.154          25.428    24421228.535                        2223.727          22.811  
R01  21769368.780                       -2026.539          21.193  
R02  22894728.509   122170528.921        2246.134          32.782  
R10  19540088.378   104159692.580        -543.290          37.164  
R20  20431909.783   109258553.779        1861.689          31.199  
R21  22977783.611   122958784.152        4650.295          37.042  
> 2019  5 20  8 24 13.0002637  0 25
C12  25262742.367                       -2526.255          24.578  
C13  38893956.474   202531065.957        1635.549          29.113  
C20  25748550.050   134079486.2581        236.685          24.345  
C23  22378701.747   116531767.058        1526.535          36.574  
C25  22212798.699   115667883.270       -1263.888          38.396  
E03                                                                  25542488.004   134226705.116       -1372.015          37.309    25542493.999   100234228.240       -1024.462          36.992  
E08                                                                  24901023.880   130855985.636        1206.352          33.335  
E11                                                                  24873895.061   130713308.917        3111.955          32.591    24873886.067    97610477.699        2323.926          28.215  
E12                                                                  23444788.910   123203149.784        1029.362          30.373    23444782.315    92002359.066         768.706          28.944  
E25                                                                  23147866.965   121642859.292        1033.281          40.139    23147869.064    90837209.812         771.596          39.999  
G02  25051496.310   131646462.065        3051.451          28.376  
G06  23944533.644   125829405.115        2727.562          35.136    23944540.240    93963506.166        2036.690          31.757  
G12  20783908.699   109220169.941        1958.103          46.430  
G13  25265659.348                       -3851.283          23.947  
G15  23666575.071   124368718.783       -3421.381          45.681  
G17  22864790.935   120155291.514       -2334.762          41.051  
G19  21181097.132   111307449.8361      -1064.168          30.104  
G24  20192378.907   106111683.032         -80.835          43.221    20192378.607    79239227.909         -60.357          46.113  
G25  23962830.578                        3369.938          22.796  
G32                                                                  24420688.309                        2223.989          21.965  
R01  21769799.282                       -2029.806          20.189  
R02  22894324.989   122168443.707        2245.189          33.825  
R10  19540226.583   104160396.242        -543.857          36.759  
R20  20431591.404   109256853.551        1860.541          31.739  
R21  22976951.687   122954294.699        4649.878          37.085  
> 2019  5 20  8 24 14.0002637  0 25
C12  25263237.025   131552113.7541      -2526.720          25.321  
C13  38893640.793   202529430.762        1635.194          28.214  
C20  25748516.773   134079250.011         236.247          24.954  
C23  22378410.049   116530240.752        1526.306          36.051  
C25  22213043.630   115669147.593       -1264.323          38.524  
E03                                                                  25542748.223   134228077.426       -1372.310          37.181    25542754.819   100235253.113       -1024.872          35.638  
E05                                                                  27293850.660                       -2963.399          30.108  
E08                                                                  24900798.436   130854779.817        1205.818          33.301  
E11                                                                  24873296.675   130710197.069        3111.848          31.933    24873294.576    97608153.946        2323.753          28.353  
E12                                                                  23444589.848   123202120.841        1028.943          30.981    23444585.951    92001590.698         768.368          28.675  
E25                                                                  23147670.601   121641826.271        1033.021          40.511    23147672.999    90836438.388         771.424          40.302  
G02  25050911.715   131643410.914        3051.151          26.892  
G06  23944016.802   125826677.951        2727.164          35.361    23944020.999    93961469.686        2036.480          32.492  
G12  20783536.657   109218212.311        1957.630          45.612  
G13  25266388.143   132775842.9161      -3851.602          24.500  
G15  23667226.820   124372140.304       -3421.522          45.467  
G17  22865239.124   120157626.768       -2335.255          40.405  
G24  20192392.697   106111764.488         -81.456          41.872    20192394.196    79239288.731         -60.821          44.933  
G25  23962196.517   125922194.8271       3370.886          25.342    23962195.018    94032828.2971       2517.243          22.056  
G32                                                                  24420120.502                        2223.224          21.319  
R01  21770168.926                       -2029.668          20.032  
R02  22893907.977   122166199.294        2244.413          33.909  
R10  19540324.315   104160940.660        -544.418          36.742  
R20  20431241.546   109254993.943        1859.608          32.203  
R21  22976068.499   122949645.071        4649.628          36.825  
> 2019  5 20  8 24 15.0002638  0 24
C12  25263759.563   131554796.985       -2527.121          25.683  
C13  38893349.994   202527951.861        1635.011          27.974  
C20  25748498.485                         239.878          21.965  
C25  22213314.342   115670568.457       -1264.754          38.011  
E03                                                                  25543041.720   134229607.939       -1372.971          34.195    25543046.217   100236395.922       -1025.165          32.074  
E05                                                                  27294447.247                       -2963.299          30.018    27294447.847   107109238.3961      -1969.889          26.766  
E08                                                                  24900595.476   130853732.044        1205.315          33.931  
E11                                                                  24872736.363   130707243.041        3111.570          31.745    24872732.166    97605948.094        2323.497          28.303  
E12                                                                  23444424.063   123201250.118        1028.265          30.916    23444422.264    92000940.474         767.870          29.021  
E25                                                                  23147504.216   121640951.057        1032.756          40.184    23147506.015    90835784.885         771.148          39.757  
G02  25050354.401                        3051.355          25.657  
G06  23943528.140   125824108.803        2726.690          35.651    23943531.438    93959551.137        2036.194          32.316  
G12  20783192.795   109216412.775        1957.078          44.225  
G13  25267150.516                       -3851.392          22.846  
G15  23667905.550   124375719.671       -3421.825          45.773  
G17  22865710.998   120160120.012       -2335.702          40.119  
G24  20192440.364   106112004.084         -82.053          41.311    20192439.465    79239467.624         -61.248          44.406  
G25  23961585.540   125918981.764        3370.606          26.156  
G32  24419578.777   128325941.2971       2976.547          25.439    24419584.473                        2222.521          20.787  
R01  21770597.329                       -2032.057          15.324  
R02  22893511.352   122164115.783        2243.486          33.594  
R10  19540458.022   104161645.436        -544.969          36.772  
R20  20430919.868   109253295.689        1858.566          32.386  
R21  22975234.176   122945156.114        4649.382          36.842  
> 2019  5 20  8 24 16.0002639  0 25
C12  25264270.110   131557480.598       -2527.504          26.619  
C13  38893069.089   202526473.164        1634.806          26.879  
C20  25748472.703                         238.305          21.889  
C23  22377872.521   116527501.3631       1525.637          36.269  
C25  22213584.755   115671989.670       -1265.103          37.762  
E02                                                                                                                                  27338810.835                        1863.731          23.515  
E03                                                                  25543332.819   134231138.976       -1373.495          37.592    25543336.716   100237539.318       -1025.751          32.783  
E05                                                                  27295036.939   143436398.3761      -2964.503          30.422    27295039.637   107111569.507       -2213.466          29.104  
E08                                                                  24900400.312   130852684.824        1204.762          33.364  
E11                                                                  24872173.952   130704289.240        3111.343          32.160    24872168.856    97603742.288        2323.451          27.511  
E12                                                                  23444258.877   123200379.822        1027.837          31.305    23444255.280    92000290.586         767.532          28.940  
E25                                                                  23147337.232   121640076.164        1032.435          38.559    23147340.829    90835131.512         771.018          40.161  
G06  23943039.778   125821539.912        2726.433          35.297    23943041.877    93957632.860        2035.922          32.124  
G12  20782851.631   109214613.643        1956.675          45.306  
G13  25267915.286                       -3848.211          22.764  
G15  23668587.578   124379299.243       -3422.029          45.786  
G17  22866188.567   120162613.761       -2336.207          40.909  
G24  20192485.333   106112244.223         -82.597          42.473    20192485.333    79239646.966         -61.697          45.392  
G25  23960967.967   125915768.830        3370.476          24.198  
G32                                                                  24419050.843                        2222.955          23.088  
R01  21771096.484                       -2030.396          18.787  
R02  22893112.328   122162032.988        2242.770          32.079  
R10  19540602.822   104162350.704        -545.463          37.225  
R20  20430611.982   109251598.317        1857.685          31.822  
R21  22974394.158   122940667.391        4649.147          37.334  
> 2019  5 20  8 24 17.0002639  0 24
C12  25264755.174   131560008.388       -2527.790          27.545  
C13  38892754.606   202524838.444        1634.721          27.750  
C20  25748441.225                         232.780          22.651  
C23  22377583.821   116525976.009        1525.354          36.606  
C25  22213827.587   115673255.026       -1265.355          37.368  
E02                                                                                                                                  27338341.060   107281383.2541       1864.056          22.334  
E03                                                                  25543596.036   134232512.773       -1373.798          37.557    25543600.533   100238565.312       -1025.994          34.838  
E05                                                                  27295599.949   143439362.602       -2964.226          30.990    27295604.446   107113782.941       -2213.434          29.945  
E08                                                                  24900169.172   130851480.422        1204.403          31.901  
E11                                                                  24871580.363   130701177.977        3111.263          31.914    24871576.766    97601418.909        2323.380          27.577  
E12                                                                  23444058.916   123199352.523        1027.299          30.460    23444058.916    91999523.453         767.133          28.560  
E25                                                                  23147140.268   121639043.917        1032.247          39.325    23147142.367    90834360.636         770.876          39.588  
G06  23942521.437   125818813.810        2726.103          35.278    23942522.936    93955597.058        2035.802          32.467  
G12  20782478.689   109212657.382        1956.260          46.157  
G15  23669239.027   124382721.383       -3422.141          45.380  
G17  22866634.059   120164950.367       -2336.606          41.053  
G19  21181965.630   111312031.5221      -1067.618          29.096  
G24  20192500.922   106112327.397         -83.174          42.669    20192501.522    79239709.110         -62.144          45.883  
G25  23960329.709   125912398.429        3370.401          25.399  
G32  24418485.135   128320145.9231       2976.612          23.411    24418486.633                        2221.914          22.102  
R02  22892692.319   122159790.981        2242.007          30.978  
R10  19540704.752   104162896.676        -545.971          37.291  
R20  20430265.721   109249741.519        1856.798          30.589  
R21  22973523.860   122936018.385        4649.007          37.616  
> 2019  5 20  8 24 18.0002640  0 24
C12  25265274.414   131562692.729       -2528.231          27.180  
C13  38892467.105   202523360.029        1634.525          26.921  
C20  25748419.340                         231.784          21.282  
C23  22377327.499   116524607.183        1524.936          35.392  
C25  22214100.998   115674676.862       -1265.726          37.627  
E02                                                                                                                                  27337893.470   107279636.866        1864.034          22.767  
E03                                                                  25543885.636   134234044.461       -1374.146          37.777    25543890.732   100239709.143       -1026.186          34.297  
E05                                                                  27296194.738   143442484.390       -2964.246          31.060    27296198.635   107116114.217       -2213.631          30.194  
E08                                                                  24899971.309   130850434.057        1203.907          31.774  
E11                                                                  24871014.055   130698224.403        3111.116          32.021    24871015.254    97599213.375        2323.178          28.026  
E12                                                                  23443892.531   123198483.231        1026.834          30.458    23443895.229    91998874.321         766.777          28.914  
E25                                                                  23146977.181   121638169.302        1032.157          40.003    23146978.081    90833707.562         770.719          40.835  
G06  23942030.677   125816245.620        2725.731          35.869    23942034.275    93953679.301        2035.402          32.167  
G12  20782133.029   109210859.049        1955.875          45.555  
G15  23669921.354   124386301.210       -3422.284          45.624  
G17  22867107.731   120167444.861       -2336.953          41.550  
G24  20192546.191   106112568.678         -83.739          42.545    20192547.091    79239889.252         -62.497          45.754  
G25  23959706.740                        3369.518          25.851    23959720.231                        2515.649          23.492  
G32                                                                  24417945.808    95821279.6791       2221.009          22.409  
R01  21771852.260                       -2027.591          25.298  
R02  22892291.796   122157709.551        2241.405          29.996  
R10  19540837.560   104163602.807        -546.326          38.394  
R20  20429944.344   109248045.930        1855.901          30.046  
R21  22972685.940   122931530.003        4648.807          37.847  
> 2019  5 20  8 24 19.0002640  0 25
C12  25265756.181   131565221.288       -2528.559          26.734  
C13  38892155.621   202521725.813        1634.216          27.049  
C20  25748368.675                         233.589          22.568  
C23  22377027.406   116523082.481        1524.703          35.217  
C25  22214343.230   115675942.955       -1266.094          38.223  
E02                                                                                                                                  27337416.500   107277772.943        1863.923          23.317  
E03                                                                  25544149.453   134235419.254       -1374.794          38.343    25544152.151   100240735.624       -1026.481          33.825  
E05                                                                  27296750.553   143445448.741       -2964.351          30.476    27296761.645   107118327.872       -2213.655          29.899  
E08                                                                  24899742.867   130849230.646        1203.411          32.746  
E11                                                                  24870423.764   130695113.524        3110.880          31.910    24870422.865    97596890.257        2323.118          28.183  
E12                                                                  23443697.966   123197456.971        1026.261          30.626    23443699.465    91998107.929         766.392          29.183  
E25                                                                  23146778.719   121637137.462        1031.840          39.676    23146779.918    90832937.031         770.531          40.292  
G06  23941512.336   125813520.301        2725.319          35.742    23941515.034    93951644.178        2035.123          32.388  
G12  20781766.083   109208903.627        1955.422          46.140  
G13  25270149.939                       -3852.652          21.297  
G15  23670572.803   124389723.753       -3422.543          45.634  
G17  22867552.323   120169782.376       -2337.514          41.464  
G19  21182393.734   111314325.9581      -1068.562          28.662  
G24  20192562.380   106112652.984         -84.305          43.682    20192563.279    79239952.234         -62.982          45.770  
G32                                                                  24417384.896    95819058.001        2221.678          23.677  
R01  21772232.697                       -2028.369          26.768  
R02  22891869.988   122155469.155        2240.397          30.915  
R10  19540934.393   104164149.672        -546.865          37.067  
R20  20429591.788   109246190.996        1854.935          30.205  
R21  22971825.536   122926881.331        4648.672          38.057  
> 2019  5 20  8 24 20.0002641  0 24
C12  25266268.826   131567906.579       -2529.181          27.388  
C13  38891869.919   202520248.035        1633.888          26.637  
C20  25748344.092                         231.174          22.144  
C25  22214611.844   115677365.721       -1266.657          36.621  
E02                                                                                                                                  27336975.206   107276026.812        1863.776          23.038  
E03                                                                  25544441.451   134236952.171       -1375.374          38.037    25544445.348   100241880.351       -1027.082          34.968  
E05                                                                  27297347.140   143448570.966       -2964.683          30.664    27297357.333   107120659.392       -2213.875          30.054  
E08                                                                  24899546.203   130848185.559        1202.628          32.793  
E11                                                                  24869859.255   130692160.606        3110.460          32.270    24869861.053    97594685.245        2322.657          28.397  
E12                                                                  23443533.380   123196588.911        1025.602          31.083    23443534.879    91997459.813         765.761          29.075  
E25                                                                  23146612.634   121636263.673        1031.331          39.846    23146614.132    90832284.524         770.152          40.620  
G06  23941029.070   125810953.087        2724.756          35.500    23941026.972    93949727.030        2034.793          32.562  
G12  20781420.422   109207106.513        1954.656          46.166  
G13  25270910.513                       -3851.548          21.617  
G15  23671254.531   124393304.259       -3422.964          45.648  
G17  22868025.995   120172278.076       -2338.159          41.288  
G19  21182634.467   111315553.469       -1069.969          29.050  
G24  20192612.745   106112895.640         -85.115          44.178    20192609.447    79240133.401         -63.521          45.801  
G32                                                                  24416847.668                        2221.139          24.139  
R01  21772656.004                       -2031.384          27.701  
R02  22891468.866   122153389.854        2239.276          29.978  
R10  19541078.893   104164857.118        -547.639          37.652  
R20  20429266.513   109244497.495        1853.813          30.420  
R21  22970983.119   122922393.598        4648.158          37.908  
> 2019  5 20  8 24 21.0002642  0 24
C12  25266785.368   131570592.290       -2529.601          27.675  
C13  38891587.214   202518770.505        1633.639          26.620  
C20  25748336.298                         230.257          19.647  
C25  22214887.354   115678788.824       -1266.993          36.648  
E02                                                                                                                                  27336531.813   107274280.899        1863.557          22.556  
E03                                                                  25544733.149   134238485.563       -1375.851          38.111    25544736.447   100243025.377       -1027.380          34.848  
E05                                                                  27297944.626   143451693.223       -2964.714          31.204    27297950.022   107122990.943       -2213.907          30.127  
E08                                                                  24899341.145   130847140.849        1202.252          32.719  
E11                                                                  24869296.244   130689207.809        3110.339          32.004    24869299.842    97592480.127        2322.763          28.352  
E12                                                                  23443366.995   123195721.442        1025.011          31.454    23443369.393    91996811.975         765.483          29.126  
E25                                                                  23146446.548   121635390.039        1031.175          39.836    23146448.647    90831632.140         770.028          40.636  
G06  23940537.711   125808386.156        2724.473          35.373    23940538.310    93947810.197        2034.478          32.582  
G12  20781079.858   109205309.758        1954.297          46.063  
G13  25271676.183                       -3851.077          21.008  
G15  23671936.859   124396884.877       -3423.075          45.711  
G17  22868503.864   120174774.205       -2338.586          40.983  
G19  21182864.108   111316781.710       -1070.699          30.208  
G24  20192657.114   106113138.809         -85.627          43.962    20192655.915    79240314.979         -63.933          45.672  
G32  24416305.044   128308719.4121       2974.063          30.416    24416311.040    95814851.2031       2220.865          23.500  
R01  21773064.921   116389615.3471      -2031.039          28.557  
R02  22891064.746   122151311.125        2238.704          28.841  
R10  19541207.204   104165564.980        -548.056          38.516  
R20  20428950.832   109242804.865        1852.943          30.317  
R21  22970145.199   122917905.969        4648.054          37.541  
> 2019  5 20  8 24 22.0002642  0 23
C12  25267265.336   131573122.223       -2529.933          27.588  
C13  38891270.933                        1633.117          26.260  
C20  25748280.836                         233.664          19.498  
C23  22376213.470   116518823.0861       1523.475          35.841  
E02                                                                                                                                  27336054.243   107272417.366        1863.533          22.987  
E03                                                                  25544993.669   134239861.943       -1376.380          37.926    25544998.466   100244053.185       -1027.808          34.426  
E05                                                                  27298507.936   143454658.157       -2964.934          30.906    27298514.831   107125205.040       -2214.096          30.000  
E08                                                                  24899113.902   130845939.179        1201.670          32.003  
E11                                                                  24868703.255   130686097.790        3110.019          31.927    24868707.752    97590157.810        2322.317          28.218  
E12                                                                  23443170.631   123194697.015        1024.427          30.462    23443174.228    91996046.935         765.040          29.305  
E25                                                                  23146251.084   121634359.216        1030.824          40.112    23146251.983    90830862.366         769.774          40.575  
G06  23940013.973   125805662.200        2723.955          35.034    23940021.468    93945776.057        2034.139          32.566  
G12  20780704.817   109203356.019        1953.739          45.548  
G15  23672586.509   124400308.286       -3423.409          45.650  
G17  22868946.658   120177113.298       -2339.093          41.098  
G19  21183067.368   111317853.279       -1071.569          29.925  
G24  20192674.203   106113225.102         -86.293          43.943    20192672.104    79240379.427         -64.448          45.692  
G32  24415743.832   128305745.900        2973.512          30.981    24415746.830    95812630.722        2220.481          23.316  
R01  21773461.246   116391647.197       -2031.850          28.840  
R02  22890648.034   122149073.400        2237.725          27.986  
R10  19541305.236   104166113.620        -548.640          38.411  
R20  20428623.158                        1851.443          29.748  
R21  22969278.799   122913258.259        4647.710          38.210  
> 2019  5 20  8 24 23.0002643  0 24
C12  25267782.178   131575808.698       -2530.365          28.447  
C13  38890981.034                        1631.839          25.116  
C20  25748263.448                         233.848          18.897  
C23  22375950.852   116517456.037        1523.159          35.326  
C25  22215402.997   115681480.2371      -1267.866          36.659  
E02                                                                                                                                  27335611.750   107270671.641        1863.371          23.190  
E03                                                                  25545286.566   134241396.347       -1376.862          37.603    25545289.864   100245199.019       -1028.189          34.473  
E05                                                                  27299101.525   143457780.811       -2965.112          31.077    27299108.720   107127536.859       -2214.175          29.908  
E08                                                                  24898916.639   130844895.650        1201.071          32.197  
E11                                                                  24868141.444   130683145.532        3109.800          31.451    24868146.241    97587953.109        2322.346          28.271  
E12                                                                  23443005.445   123193830.723        1023.835          30.112    23443010.242    91995400.088         764.492          29.645  
E25                                                                  23146086.198   121633486.250        1030.508          40.841    23146085.898    90830210.465         769.546          40.542  
G06  23939526.511   125803096.192        2723.550          34.474    23939532.207    93943859.902        2033.801          32.176  
G12  20780363.054   109201560.341        1953.219          45.407  
G15  23673270.036   124403889.486       -3423.658          45.514  
G17  22869419.430   120179610.443       -2339.602          41.001  
G19  21183302.705   111319083.146       -1072.326          30.458  
G24  20192722.769   106113469.570         -86.926          44.443    20192718.572    79240561.979         -64.908          45.542  
G32  24415210.202   128302930.448        2972.994          32.144    24415209.902    95810528.260        2220.107          23.482  
R01  21773860.570   116393840.145       -2032.692          30.810  
R02  22890249.910   122146996.470        2236.905          27.883  
R10  19541435.646   104166822.559        -549.133          38.477  
R20  20428302.680   109239262.3261       1850.956          28.856  
R21  22968435.783   122908771.265        4647.419          38.676  
> 2019  5 20  8 24 24.0002643  0 24
C12  25268266.643   131578339.427       -2530.729          28.966  
C13  38890665.053   202514027.0721       1633.038          24.925  
C20  25748225.075                         228.801          19.727  
C23  22375658.554   116515933.079        1522.958          36.040  
C25  22215646.728   115682748.301       -1268.064          36.060  
E02                                                                                                                                  27335133.281   107268808.159        1863.482          23.499  
E03                                                                  25545547.386   134242773.551       -1377.204          37.571    25545552.182   100246227.491       -1028.473          34.845  
E05                                                                  27299667.533   143460745.877       -2965.066          31.367    27299674.129   107129751.048       -2214.189          30.098  
E08                                                                  24898690.895   130843694.959        1200.692          32.499  
E11                                                                  24867542.159   130680035.772        3109.761          31.179    24867553.551    97585630.870        2322.239          27.598  
E12                                                                  23442811.180   123192807.365        1023.358          29.863    23442816.276    91994635.816         764.273          29.974  
E25                                                                  23145891.033   121632455.830        1030.419          40.946    23145889.834    90829440.983         769.483          41.007  
G06  23939006.970   125800372.885        2723.308          34.380    23939013.866    93941826.237        2033.664          32.742  
G12  20779991.311   109199607.445        1952.896          45.427  
G15  23673922.085   124407313.196       -3423.711          45.533  
G17  22869867.021   120181950.362       -2339.920          40.648  
G19  21183511.360   111320156.183       -1073.037          31.144  
G24  20192736.260   106113556.928         -87.358          44.345    20192735.360    79240627.203         -65.224          45.603  
G32  24414642.994   128299957.725        2972.723          32.568    24414644.194    95808308.473        2219.787          24.523  
R01  21774225.118   116395873.508       -2033.363          30.858  
R02  22889831.999   122144760.234        2236.236          27.525  
R10  19541547.168   104167372.114        -549.554          39.157  
R20  20427956.120   109237412.173        1850.153          28.787  
R21  22967573.580   122904123.913        4647.351          38.460  
> 2019  5 20  8 24 25.0002644  0 25
C12  25268779.288   131581024.649       -2529.113          29.645  
C13  38890379.051                        1635.707          24.833  
C20  25748210.984                         227.008          19.275  
C23  22375395.336   116514564.631        1524.558          36.330  
C25  22215921.338   115684170.916       -1266.505          35.544  
E02                                                                                                                                  27334689.588   107267060.838        1864.966          22.957  
E03                                                                  25545839.383   134244306.806       -1375.712          37.627    25545843.281   100247372.402       -1027.265          35.048  
E05                                                                  27300254.827   143463866.661       -2963.242          30.687    27300268.318   107132081.470       -2212.777          30.505  
E08                                                                  24898484.638   130842650.274        1202.227          31.183  
E11                                                                  24866986.044   130677081.770        3111.544          32.345    24866992.040    97583425.005        2323.510          27.428  
E12                                                                  23442646.893   123191939.986        1024.921          30.060    23442650.491    91993988.127         765.333          29.950  
E25                                                                  23145724.348   121631581.233        1032.139          40.980    23145723.449    90828787.885         770.743          40.974  
G06  23938515.610   125797805.522        2724.904          34.045    23938527.003    93939909.071        2034.811          33.222  
G12  20779648.049   109197810.558        1954.429          45.459  
G13  25274687.598                       -3849.263          21.089  
G15  23674602.614   124410892.677       -3421.939          45.855  
G17  22870342.192   120184446.324       -2338.420          40.293  
G19  21183746.098   111321385.470       -1071.745          31.777  
G24  20192785.426   106113800.445         -85.975          44.463    20192781.528    79240809.053         -64.205          45.678  
G32  24414106.066   128297140.984        2974.283          33.896    24414109.364    95806204.991        2221.127          24.456  
R01  21774641.829   116398065.875       -2032.110          30.840  
R02  22889450.963   122142682.696        2237.514          27.662  
R10  19541680.276   104168079.938        -548.018          39.326  
R20  20427652.430   109235721.214        1851.272          29.484  
R21  22966727.266   122899635.214        4649.124          38.878  
> 2019  5 20  8 24 26.0002645  0 24
C12  25269294.931   131583708.597       -2527.838          29.245  
C13  38890094.248   202511068.1871       1636.290          24.967  
C20  25748204.989                         232.116          21.699  
C23  22375135.116   116513194.817        1525.924          36.897  
E02                                                                                                                                  27334245.596   107265312.510        1865.973          23.014  
E03                                                                  25546130.482   134245838.821       -1374.474          37.414    25546136.178   100248516.462       -1026.415          34.897  
E05                                                                  27300853.512   143466985.805       -2961.602          30.969    27300861.307   107134410.728       -2211.613          30.337  
E08                                                                  24898287.374   130841604.466        1203.350          30.588  
E11                                                                  24866422.434   130674126.334        3112.978          31.990    24866429.629    97581218.018        2324.632          27.887  
E12                                                                  23442486.804   123191071.430        1026.098          30.881    23442485.005                         766.336          30.095  
E25                                                                  23145558.563   121630705.208        1033.568          40.799    23145557.664    90828133.726         771.803          40.897  
G06  23938023.651   125795236.863        2726.201          33.435    23938037.142    93937990.886        2035.830          33.485  
G12  20779308.684   109196012.491        1955.609          45.340  
G13  25275454.167                       -3845.135          19.540  
G15  23675285.241   124414470.696       -3420.476          45.918  
G17  22870814.065   120186941.048       -2337.181          40.163  
G19  21183985.932   111322613.837       -1070.825          32.341  
G24  20192832.793   106114042.850         -84.863          44.618    20192827.696    79240990.068         -63.370          45.692  
G32  24413572.136   128294323.010        2975.516          33.467    24413575.134                        2222.614          24.929  
R01  21775049.547   116400257.343       -2031.213          31.041  
R02  22889073.824   122140604.217        2238.453          28.095  
R10  19541819.080   104168786.558        -546.814          39.690  
R20  20427336.749   109234029.579        1851.947          29.617  
R21  22965898.339   122895144.995        4650.644          38.408  
> 2019  5 20  8 24 27.0002645  0 24
C12  25269777.297   131586235.844       -2527.247          29.529  
C13  38889780.965                        1639.742          24.816  
C20  25748172.311                         231.973          23.021  
C23  22374841.919   116511668.306        1526.510          36.810  
C25  22216439.079   115686856.8501      -1264.640          36.414  
E02                                                                                                                                  27333771.024   107263445.769        1866.741          23.320  
E03                                                                  25546393.100   134247212.858       -1374.036          37.439    25546397.597   100249542.525       -1026.063          35.176  
E05                                                                  27301418.321   143469946.579       -2960.774          31.121    27301424.917   107136621.697       -2210.969          30.398  
E08                                                                  24898055.635   130840400.661        1203.805          29.500  
E11                                                                  24865830.644   130671012.550        3113.784          32.082    24865836.939    97578892.786        2325.232          28.227  
E12                                                                  23442292.239   123190045.040        1026.390          31.042    23442290.440    91992573.1331        766.469          30.108  
E25                                                                  23145361.600   121629670.940        1034.268          40.880    23145359.501    90827361.366         772.360          40.845  
G06  23937500.813   125792510.062        2726.801          32.756    23937517.901    93935954.639        2036.248          33.364  
G12  20778933.644   109194056.358        1956.134          45.203  
G15  23675935.791   124417890.414       -3419.718          46.034  
G17  22871258.357   120189277.746       -2336.699          40.314  
G19  21184194.587   111323684.454       -1070.618          32.909  
G24  20192847.183   106114127.350         -84.500          45.054    20192843.885    79241053.183         -63.115          45.697  
G32  24413001.631   128291346.963        2976.047          33.692    24413008.526    95801878.3631       2222.325          24.700  
R01  21775426.086   116402288.385       -2031.041          31.645  
R02  22888650.217   122138365.655        2238.562          29.371  
R10  19541913.515   104169332.903        -546.345          40.070  
R20  20426985.092   109232177.562        1852.017          29.308  
R21  22965023.845   122890493.583        4651.412          37.828  
> 2019  5 20  8 24 28.0002646  0 24
C12  25270289.942   131588920.278       -2528.324          29.372  
C13  38889493.764                        1635.025          25.477  
C20  25748156.422   134077398.6521        231.622          24.479  
C23  22374580.800   116510298.876        1525.540          36.645  
C25  22216717.287   115688278.580       -1265.620          36.557  
E02                                                                                                                                  27333324.633   107261697.399        1866.015          24.218  
E03                                                                  25546682.100   134248745.534       -1375.134          37.486    25546688.695   100250687.068       -1026.898          35.198  
E05                                                                  27302011.011   143473065.719       -2961.598          31.463    27302018.206   107138950.907       -2211.565          30.411  
E08                                                                  24897855.074   130839355.570        1202.633          28.692  
E11                                                                  24865268.233   130668057.251        3112.841          32.044    24865274.529    97576685.840        2324.591          27.835  
E12                                                                  23442127.353   123189177.385        1025.197          30.492    23442125.854    91991925.190         765.588          30.207  
E25                                                                  23145193.416   121628795.140        1033.342          40.863    23145193.116    90826707.348         771.663          40.915  
G06  23937011.552   125789941.842        2725.762          32.201    23937029.539    93934036.807        2035.477          33.496  
G12  20778595.478   109192258.903        1954.997          45.329  
G15  23676616.320   124421468.571       -3420.615          46.082  
G17  22871736.226   120191773.148       -2337.860          40.471  
G19  21184429.924   111324914.064       -1072.068          32.809  
G24  20192893.950   106114370.684         -85.792          44.842    20192889.753    79241234.872         -64.045          45.495  
G32  24412467.700   128288529.646        2974.859          34.507    24412472.197    95799774.518        2221.491          25.710  
R01  21775836.802   116404481.165       -2032.524          31.678  
R02  22888272.778   122136288.624        2237.006          30.354  
R10  19542043.925   104170040.244        -547.534          40.016  
R20  20426664.315                        1849.267          28.963  
R21  22964181.728   122886003.554        4650.454          38.184  
> 2019  5 20  8 24 29.0002646  0 25
C12  25270774.707   131591450.042       -2529.764          29.515  
C13  38889176.583   202506316.4091       1634.858          24.472  
C20  25748117.149                         229.081          25.245  
C23  22374286.704   116508774.770        1524.106          37.264  
C25  22216957.720   115689545.698       -1267.118          36.629  
E02                                                                                                                                  27332846.164   107259832.199        1865.200          24.815  
E03                                                                  25546945.917   134250122.227       -1376.693          37.222    25546950.714   100251715.134       -1028.066          35.919  
E05                                                                  27302574.921   143476028.506       -2962.787          31.811    27302582.715   107141163.368       -2212.461          30.972  
E08                                                                  24897623.934   130838154.524        1201.046          28.170  
E11                                                                  24864676.143   130664945.659        3111.592          32.137    24864684.537    97574362.264        2323.576          27.899  
E12                                                                  23441931.888   123188153.731        1023.654          29.881    23441930.989    91991160.799         764.391          30.013  
E25                                                                  23144997.052   121627763.130        1032.010          40.837    23144996.452    90825936.697         770.650          40.813  
G02  25042471.358   131599050.2901       3053.072          23.919  
G06                                                                  23936511.198    93932002.434        2034.373          34.076  
G12  20778220.138   109190305.492        1953.411          45.254  
G15  23677267.769   124424890.489       -3421.918          45.728  
G17  22872181.118   120194112.550       -2339.402          40.565  
G19  21184632.884   111325987.932       -1073.868          32.391  
G24  20192912.538   106114458.122         -87.439          45.007    20192906.242    79241300.184         -65.312          45.440  
G32  24411904.690   128285556.174        2973.472          35.093    24411906.189    95797554.054        2220.464          25.612  
R01  21776228.631   116406515.584       -2034.419          31.683  
R02  22887880.650   122134053.444        2235.181          31.496  
R10  19542142.556   104170589.366        -549.123          40.104  
R20  20426307.562   109228639.1741       1848.341          28.863  
R21  22963304.235   122881354.416        4649.137          38.171  
> 2019  5 20  8 24 30.0002647  0 23
C13  38888894.179   202504838.244        1634.275          25.012  
C20  25748110.254   134077095.8101        229.017          27.074  
C23  22374021.387   116507407.398        1523.482          36.670  
C25  22217232.930   115690969.599       -1267.791          36.729  
E02                                                                                                                                  27332403.371   107258084.936        1864.908          24.913  
E03                                                                  25547237.316   134251657.262       -1377.493          37.375    25547243.012   100252861.410       -1028.631          35.873  
E05                                                                  27303168.510   143479149.205       -2963.157          31.652    27303177.504   107143493.805       -2212.792          31.168  
E08                                                                  24897425.171   130837111.818        1200.247          27.521  
E11                                                                  24864119.129   130661992.135        3111.067          31.788    24864120.328    97572156.815        2323.094          27.737  
E12                                                                  23441767.302   123187288.512        1022.760          29.539    23441765.503    91990514.742         763.702          30.265  
E25                                                                  23144832.166   121626889.256        1031.416          41.062    23144830.667    90825284.126         770.217          41.135  
G02  25041918.241                        3049.375          21.679  
G06                                                                  23936022.836    93930086.272        2033.807          34.606  
G12  20777882.571   109188510.401        1952.633          45.623  
G15  23677948.297   124428470.460       -3422.429          45.540  
G17  22872654.791   120196610.214       -2340.122          40.829  
G24  20192957.207   106114704.026         -88.362          45.298    20192953.010    79241483.815         -65.986          45.641  
G32  24411368.062   128282741.076        2972.640          35.093    24411371.359    95795451.900        2219.799          26.756  
R01  21776648.040   116408711.402       -2035.562          31.686  
R02  22887487.022   122131979.478        2233.941          32.003  
R10  19542281.360   104171299.130        -549.957          40.071  
R20  20425999.675   109226952.392        1847.095          28.593  
R21  22962469.313   122876866.231        4648.610          37.565  
> 2019  5 20  8 24 31.0002648  0 24
C13  38888608.776                        1634.977          24.772  
C20  25748090.168   134077022.669         229.251          26.501  
C23  22373759.668   116506039.568        1523.940          36.600  
C25  22217505.441   115692393.062       -1267.353          36.153  
E02                                                                                                                                  27331955.781   107256337.146        1865.435          24.576  
E03                                                                  25547531.712   134253191.927       -1377.123          36.778    25547535.609   100254007.457       -1028.402          36.195  
E05                                                                  27303759.700   143482269.273       -2962.526          31.250    27303769.594   107145823.679       -2212.229          30.597  
E08                                                                  24897227.908   130836068.890        1200.471          27.598  
E11                                                                  24863555.219   130659037.943        3111.734          31.909    24863558.517    97569950.693        2323.767          27.734  
E12                                                                  23441608.712   123186423.083        1022.971          29.444    23441601.817    91989868.410         763.977          30.162  
E25                                                                  23144665.182   121626014.789        1032.010          40.875    23144664.282    90824631.110         770.660          41.082  
G02  25041358.228                        3049.922          21.300  
G06                                                                  23935535.074    93928169.794        2034.123          34.532  
G12  20777539.309   109186714.935        1953.008          45.292  
G15  23678629.726   124432049.833       -3421.831          45.890  
G17  22873129.362   120199107.586       -2339.830          41.002  
G19  21185108.654   111328452.9051      -1074.844          31.184  
G24  20193003.674   106114949.710         -88.142          44.983    20193000.377    79241667.255         -65.795          45.762  
G32  24410829.035   128279925.580        2973.038          35.401    24410835.031    95793349.463        2220.081          26.789  
R01  21777051.861   116410907.143       -2035.484          31.656  
R02  22887097.892   122129905.413        2234.040          33.096  
R10  19542411.170   104172008.566        -549.629          40.124  
R20  20425685.492   109225265.718        1846.987          28.773  
R21  22961637.389   122872377.468        4649.188          37.271  
> 2019  5 20  8 24 32.0002648  0 24
C12  25272289.558   131599352.3731      -2529.584          29.610  
C13  38888295.193                        1637.774          24.964  
C20  25748044.899   134076793.212         229.457          26.487  
C23  22373467.071   116504515.043        1524.525          36.494  
C25  22217750.371   115693659.875       -1266.812          36.624  
E03                                                                  25547794.030   134254568.645       -1376.718          37.692    25547797.928   100255035.546       -1028.090          36.085  
E05                                                                  27304327.507   143485230.976       -2961.703          31.437    27304332.904   107148035.381       -2211.702          30.585  
E08                                                                  24896999.466   130834867.904        1200.986          26.597  
E11                                                                  24862964.928   130655925.547        3112.395          32.282    24862967.026    97567626.513        2324.180          27.634  
E12                                                                  23441408.750   123185399.739        1023.344          29.394    23441407.551    91989104.192         764.217          30.468  
E25                                                                  23144468.818   121624982.143        1032.646          41.303    23144467.618    90823859.981         771.129          41.175  
G02  25040773.333                        3058.427          21.018  
G06                                                                  23935015.833    93926135.151        2034.643          35.067  
G12  20777166.067   109184761.503        1953.433          45.274  
G15  23679280.575   124435470.950       -3421.117          45.323  
G17  22873579.950   120201446.950       -2339.365          41.212  
G19  21185311.314   111329527.653       -1074.748          30.898  
G24  20193019.863   106115037.506         -87.795          44.697    20193016.865    79241732.790         -65.535          45.871  
G32  24410269.622   128276952.117        2973.463          36.317    24410268.423    95791128.979        2220.484          26.893  
R01  21777434.696   116412942.544       -2035.401          31.755  
R02  22886684.178   122127671.310        2234.103          34.374  
R10  19542506.504   104172557.765        -549.200          40.263  
R20  20425331.137   109223418.805        1846.913          28.816  
R21  22960761.096   122867727.528        4649.940          36.871  
> 2019  5 20  8 24 33.0002649  0 25
C12  25272805.801   131602038.278       -2529.795          29.363  
C13  38888008.592                        1637.069          24.197  
C20  25748036.505   134076719.682         229.639          27.999  
C23  22373205.352   116503146.767        1524.386          36.607  
C25  22218026.480   115695082.998       -1267.014          36.630  
E02                                                                                                                                  27331034.519   107252722.6271       1866.211          25.347  
E03                                                                  25548085.129   134256103.236       -1377.049          37.772    25548089.626   100256181.474       -1028.282          36.090  
E05                                                                  27304914.501   143488350.162       -2961.644          31.459    27304927.392   107150364.589       -2211.563          31.108  
E08                                                                  24896801.603   130833824.886        1200.560          26.723  
E11                                                                  24862408.213   130652970.759        3112.330          32.202    24862404.016    97565420.036        2324.122          27.982  
E12                                                                  23441243.565   123184534.223        1023.058          29.113    23441242.066    91988457.904         763.933          30.355  
E25                                                                  23144303.332   121624107.133        1032.553          41.430    23144300.934    90823206.553         771.073          41.209  
G02  25040225.613                        3055.685          21.143  
G06                                                                  23934526.872    93924218.444        2034.353          34.891  
G12  20776827.901   109182965.918        1953.126          45.560  
G15  23679958.706   124439049.673       -3421.181          45.095  
G17  22874052.123   120203944.109       -2339.617          41.451  
G19  21185542.454   111330760.601       -1075.405          30.174  
G24  20193065.731   106115283.234         -88.186          44.798    20193063.633    79241916.324         -65.889          45.935  
G32  24409730.595   128274136.419        2973.240          36.170    24409733.293    95789026.323        2220.300          27.339  
R01  21777828.323   116415138.833       -2036.033          31.055  
R02  22886294.748   122125597.727        2233.557          34.219  
R10  19542644.109   104173267.084        -549.512          39.958  
R20  20425016.355   109221732.924        1846.194          29.533  
R21  22959922.576   122863238.123        4649.830          36.475  
> 2019  5 20  8 24 34.0002650  0 23
C12  25273323.242   131604724.764       -2530.376          29.016  
C13  38887719.592                        1635.026          24.000  
C20  25748027.811   134076647.517         228.275          28.795  
C23  22372941.535   116501779.093        1523.784          36.498  
C25  22218298.692   115696506.722       -1267.614          36.260  
E02                                                                                                                                  27330589.327   107250974.493        1865.779          25.502  
E03                                                                  25548377.426   134257638.493       -1377.715          37.606    25548381.923   100257327.904       -1028.785          36.116  
E05                                                                  27305508.989   143491469.712       -2962.008          31.259    27305521.281   107152694.134       -2211.900          31.008  
E08                                                                  24896604.639   130832782.540        1199.888          26.342  
E11                                                                  24861845.503   130650016.356        3111.945          32.455    24861842.205    97563213.821        2323.860          28.206  
E12                                                                  23441077.180   123183669.547        1022.217          29.337    23441077.780    91987812.219         763.331          29.962  
E25                                                                  23144136.048   121623232.572        1032.102          41.213    23144134.549    90822553.487         770.711          40.915  
G06                                                                  23934039.110    93922302.136        2033.952          34.637  
G12  20776484.939   109181171.012        1952.449          45.786  
G15  23680642.532   124442628.805       -3421.590          45.235  
G17  22874527.894   120206441.981       -2340.330          41.637  
G24  20193110.101   106115529.784         -89.008          44.232    20193110.101    79242100.413         -66.444          45.644  
G32  24409198.164   128271321.353        2972.608          35.851    24409196.665    95786924.211        2219.757          26.824  
R01  21778239.938   116417336.095       -2037.005          30.486  
R02  22885897.223   122123525.239        2232.464          34.526  
R10  19542776.317   104173977.154        -550.264          39.742  
R20  20424708.469   109220048.191        1845.045          30.715  
R21  22959078.661   122858749.145        4649.402          36.432  
> 2019  5 20  8 24 35.0002650  0 24
C12  25273807.707   131607256.022       -2531.259          29.012  
C13  38887407.808   202497131.2631       1634.319          23.754  
C20  25747981.643   134076420.321         227.196          29.192  
C23  22372652.835   116500256.043        1523.050          36.577  
C25  22218541.224   115697775.164       -1268.442          35.710  
E02                                                                                                                                  27330113.256   107249109.029        1865.463          25.465  
E03                                                                  25548640.045   134259017.103       -1378.610          37.595    25548644.242   100258357.415       -1029.511          36.432  
E05                                                                  27306071.400   143494432.258       -2962.546          30.983    27306083.991   107154906.433       -2212.299          31.086  
E08                                                                  24896383.093   130831583.668        1198.872          26.769  
E11                                                                  24861254.312   130646905.082        3111.274          32.337    24861250.714    97560890.452        2323.369          28.121  
E12                                                                  23440882.615   123182648.287        1021.260          29.280    23440883.514    91987049.592         762.627          30.166  
E25                                                                  23143938.785   121622201.202        1031.371          41.263    23143938.485    90821783.315         770.172          41.003  
G02  25039084.003                        3052.528          19.687  
G06                                                                  23933520.169    93920268.803        2033.333          34.710  
G12  20776114.695   109179219.500        1951.512          45.856  
G15  23681294.281   124446051.086       -3422.281          45.077  
G17  22874972.786   120208783.252       -2341.271          41.597  
G24  20193124.191   106115619.837         -90.053          44.165    20193127.189    79242167.658         -67.245          45.398  
G32  24408632.755   128268349.718        2971.635          35.717    24408632.455    95784705.126        2219.086          26.103  
R01  21778616.777   116419374.365       -2038.271          30.095  
R02  22885494.302   122121294.010        2231.228          35.044  
R10  19542880.345   104174528.393        -551.238          40.055  
R20  20424364.906   109218204.512        1843.679          31.552  
R21  22958215.858   122854100.415        4648.730          35.987  
> 2019  5 20  8 24 36.0002651  0 25
C12  25274323.650   131609944.379       -2532.247          29.319  
C13  38887126.902                        1629.381          23.422  
C20  25747969.352   134076350.391         226.039          29.386  
C23  22372387.518   116498890.014        1522.139          36.836  
C25  22218816.134   115699200.663       -1269.390          35.695  
E02                                                                                                                                  27329669.563   107247361.835        1864.840          25.407  
E03                                                                  25548932.042   134260554.333       -1379.687          37.023    25548936.839   100259505.332       -1030.272          36.870  
E05                                                                  27306666.188   143497553.082       -2963.282          31.337    27306679.379   107157236.930       -2212.852          31.353  
E08                                                                  24896185.529   130830543.381        1197.829          27.031  
E11                                                                  24860698.197   130643952.137        3110.487          33.054    24860687.404                        2322.421          27.755  
E12                                                                  23440716.530   123181785.783        1020.046          29.021    23440719.228    91986405.459         761.779          30.354  
E25                                                                  23143773.599   121621328.216        1030.528          41.166    23143772.100    90821131.393         769.568          41.023  
G02  25038533.884                        3056.616          20.605  
G06  23933011.421   125768940.3631       2721.863          30.478    23933033.606    93918353.903        2032.546          34.478  
G10  25201241.144                       -2029.112          21.858  
G12  20775774.730   109177426.582        1950.460          45.645  
G15  23681973.011   124449631.692       -3423.064          45.336  
G17  22875450.355   120211283.085       -2342.292          41.932  
G24  20193173.957   106115868.616         -91.237          44.003    20193174.556    79242353.432         -68.129          45.388  
G32  24408094.028   128265536.578        2970.682          35.725    24408097.026                        2217.643          26.247  
R01  21779032.589   116421574.278       -2039.657          30.100  
R02  22885099.475   122119224.213        2229.772          34.910  
R10  19543008.956   104175240.512        -552.314          39.908  
R20  20424050.424   109216522.749        1842.075          31.811  
R21  22957380.936   122849612.940        4647.900          35.683  
> 2019  5 20  8 24 37.0002651  0 24
C12  25274809.314   131612477.301       -2532.922          29.372  
C13  38886806.724                        1630.735          22.717  
C20  25747925.282   134076125.363         225.028          29.213  
C23  22372089.824   116497368.602        1521.412          35.895  
C25  22219059.865   115700470.792       -1270.128          35.987  
E02                                                                                                                                  27329193.193   107245497.276        1864.558          25.432  
E03                                                                  25549196.759   134261934.911       -1380.578          37.608    25549199.457   100260536.257       -1030.925          36.673  
E05                                                                  27307231.297   143500516.807       -2963.725          31.554    27307243.888   107159450.083       -2213.153          31.400  
E08                                                                  24895958.287   130829346.387        1196.994          26.139  
E11                                                                  24860106.706   130640842.179        3109.958          33.629    24860095.914    97556362.9101       2322.383          27.557  
E12                                                                  23440522.864   123180766.466        1019.317          28.814    23440524.363    91985644.397         761.061          30.264  
E25                                                                  23143576.335   121620298.290        1029.926          41.073    23143576.335    90820362.301         769.091          40.955  
G02  25037973.572                        3049.690          21.029  
G06  23932495.478   125766219.157        2721.207          31.273    23932514.665    93916321.867        2032.036          34.405  
G12  20775405.986   109175476.958        1949.625          46.038  
G15  23682623.861   124453055.322       -3423.630          44.914  
G17  22875893.149   120213626.205       -2343.120          41.313  
G24  20193187.747   106115960.737         -92.121          43.600    20193191.944    79242422.245         -68.812          45.394  
G32  24407528.320   128262566.762        2969.816          35.764    24407530.119    95780386.6401       2217.793          26.043  
R01  21779435.810   116423615.083       -2040.805          28.518  
R02  22884687.560   122116995.574        2228.639          34.923  
R10  19543115.683   104175793.694        -553.182          40.253  
R20  20423715.856   109214681.945        1840.804          31.919  
R21  22956516.334   122844965.667        4647.273          35.450  
> 2019  5 20  8 24 38.0002652  0 23
C12  25275322.558   131615166.398       -2532.988          29.278  
C20  25747914.490   134076056.661         224.812          29.373  
C23  22371828.705   116496003.320        1521.392          35.711  
C25  22219336.873   115701897.086       -1270.184          36.617  
E02                                                                                                                                  27328748.001   107243750.181        1864.740          24.827  
E03                                                                  25549489.357   134263473.063       -1380.610          37.672    25549492.654   100261684.929       -1031.027          36.315  
E05                                                                  27307824.287   143503637.835       -2963.486          31.533    27307836.278   107161780.714       -2212.986          31.153  
E08                                                                  24895758.925   130828307.264        1196.664          24.439  
E11                                                                  24859550.591   130637889.665        3110.056          34.348    24859534.702    97554158.088        2322.467          26.887  
E12                                                                  23440361.875   123179904.999        1019.009          28.959    23440360.976    91985001.071         760.972          30.461  
E25                                                                  23143411.450   121619425.832        1029.999          41.110    23143410.250    90819710.774         769.172          41.045  
G02  25037412.660                        3047.544          21.127  
G06  23932009.215   125763655.555        2721.144          31.761    23932027.802    93914407.429        2032.083          34.947  
G12  20775063.323   109173684.981        1949.519          46.540  
G15  23683308.587   124456636.368       -3423.504          44.817  
G17  22876364.123   120216126.965       -2343.218          40.873  
G24  20193237.213   106116210.724         -92.445          42.817    20193239.311    79242608.916         -69.026          45.451  
G32  24406992.291   128259754.541        2969.763          35.716    24406997.987                        2218.655          26.807  
R01  21779845.926   116425816.526       -2041.187          27.900  
R02  22884304.126   122114927.349        2228.200          34.560  
R10  19543250.589   104176506.840        -553.340          40.351  
R20  20423400.774   109213002.050        1840.208          31.827  
R21  22955670.020   122840478.699        4647.393          34.425  
> 2019  5 20  8 24 39.0002653  0 23
C12  25275840.000   131617855.361       -2532.853          29.352  
C20  25747901.299   134075987.955         224.815          29.358  
C23  22371564.288   116494637.712        1521.718          35.601  
C25  22219608.185   115703323.118       -1269.922          36.529  
E02                                                                                                                                  27328302.810   107242002.685        1865.142          25.377  
E03                                                                  25549780.155   134265011.204       -1380.598          37.636    25549784.352   100262833.476       -1030.902          36.055  
E05                                                                  27308416.976   143506758.423       -2963.046          31.156    27308431.366   107164110.981       -2212.622          31.180  
E08                                                                  24895556.565                        1196.538          23.583  
E11                                                                  24858985.183   130634936.744        3110.463          33.869    24858972.591                        2322.896          26.766  
E12                                                                  23440196.989   123179043.453        1019.088          28.755    23440197.289    91984357.692         761.024          30.027  
E25                                                                  23143242.966   121618553.041        1030.333          40.743    23143244.165    90819059.014         769.405          41.198  
G02  25036859.843                        3051.148          20.466  
G06  23931522.652   125761091.729        2721.368          31.975    23931539.440    93912492.855        2032.219          34.780  
G12  20774725.157   109171892.894        1949.629          46.894  
G15  23683989.715   124460217.036       -3423.126          44.778  
G17  22876840.793   120218627.619       -2343.112          40.484  
G24  20193283.081   106116460.703         -92.437          42.650    20193287.278    79242795.585         -69.024          45.346  
G32  24406456.562   128256942.197        2969.886          35.336    24406460.159    95776186.4531       2217.772          26.574  
R01  21780253.644   116428018.257       -2041.475          27.988  
R02  22883911.698   122112859.377        2227.948          34.388  
R10  19543389.393   104177219.895        -553.248          40.419  
R20  20423088.090   109211322.488        1839.875          31.608  
R21  22954830.901   122835991.320        4647.804          34.543  
> 2019  5 20  8 24 40.0002653  0 24
C12  25276324.165   131620388.571       -2533.210          29.174  
C20  25747859.628   134075763.818         224.137          29.175  
C23  22371275.588   116493116.401        1521.311          36.099  
C25  22219852.216   115704593.453       -1270.335          36.502  
E02                                                                                                                                  27327826.140   107240137.713        1864.972          25.713  
E03                                                                  25550042.773   134266392.212       -1381.009          37.401    25550047.870   100263864.779       -1031.302          36.125  
E05                                                                  27308980.586   143509721.613       -2963.190          30.875    27308995.276   107166323.775       -2212.794          30.797  
E08                                                                  24895335.618   130826071.6441       1196.237          24.027  
E11                                                                  24858396.390   130631826.527        3110.217          34.033    24858380.201    97549630.5071       2322.552          26.813  
E12                                                                  23440005.122   123178024.990        1018.463          28.643    23440003.323    91983597.138         760.554          30.432  
E25                                                                  23143048.701   121617522.982        1030.059          40.656    23143048.101    90818289.827         769.187          41.224  
G02  25036274.348                        3055.687          21.813  
G06  23931007.308   125758370.849        2720.880          32.495    23931021.998    93910461.021        2031.834          35.316  
G10  25202843.235   132441696.0671      -2025.261          25.939  
G12  20774353.414   109169943.790        1949.104          46.862  
G15  23684642.363   124463640.403       -3423.367          44.861  
G17  22877287.184   120220971.230       -2343.612          40.128  
G24  20193301.668   106116553.753         -93.051          42.721    20193304.666    79242865.075         -69.489          45.304  
G32  24405892.652   128253972.767        2969.430          35.010    24405895.350                        2216.747          26.896  
R01  21780619.691   116430060.484       -2042.227          27.538  
R02  22883485.693   122110632.204        2227.173          33.732  
R10  19543492.222   104177773.664        -553.769          40.453  
R20  20422740.931   109209483.637        1838.851          31.903  
R21  22953956.107   122831343.779        4647.540          34.381  
> 2019  5 20  8 24 41.0002654  0 24
C12  25276841.607   131623078.010       -2533.330          28.888  
C20  25747841.640   134075696.137         223.791          29.426  
C25  22220128.025   115706020.028       -1270.465          36.011  
E02                                                                                                                                  27327382.747   107238390.265        1865.092          25.279  
E03                                                                  25550334.771   134267931.029       -1381.274          36.658    25550340.467   100265013.901       -1031.477          36.553  
E05                                                                  27309575.075   143512842.152       -2962.997          31.067    27309588.865   107168654.059       -2212.639          31.120  
E08                                                                  24895139.254   130825033.142        1196.044          24.788  
E11                                                                  24857833.080   130628873.817        3110.253          33.224    24857818.091    97547425.551        2322.601          26.528  
E12                                                                  23439842.635   123177164.319        1018.213          28.882    23439839.936    91982954.424         760.359          30.441  
E25                                                                  23142879.318   121616650.463        1030.061          40.213    23142882.316    90817638.263         769.209          41.112  
G02  25035726.927                        3052.271          21.518  
G06  23930523.144   125755807.601        2720.790          33.578    23930533.936    93908546.921        2031.745          35.097  
G10  25203259.047   132443878.950       -2025.341          25.946    25203238.361    98902981.9371      -1512.343          33.412  
G12  20774012.251   109168152.416        1948.916          46.635  
G15  23685321.693   124467221.259       -3423.315          45.453  
G17  22877761.156   120223472.590       -2343.818          40.282  
G19  21187387.377                       -1081.936          22.287  
G24  20193349.635   106116804.684         -93.389          42.657    20193352.633    79243052.448         -69.728          45.108  
G32  24405354.225   128251161.073        2969.236          35.223    24405360.820    95771869.4241       2217.305          26.913  
R01  21781014.817                       -2044.685          24.431  
R02  22883083.371   122108565.591        2226.588          33.553  
R10  19543625.630   104178487.481        -554.011          40.655  
R20  20422432.144   109207805.742        1838.207          32.498  
R21  22953110.992   122826856.643        4647.561          32.714  
> 2019  5 20  8 24 42.0002654  0 23
C12  25277326.971   131625611.876       -2533.865          28.592  
C20  25747799.969   134075473.000         223.137          29.917  
C25  22220374.755   115707290.945       -1270.917          35.978  
E02                                                                                                                                  27326905.777   107236525.230        1865.036          25.495  
E03                                                                  25550597.389   134269312.830       -1381.801          36.485    25550603.385   100266045.765       -1031.864          36.723  
E05                                                                  27310139.884   143515805.403       -2963.251          31.681    27310151.875   107170866.860       -2212.800          31.229  
E08                                                                  24894909.313                        1194.849          23.833  
E11                                                                  24857243.388   130625763.788        3110.029          32.480    24857227.799    97545103.197        2322.354          26.591  
E12                                                                  23439649.268   123176146.778        1017.541          28.312    23439645.971    91982194.581         759.843          30.306  
E25                                                                  23142683.853   121615620.729        1029.734          40.051    23142686.551    90816869.329         768.935          41.097  
G02  25035155.223                        3055.903          22.196  
G06  23930008.100   125753087.282        2720.319          34.735    23930017.693    93906515.477        2031.444          34.922  
G10                                                                  25203623.295    98904494.737       -1512.800          33.329  
G12  20773642.906   109166204.040        1948.376          46.677  
G15  23685973.442   124470644.870       -3423.611          45.425  
G17  22878208.146   120225816.948       -2344.358          40.634  
G24  20193366.124   106116898.755         -94.071          42.497    20193370.321    79243122.711         -70.264          45.166  
G32  24404789.716   128248192.334        2968.739          35.067    24404795.112    95769652.495        2216.929          26.619  
R01  21781386.560                       -2046.931          21.950  
R02  22882678.052   122106339.969        2225.622          34.024  
R10  19543724.261   104179042.056        -554.575          40.333  
R20  20422085.584   109205968.567        1837.175          32.668  
R21  22952235.898   122822209.467        4647.176          31.450  
> 2019  5 20  8 24 43.0002655  0 23
C12  25277844.113   131628303.000       -2535.015          28.898  
C20  25747786.778   134075407.330         221.780          30.052  
C25  22220648.165   115708719.068       -1272.014          35.709  
E02                                                                                                                                  27326462.684   107234778.572        1864.302          26.247  
E03                                                                  25550888.788   134270853.463       -1383.091          36.745    25550896.882   100267196.194       -1032.784          36.714  
E05                                                                  27310734.972   143518927.017       -2964.072          31.593    27310745.764   107173197.936       -2213.431          31.175  
E08                                                                  24894715.047   130822801.0001       1194.185          22.576  
E11                                                                  24856683.676   130622812.305        3109.025          32.464    24856665.089    97542899.103        2321.739          26.741  
E12                                                                  23439487.381   123175287.972        1016.348          28.100    23439483.183    91981553.323         758.903          29.962  
E25                                                                  23142520.766   121614749.579        1028.692          40.121    23142520.466    90816218.790         768.184          41.258  
G02  25034602.405                        3052.968          21.750  
G06  23929522.137   125750525.594        2719.230          34.662    23929529.032    93904602.582        2030.540          35.028  
G10                                                                  25204038.807    98906126.074       -1513.692          33.459  
G12  20773302.942   109164414.448        1947.134          46.827  
G15  23686655.769   124474226.990       -3424.578          45.329  
G17  22878684.816   120228320.050       -2345.560          40.295  
G24  20193413.191   106117151.753         -95.456          42.176    20193417.988    79243311.603         -71.246          45.149  
G32  24404257.284   128245382.382        2967.493          35.570    24404261.182    95767554.138        2216.002          26.726  
R01  21781792.779                       -2045.187          20.785  
R02  22882286.822   122104275.819        2224.125          33.253  
R10  19543865.763   104179757.715        -555.853          40.553  
R20  20421771.102   109204293.397        1835.482          32.783  
R21  22951400.676   122817723.591        4646.301          31.550  
> 2019  5 20  8 24 44.0002656  0 23
C12  25278359.456   131630994.141       -2535.030          28.761  
C20  25747770.589   134075341.973         221.467          29.132  
C25  22220922.176   115710147.259       -1272.081          35.180  
E02                                                                                                                                  27326016.892   107233031.681        1864.536          26.038  
E03                                                                  25551182.584   134272394.113       -1383.108          36.268    25551189.779   100268346.726       -1032.886          36.808  
E05                                                                  27311330.359   143522048.403       -2963.844          31.601    27311341.152   107175528.869       -2213.289          31.141  
E08                                                                  24894526.778                        1193.882          23.716  
E11                                                                  24856120.366   130619860.664        3109.183          31.746    24856104.177    97540694.967        2321.781          26.011  
E12                                                                  23439324.293   123174429.492        1016.022          28.481    23439320.096    91980912.188         758.781          30.109  
E25                                                                  23142352.882   121613878.318        1028.803          39.797    23142354.981    90815568.175         768.261          41.254  
G02  25034048.689                        3050.261          22.003  
G06  23929034.974   125747963.974        2719.161          34.998    23929042.768    93902689.659        2030.568          34.941  
G10                                                                  25204455.519    98907757.402       -1513.683          33.479  
G12  20772962.377   109162624.954        1947.036          46.845  
G15  23687338.397   124477808.978       -3424.446          45.417  
G17  22879160.887   120230823.317       -2345.726          40.026  
G24  20193460.558   106117404.930         -95.635          42.008    20193466.254    79243500.676         -71.428          44.988  
G32  24403721.855   128242572.463        2967.461          35.295    24403728.450    95765455.854        2215.930          27.431  
R01  21782257.457                       -2044.990          19.583  
R02  22881892.595   122102212.199        2223.595          32.819  
R10  19543996.173   104180473.528        -556.006          40.646  
R20  20421465.314   109202618.850        1834.860          32.345  
R21  22950574.448   122813237.654        4646.363          30.450  
> 2019  5 20  8 24 45.0002656  0 23
C12  25278845.719   131633529.749       -2535.608          28.727  
C20  25747727.419   134075121.251         220.722          29.301  
C25  22221168.905   115711419.842       -1272.582          35.335  
E02                                                                                                                                  27325540.522   107231167.371        1864.311          25.549  
E03                                                                  25551444.003   134273777.985       -1383.872          36.153    25551452.997   100269380.096       -1033.370          36.866  
E05                                                                  27311893.070   143525012.562       -2964.159          31.533    27311904.762   107177742.378       -2213.509          30.952  
E08                                                                  24894295.638   130820571.1441       1193.352          24.316  
E11                                                                  24855528.875   130616751.890        3108.774          30.939    24855512.387    97538373.504        2321.462          25.762  
E12                                                                  23439132.726   123173414.045        1015.447          28.035    23439125.831    91980153.978         758.210          29.892  
E25                                                                  23142154.720   121612849.962        1028.357          39.359    23142159.217    90814800.235         767.939          41.189  
G02  25033473.087                        3052.298          21.692  
G06  23928519.031   125745245.371        2718.604          35.314    23928523.828    93900659.585        2030.074          35.049  
G10                                                                  25204841.951    98909271.626       -1514.224          33.383  
G12  20772591.534   109160678.596        1946.358          46.900  
G15  23687988.647   124481233.813       -3424.835          45.571  
G17  22879606.978   120233169.622       -2346.305          40.195  
G24  20193479.445   106117501.343         -96.413          42.025    20193484.542    79243572.670         -71.994          45.066  
G32  24403160.643   128239605.681        2966.782          35.167    24403162.742    95763240.384        2215.469          27.242  
R01  21782621.705                       -2044.128          17.413  
R02  22881465.391   122099989.467        2222.732          32.513  
R10  19544102.000   104181030.188        -556.661          40.373  
R20  20421118.754   109200785.087        1833.763          31.932  
R21  22949704.450   122808591.631        4646.023          29.284  
> 2019  5 20  8 24 46.0002657  0 23
C12  25279361.662   131636222.011       -2536.152          28.733  
C20  25747714.528   134075057.383         219.978          28.734  
C25  22221443.815   115712849.151       -1273.199          34.783  
E02                                                                                                                                  27325097.129   107229420.769        1864.247          26.100  
E03                                                                  25551736.001   134275319.984       -1384.457          36.060    25551746.194   100270531.586       -1033.846          36.626  
E05                                                                  27312488.757   143528134.549       -2964.445          31.228    27312498.651   107180073.694       -2213.671          30.868  
E08                                                                  24894093.578   130819535.961        1192.725          23.892  
E11                                                                  24854967.364   130613801.007        3108.425          29.998    24854949.976    97536169.906        2321.243          25.408  
E12                                                                  23438969.039   123172556.942        1014.645          28.079    23438963.044    91979513.908         757.714          29.585  
E25                                                                  23141989.834   121611979.588        1027.916          39.555    23141993.431    90814150.270         767.610          41.212  
G02  25032912.775                        3047.684          22.501  
G06  23928033.667   125742684.877        2718.036          35.732    23928036.965    93898747.525        2029.705          35.174  
G10                                                                  25205257.463    98910903.808       -1514.537          33.766  
G12  20772250.970   109158890.413        1945.725          47.127  
G15  23688671.574   124484816.573       -3425.218          45.400  
G17  22880085.446   120235674.129       -2346.965          39.943  
G24  20193530.410   106117756.051         -97.166          41.819    20193532.808    79243762.867         -72.552          44.992  
G32  24402625.514   128236797.054        2966.169          35.916    24402626.113    95761142.955        2215.074          27.052  
R01  21782984.454                       -2047.151          17.897  
R02  22881075.361   122097927.793        2221.649          31.293  
R10  19544236.307   104181747.350        -557.355          40.377  
R20  20420796.777   109199112.753        1832.646          31.590  
R21  22948853.939   122804106.585        4645.471          27.425  
> 2019  5 20  8 24 47.0002657  0 24
C12  25279851.823   131638758.394       -2536.383          29.127  
C20  25747670.159   134074837.831         219.552          27.572  
C23  22369356.017   116483102.5951       1518.627          36.938  
C25  22221694.441   115714122.466       -1273.315          34.260  
E02                                                                                                                                  27324619.859   107227556.645        1864.124          25.981  
E03                                                                  25551997.720   134276704.703       -1384.719          35.725    25552009.412   100271565.651       -1034.065          36.851  
E05                                                                  27313051.768   143531098.904       -2964.355          31.041    27313062.860   107182287.372       -2213.678          30.683  
E08                                                                  24893862.138                        1192.007          24.022  
E11                                                                  24854376.773   130610692.599        3108.408          29.007    24854357.586    97533848.697        2321.210          25.464  
E12                                                                  23438776.573   123171542.704        1014.238          27.995    23438769.677    91978756.485         757.423          29.535  
E25                                                                  23141793.470   121610951.698        1027.890          39.338    23141797.967    90813382.697         767.573          41.211  
G02  25032337.174                        3050.250          22.583  
G06  23927515.626   125739967.032        2717.845          35.549    23927520.123    93896717.903        2029.622          35.018  
G10                                                                  25205643.296    98912418.563       -1514.755          33.327  
G12  20771878.628   109156944.943        1945.470          47.010  
G15  23689323.023   124488241.782       -3425.209          45.440  
G17  22880530.938   120238021.340       -2347.211          39.904  
G24  20193547.798   106117853.562         -97.511          41.477    20193551.395    79243835.705         -72.839          44.743  
G32  24402062.803   128233831.068        2965.987          36.216    24402061.904                        2214.340          26.530  
R01  21783414.656                       -2044.183          19.560  
R02  22880648.756   122095706.700        2221.094          30.653  
R10  19544343.033   104182305.002        -557.652          39.966  
R20  20420451.116   109197280.848        1831.905          31.321  
R21  22947976.446   122799461.033        4645.552          29.638  
> 2019  5 20  8 24 48.0002658  0 24
C12  25280364.768   131641451.902       -2537.399          27.632  
C20  25747658.467   134074775.712         218.229          26.853  
C23  22369094.898   116481741.065        1517.639          36.192  
C25  22221975.347   115715552.884       -1274.307          32.456  
E02                                                                                                                                  27324173.768   107225810.651        1863.639          24.846  
E03                                                                  25552288.519   134278248.065       -1385.820          35.687    25552302.909   100272718.144       -1034.848          36.317  
E05                                                                  27313652.552   143534221.535       -2965.089          31.577    27313657.648   107184619.197       -2214.179          30.371  
E08                                                                  24893659.778                        1190.361          22.337  
E11                                                                  24853817.960   130607742.558        3107.582          28.687    24853796.375                        2320.409          24.765  
E12                                                                  23438618.582   123170687.119        1013.127          27.022    23438607.190    91978117.558         756.573          29.377  
E25                                                                  23141630.083   121610082.215        1027.025          39.412    23141632.181    90812733.415         766.928          41.292  
G02  25031784.656   131542931.5101       3051.750          23.797  
G06  23927027.264   125737407.710        2716.864          35.945    23927032.360    93894806.705        2028.843          35.287  
G10                                                                  25206058.809    98914051.766       -1515.558          33.414  
G12  20771541.661   109155158.126        1944.360          47.118  
G15  23690005.950   124491825.385       -3426.061          45.558  
G17  22881007.908   120240527.188       -2348.306          40.295  
G24  20193597.264   106118109.840         -98.736          42.248    20193599.962    79244027.086         -73.736          44.844  
G32  24401531.871   128231023.715        2964.894          36.420    24401530.672                        2213.114          26.664  
R01  21783848.456                       -2050.203          20.013  
R02  22880269.519   122093647.103        2219.572          30.484  
R10  19544469.545   104183023.592        -558.784          39.191  
R20  20420143.529   109195610.815        1830.346          31.099  
R21  22947141.824   122794976.735        4644.723          28.940  
> 2019  5 20  8 24 49.0002659  0 24
C12  25280879.212   131644146.525       -2538.513          25.875  
C20  25747646.175   134074714.834         216.988          26.080  
C23  22368831.080   116480380.629        1516.546          36.434  
C25  22222244.860   115716984.445       -1275.452          31.852  
E02                                                                                                                                  27323730.975   107224065.380        1862.916          24.419  
E03                                                                  25552581.416   134279792.712       -1387.105          35.667    25552597.905   100273871.630       -1035.841          36.279  
E05                                                                  27314247.340   143537345.121       -2966.045          31.798    27314251.237   107186951.734       -2214.892          30.558  
E08                                                                  24893464.313                        1189.525          24.798  
E11                                                                  24853254.650   130604793.612        3106.489          27.236    24853234.864                        2319.427          24.947  
E12                                                                  23438454.596   123169832.866        1011.795          27.173    23438445.902    91977479.680         755.523          29.435  
E25                                                                  23141463.698   121609213.851        1025.907          38.794    23141466.996    90812084.956         766.103          41.270  
G02  25031234.537                        3050.679          21.892  
G06  23926546.397   125734849.600        2715.652          36.703    23926547.296    93892896.526        2027.824          35.457  
G10                                                                  25206476.719    98915685.842       -1516.431          33.673  
G12  20771199.898   109153372.585        1943.083          46.995  
G15  23690687.978   124495409.990       -3427.063          45.585  
G17  22881487.876   120243034.313       -2349.583          41.014  
G24  20193645.530   106118367.551        -100.170          41.917    20193648.828    79244219.529         -74.798          44.746  
G32  24401001.838   128228217.556        2963.701          36.816    24400993.744    95754736.3271       2213.092          26.097  
R01  21784284.953                       -2051.748          22.948  
R02  22879884.286   122091589.094        2217.984          30.981  
R10  19544602.054   104183743.504        -560.106          39.387  
R20  20419828.147   109193942.572        1828.556          30.540  
R21  22946309.600   122790493.577        4643.583          28.599  
> 2019  5 20  8 24 50.0002659  0 26
C12  25281368.473   131646685.436       -2538.911          26.259  
C20  25747604.205   134074498.538         216.297          26.168  
C23  22368539.083   116478864.355        1516.274          35.674  
C25  22222499.084   115718260.300       -1275.855          32.342  
E02                                                                                                                                  27323256.403   107222202.366        1863.014          24.477  
E03                                                                  25552848.531   134281180.317       -1387.605          35.596    25552860.223   100274907.786       -1036.155          36.191  
E05                                                                  27314809.151   143540311.170       -2966.049          31.625    27314816.646   107189166.659       -2214.925          30.338  
E08                                                                  24893239.169                        1188.892          23.874  
E11                                                                                                                                  24852646.971    97527123.9091       2319.754          25.671  
E12                                                                  23438254.934   123168821.509        1011.358          26.772    23438252.535    91976724.506         755.173          29.277  
E25                                                                  23141268.233   121608188.119        1025.732          38.926    23141271.831    90811318.991         765.965          41.383  
G02  25030639.149                        3052.803          20.304  
G06  23926027.756   125732134.285        2715.315          36.774    23926029.255    93890868.834        2027.692          35.317  
G10                                                                  25206864.051    98917202.571       -1516.729          33.677  
G12  20770831.153   109151429.944        1942.641          46.930  
G15  23691341.226   124498837.233       -3427.243          45.790  
G17  22881934.267   120245384.343       -2350.030          41.326  
G24  20193661.419   106118468.271        -100.720          42.015    20193668.314    79244294.753         -75.224          44.736  
G32  24400439.127   128225254.360        2963.196          37.202    24400430.434    95752523.466        2212.861          26.225  
R01  21784666.589                       -2053.338          23.122  
R02  22879472.371   122089372.001        2217.093          31.482  
R09  21988441.519   117417050.4131      -2870.611          33.551  
R10  19544715.075   104184304.106        -560.602          39.659  
R11  21027808.751   112366234.3331       2724.656          32.152  
R20  20419494.178   109192114.953        1827.619          30.723  
R21  22945446.198   122785850.092        4643.485          27.568  
> 2019  5 20  8 24 51.0002660  0 26
C12  25281882.917                       -2539.648          25.615  
C20  25747599.408   134074438.950         215.697          26.722  
C23  22368275.865   116477504.706        1515.759          34.849  
C25  22222771.296   115719692.698       -1276.288          33.317  
E02                                                                                                                                  27322813.010   107220457.287        1862.724          24.839  
E03                                                                  25553140.829   134282725.931       -1388.072          36.241    25553155.519   100276061.981       -1036.551          36.186  
E05                                                                  27315403.640   143543435.028       -2966.316          32.032    27315410.835   107191499.351       -2215.047          30.100  
E08                                                                  24893044.904   130814056.7871       1188.862          23.170  
E11                                                                                                                                  24852083.960    97524922.120        2319.434          24.915  
E12                                                                  23438095.444   123167968.428        1010.623          27.215    23438091.247    91976087.434         754.718          28.912  
E25                                                                  23141102.148   121607320.303        1025.357          39.156    23141106.945    90810670.943         765.694          41.429  
G02  25030074.040                        3051.608          20.791  
G06  23925541.492   125729576.992        2714.835          37.001    23925542.991    93888959.121        2027.358          35.517  
G10                                                                  25207279.264    98918837.335       -1517.119          33.245  
G12  20770490.289   109149645.397        1942.089          46.860  
G15  23692022.654   124502422.317       -3427.543          45.453  
G17  22882410.637   120247892.438       -2350.554          40.773  
G24  20193715.981   106118727.190        -101.376          42.168    20193717.480    79244488.082         -75.684          44.733  
G32  24399906.696   128222449.196        2962.705          37.149    24399898.302    95750428.751        2212.361          26.661  
R01  21785080.902                       -2051.318          21.594  
R02  22879089.836   122087315.736        2216.239          30.944  
R09  21989005.428   117420081.437       -2870.937          32.813  
R10  19544849.083   104185025.078        -561.165          39.169  
R11  21027337.177   112363670.329        2724.203          32.873  
R20  20419183.893   109190448.631        1826.635          30.547  
R21  22944599.584   122781367.403        4643.114          29.014  
> 2019  5 20  8 24 52.0002660  0 26
C12  25282372.178   131651919.5991      -2538.635          25.823  
C20  25747558.636   134074222.817         216.133          26.947  
C23  22367983.567   116475988.076        1516.630          33.988  
C25  22223018.924   115720968.242       -1275.544          33.222  
E02                                                                                                                                  27322334.841   107218593.770        1863.517          24.657  
E03                                                                  25553404.346   134284113.362       -1387.431          35.897    25553418.437   100277098.107       -1036.125          36.237  
E05                                                                  27315970.547   143546400.303       -2965.275          32.222    27315974.444   107193713.706       -2214.354          30.129  
E08                                                                  24892818.560   130812867.309        1189.478          22.361  
E11                                                                                                                                  24851494.269    97522601.863        2320.258          24.482  
E12                                                                  23437901.778   123166957.196        1011.232          27.035    23437897.281                         755.574          28.937  
E25                                                                  23140908.183   121606294.075        1026.229          39.080    23140912.080    90809904.597         766.345          41.493  
G02  25029493.342                        3047.631          19.422  
G06  23925025.250   125726861.408        2715.584          37.285    23925026.449    93886931.310        2027.811          35.519  
G10                                                                  25207667.195    98920353.840       -1516.505          33.697  
G12  20770120.645   109147702.650        1942.747          46.619  
G15  23692672.904   124505848.959       -3426.641          45.027  
G17  22882859.126   120250242.355       -2349.916          40.701  
G24  20193734.269   106118828.029        -100.840          41.903    20193736.967    79244563.382         -75.300          44.819  
G32  24399343.686   128219485.791        2963.405          37.100    24399332.294    95748215.709        2213.041          26.197  
R01  21785433.158                       -2050.970          20.950  
R02  22878671.026   122085099.231        2216.505          30.403  
R09  21989538.160   117422951.505       -2870.068          32.450  
R10  19544957.607   104185585.654        -560.576          39.773  
R11  21026823.033   112360945.240        2725.090          32.360  
R20  20418842.729   109188621.789        1826.841          30.601  
R21  22943745.176   122776723.433        4643.971          30.259  
> 2019  5 20  8 24 53.0002661  0 25
C12  25282884.523   131654613.609       -2537.900          25.162  
C20  25747550.841   134074162.186         216.741          27.125  
C23  22367718.551   116474626.761        1517.425          33.857  
C25  22223292.635   115722399.099       -1274.748          33.840  
E02                                                                                                                                  27321892.348   107216847.026        1864.388          24.196  
E03                                                                  25553697.244   134285657.722       -1386.817          35.724    25553712.833   100278251.306       -1035.554          35.992  
E05                                                                  27316565.335   143549522.085       -2964.240          32.346    27316568.933   107196044.891       -2213.540          30.067  
E08                                                                  24892623.695                        1190.205          21.346  
E11                                                                                                                                  24850933.057    97520398.622        2320.886          24.509  
E12                                                                  23437736.892   123166102.954        1011.784          26.983    23437735.993    91974694.2491        755.683          29.204  
E25                                                                  23140741.498   121605424.442        1027.175          38.783    23140746.295    90809255.217         767.025          41.399  
G06  23924540.485   125724302.573        2716.377          37.434    23924539.886    93885020.522        2028.434          35.559  
G10  25208093.200   132469329.8171      -2030.082          24.536    25208083.007    98921987.523       -1516.038          33.486  
G12  20769779.781   109145916.747        1943.445          46.435  
G15  23693350.435   124509432.151       -3425.651          44.760  
G17  22883333.998   120252749.082       -2349.185          40.538  
G24  20193777.139   106119085.868        -100.297          41.339    20193785.833    79244755.915         -74.888          44.829  
G32  24398807.357   128216679.188        2964.145          37.350    24398797.764    95746119.965        2213.389          26.437  
R01  21785853.767                       -2053.859          21.510  
R02  22878291.788   122083042.185        2217.020          30.421  
R09  21990094.275   117425980.799       -2869.207          32.063  
R10  19545102.107   104186305.342        -559.882          39.939  
R11  21026345.464   112358379.484        2725.955          32.773  
R20  20418525.249   109186955.047        1827.055          30.582  
R21  22942900.660   122772238.867        4644.991          30.481  
> 2019  5 20  8 24 54.0002662  0 25
C12  25283399.267   131657307.258       -2537.540          24.724  
C20  25747541.248   134074101.478         216.818          27.688  
C23  22367461.029   116473265.057        1517.814          33.956  
C25  22223564.846   115723829.623       -1274.414          34.024  
E02                                                                                                                                  27321444.158   107215099.901        1864.770          23.539  
E03                                                                  25553991.340   134287201.731       -1386.467          35.031    25554006.030   100279404.328       -1035.377          36.363  
E05                                                                  27317153.828   143552643.223       -2963.595          32.060    27317162.822   107198375.622       -2213.087          30.362  
E08                                                                  24892421.335   130810801.9431       1190.246          21.869  
E11                                                                                                                                  24850369.447                        2322.180          23.590  
E12                                                                  23437565.111   123165248.371        1012.125          27.381    23437571.707    91974056.163         755.731          29.090  
E25                                                                  23140575.413   121604554.377        1027.607          38.931    23140580.809    90808605.473         767.389          41.537  
G06  23924054.821   125721743.397        2716.718          37.365    23924052.423    93883109.362        2028.804          35.586  
G10  25208509.012                       -2029.885          24.285    25208498.520    98923620.871       -1515.703          33.444  
G12  20769436.818   109144130.550        1943.739          46.508  
G15  23694033.662   124513014.830       -3425.137          44.951  
G17  22883812.766   120255255.570       -2348.947          40.511  
G24  20193828.703   106119343.545        -100.135          40.963    20193834.999    79244948.323         -74.763          44.810  
G32  24398280.622   128213872.318        2964.411          37.522    24398263.534    95744023.906        2213.704          26.246  
R01  21786256.688                       -2052.340          22.060  
R02  22877913.750   122080985.286        2216.875          30.865  
R09  21990666.878   117429009.575       -2868.688          32.521  
R10  19545236.714   104187024.764        -559.615          39.769  
R11  21025866.396   112355813.242        2726.442          32.040  
R20  20418214.065   109185288.503        1826.856          31.420  
R21  22942069.935   122767753.806        4645.486          29.073  
> 2019  5 20  8 24 55.0002662  0 25
C12  25283892.126   131659845.819       -2538.561          25.047  
C20  25747505.573   134073885.779         215.699          27.144  
C23  22367165.134   116471748.180        1516.877          34.369  
C25  22223815.173   115725104.970       -1275.347          34.481  
E02                                                                                                                                  27320969.886   107213235.619        1864.283          23.171  
E03                                                                  25554252.759   134288589.331       -1387.600          35.063    25554269.847   100280440.458       -1036.130          36.547  
E05                                                                  27317720.735   143555607.551       -2964.328          32.244    27317727.331   107200589.211       -2213.588          30.088  
E08                                                                  24892192.594   130809612.668        1189.275          21.896  
E11                                                                  24849798.043                        3106.457          22.150    24849774.359    97515874.2581       2320.588          22.393  
E12                                                                  23437374.743   123164237.597        1010.774          27.554    23437379.540    91973301.243         754.920          28.667  
E25                                                                  23140380.248   121603527.612        1026.765          38.845    23140385.644    90807838.719         766.755          41.456  
G06  23923540.977   125719027.659        2715.738          37.763    23923535.881    93881081.433        2027.929          35.473  
G10  25208892.747                       -2029.540          24.936    25208884.353    98925137.384       -1516.512          33.268  
G12  20769066.874   109142187.924        1942.626          46.543  
G15  23694686.010   124516440.778       -3425.949          44.411  
G17  22884257.658   120257605.535       -2349.965          40.316  
G24  20193843.093   106119444.906        -101.361          40.215    20193854.186    79245024.005         -75.682          44.752  
G32  24397717.012   128210908.920        2963.399          37.665    24397700.823    95741810.972        2212.934          26.054  
R01  21786623.335                       -2051.915          23.139  
R02  22877492.841   122078769.688        2215.598          31.348  
R09  21991203.507   117431879.226       -2869.651          33.252  
R10  19545349.736   104187585.553        -560.790          40.106  
R11  21025349.853   112353087.658        2725.584          30.520  
R20  20417874.400   109183463.156        1825.347          31.451  
R21  22941194.841   122763109.153        4644.654          29.599  
> 2019  5 20  8 24 56.0002663  0 25
C12  25284414.064   131662541.952       -2540.023          25.066  
C20  25747494.480   134073827.949         213.939          27.737  
C23  22366904.314   116470388.832        1515.458          34.042  
C25  22224087.684   115726537.892       -1276.812          34.019  
E02                                                                                                                                  27320525.294   107211489.762        1863.502          23.043  
E03                                                                  25554546.855   134290136.000       -1389.127          34.564    25554564.543   100281595.439       -1037.336          36.218  
E05                                                                  27318314.325   143558730.615       -2965.523          32.384    27318320.320   107202921.390       -2214.535          30.233  
E08                                                                  24891996.529                        1187.008          21.309  
E11                                                                  24849238.930                        3105.748          21.797    24849217.345    97513672.099        2319.804          23.610  
E12                                                                  23437212.256   123163385.751        1009.388          27.767    23437217.052    91972665.201         753.687          28.638  
E25                                                                  23140212.964   121602659.704        1025.450          38.296    23140220.759    90807190.617         765.746          41.530  
G06  23923052.316   125716470.972        2714.229          38.048    23923049.318    93879172.197        2026.881          35.478  
G10  25209316.054   132475737.7161      -2032.327          24.951    25209301.364    98926772.653       -1517.624          33.373  
G12  20768728.708   109140404.323        1941.143          46.385  
G15  23695366.839   124520025.525       -3427.204          44.566  
G17  22884736.127   120260114.578       -2351.501          40.239  
G24  20193894.058   106119705.451        -103.003          40.005    20193903.651    79245218.565         -76.915          44.790  
G32  24397185.180   128208104.600        2961.861          38.154    24397167.193    95739716.852        2211.765          26.550  
R01  21787042.744                       -2053.958          24.736  
R02  22877113.904   122076716.007        2213.655          31.590  
R09  21991768.615   117434910.279       -2870.965          31.852  
R10  19545483.443   104188307.710        -562.350          40.123  
R11  21024864.489   112350523.615        2724.244          29.059  
R20  20417566.513   109181800.224        1823.245          31.560  
R21  22940359.919   122758626.192        4643.386          28.453  
> 2019  5 20  8 24 57.0002663  0 26
C12  25284897.630                       -2541.198          24.343  
C20  25747457.006   134073615.059         212.890          27.988  
C23  22366614.715   116468874.211        1514.621          34.427  
C25  22224332.015   115727815.692       -1277.800          34.537  
E02                                                                                                                                  27320049.823   107209626.928        1862.834          23.088  
E03                                                                  25554816.968   134291526.142       -1390.141          33.768    25554829.260   100282633.546       -1038.107          36.031  
E05                                                                  27318882.431   143561696.798       -2966.183          32.460    27318884.530   107205136.402       -2215.011          30.263  
E08                                                                  24891760.293   130807082.9721       1186.595          20.917  
E11                                                                                                                                  24848623.156    97511353.013        2319.086          22.908  
E12                                                                  23437017.390   123162377.601        1008.150          27.697    23437025.485    91971912.364         752.837          28.759  
E25                                                                  23140018.998   121601635.074        1024.630          38.133    23140025.893    90806425.494         765.123          41.373  
G02  25026687.885                        3055.451          21.157  
G06  23922535.773   125713757.651        2713.320          37.844    23922533.075    93877146.026        2026.171          35.196  
G10  25209697.390                       -2033.101          24.001    25209688.396    98928291.036       -1518.384          32.879  
G12  20768356.666   109138464.297        1940.026          46.174  
G15  23696016.789   124523453.575       -3428.051          44.380  
G17  22885184.916   120262467.152       -2352.574          40.075  
G24  20193916.243   106119809.610        -104.159          40.145    20193923.738    79245296.368         -77.803          44.649  
G32  24396625.168   128205143.726        2960.875          38.405    24396604.482    95737505.753        2211.099          26.408  
R01  21787417.785                       -2058.231          25.445  
R02  22876706.486   122074503.741        2212.266          31.782  
R09  21992310.340   117437782.175       -2871.896          31.601  
R10  19545577.278   104188871.166        -563.456          40.145  
R11  21024351.844   112347800.371        2723.244          28.125  
R20  20417234.343   109179978.459        1821.765          31.898  
R21  22939500.714   122753983.503        4642.689          27.746  
> 2019  5 20  8 24 58.0002664  0 26
C12  25285415.671                       -2541.839          24.969  
C20  25747446.813   134073559.390         211.779          28.494  
C23  22366353.296   116467516.473        1513.848          34.054  
C25  22224613.820   115729250.278       -1278.476          33.917  
E02                                                                                                                                  27319606.130   107207881.954        1862.619          22.669  
E03                                                                  25555099.972   134293074.684       -1391.001          33.914    25555123.356   100283789.898       -1038.707          36.163  
E05                                                                  27319476.020   143564821.032       -2966.692          32.573    27319480.217   107207469.369       -2215.323          30.199  
E08                                                                  24891571.124                        1184.766          21.937  
E11                                                                                                                                  24848061.045                        2316.264          22.027  
E12                                                                  23436857.002   123161527.933        1007.211          27.226    23436863.897    91971277.888         752.121          28.848  
E25                                                                  23139854.112   121600768.620        1023.996          38.065    23139861.008    90805778.459         764.680          41.694  
G02  25026135.367                        3049.220          21.391  
G06  23922049.810   125711202.618        2712.576          38.126    23922046.812    93875238.048        2025.624          35.274  
G10  25210116.799                       -2031.995          22.890    25210105.107    98929927.543       -1518.862          33.060  
G12  20768019.399   109136682.598        1939.241          45.959  
G15  23696699.716   124527039.670       -3428.552          44.376  
G17  22885661.886   120264978.083       -2353.389          39.896  
G24  20193963.310   106120072.272        -105.121          39.678    20193973.803    79245492.478         -78.465          44.755  
G32  24396094.535   128202341.234        2960.034          38.774    24396068.153    95735412.986        2210.412          25.957  
R01  21787832.697   116468478.0981      -2057.925          26.109  
R02  22876326.049   122072452.705        2211.011          32.625  
R09  21992875.749   117440814.860       -2872.598          31.413  
R10  19545724.477   104189595.312        -564.340          40.409  
R11  21023873.076   112345237.968        2722.603          27.129  
R20  20416911.466   109178318.337        1820.435          31.998  
R21  22938646.306   122749502.036        4641.892          28.375  
> 2019  5 20  8 24 59.0002665  0 25
C12  25285941.507   131670479.2851      -2542.514          26.364  
C20  25747435.421   134073504.570         210.929          28.794  
C23  22366095.774   116466159.307        1513.276          35.283  
C25  22224885.432   115730685.590       -1279.203          34.392  
E02                                                                                                                                  27319160.039   107206137.454        1862.145          23.057  
E03                                                                  25555399.465   134294624.129       -1391.902          33.636    25555417.752   100284946.955       -1039.413          35.696  
E05                                                                  27320070.809   143567945.728       -2967.155          32.669    27320075.905   107209802.813       -2215.799          30.887  
E11                                                                                                                                  24847501.033                        2317.239          22.317  
E12                                                                  23436695.413   123160679.083        1006.392          26.996    23436703.208    91970643.958         751.575          28.279  
E25                                                                  23139686.828   121599902.829        1023.333          37.876    23139695.822    90805131.904         764.200          41.553  
G02  25025585.248                        3048.692          20.958  
G06  23921562.347   125708648.376        2711.783          38.027    23921560.248    93873330.677        2025.015          34.905  
G10  25210536.509                       -2039.092          22.560    25210522.119    98931564.695       -1519.506          33.257  
G12  20767679.734   109134901.753        1938.387          45.836  
G15  23697380.545   124530626.407       -3429.195          43.808  
G17  22886135.858   120267489.836       -2354.211          40.115  
G24  20194012.776   106120335.886        -106.071          39.569    20194023.568    79245689.363         -79.240          44.501  
G32  24395561.504   128199539.543        2959.232          38.505    24395537.221                        2209.336          25.590  
R01  21788250.008   116470697.506       -2059.152          26.992  
R02  22875939.617   122070402.872        2209.808          33.441  
R09  21993427.067   117443848.163       -2873.215          31.333  
R10  19545860.882   104190320.310        -565.191          40.407  
R11  21023396.705   112342676.250        2721.918          28.664  
R20  20416608.676   109176659.538        1819.112          32.294  
R21  22937800.591   122745021.184        4641.277          29.186  
> 2019  5 20  8 25  0.0002665  0 25
C12  25286430.169   131673022.122       -2542.837          26.676  
C20  25747398.547   134073294.292         210.279          28.476  
C23  22365802.877   116464646.477        1512.830          33.142  
C25  22225131.262   115731965.255       -1279.665          34.029  
E02                                                                                                                                  27318685.767   107204275.299        1862.154          22.268  
E03                                                                  25555662.983   134296016.418       -1392.289          33.895    25555683.968   100285986.668       -1039.713          36.239  
E05                                                                  27320635.018   143570912.965       -2967.237          33.218    27320639.215   107212018.602       -2215.789          30.529  
E11                                                                                                                                  24846911.941                        2318.145          21.706  
E12                                                                  23436502.347   123159673.318        1005.765          26.969    23436510.741    91969892.895         751.063          28.179  
E25                                                                  23139492.862   121598879.731        1023.098          37.942    23139501.556    90804367.908         763.996          41.930  
G02  25025006.049                        3050.457          21.536  
G06  23921046.104   125705936.990        2711.387          37.838    23921044.306    93871305.986        2024.692          35.496  
G10                                                                  25210910.350    98933084.509       -1519.815          32.766  
G12  20767311.889   109132963.825        1937.928          45.634  
G15  23698031.394   124534055.759       -3429.352          42.835  
G17  22886584.048   120269844.540       -2354.704          39.716  
G24  20194034.661   106120442.553        -106.667          38.969    20194043.954    79245769.040         -79.677          44.503  
G32  24394993.997   128196580.749        2958.795          38.385    24394972.712    95731111.3151       2209.591          26.104  
R01  21788646.634   116472757.563       -2060.057          25.808  
R02  22875531.899   122068193.908        2208.964          32.890  
R09  21993971.191   117446721.641       -2873.478          30.699  
R10  19545961.612   104190886.027        -565.718          40.542  
R11  21022892.155   112339954.510        2721.740          27.465  
R20  20416266.913   109174841.332        1818.205          32.209  
R21  22936932.992   122740380.130        4641.054          29.552  
> 2019  5 20  8 25  1.0002666  0 25
C12  25286944.613   131675721.696       -2543.463          26.016  
C20  25747388.054   134073240.851         209.551          28.069  
C23  22365544.756   116463290.204        1512.382          34.288  
C25  22225403.773   115733401.482       -1280.117          34.107  
E02                                                                                                                                  27318240.576   107202531.041        1861.903          22.059  
E03                                                                  25555959.777   134297566.841       -1392.881          33.709    25555977.765   100287144.487       -1040.174          36.236  
E05                                                                  27321229.207   143574038.031       -2967.524          33.173    27321233.404   107214352.286       -2216.039          30.621  
E11                                                                                                                                  24846351.629    97502432.8211       2317.825          21.705  
E12                                                                  23436344.356   123158825.768        1005.091          27.504    23436351.252    91969260.018         750.522          28.365  
E25                                                                  23139325.878   121598014.567        1022.706          37.703    23139337.270    90803721.854         763.699          42.042  
G02  25024461.026                        3051.973          20.847  
G06  23920558.042   125703383.677        2710.855          37.969    23920557.742    93869399.251        2024.379          35.232  
G10  25211342.950                       -2037.219          22.033    25211327.061    98934722.426       -1520.272          32.676  
G12  20766974.623   109131184.107        1937.260          45.775  
G15  23698713.722   124537643.037       -3429.736          43.376  
G17  22887066.414   120272357.374       -2355.293          40.204  
G24  20194082.628   106120707.540        -107.445          38.726    20194094.619    79245966.914         -80.229          44.351  
G32  24394458.868   128193780.101        2958.190          38.027    24394440.280                        2208.736          25.870  
R01  21789052.853                       -2062.725          25.291  
R02  22875146.366   122066145.756        2208.127          33.022  
R09  21994546.193   117449755.637       -2873.908          29.559  
R10  19546095.320   104191612.205        -566.372          40.042  
R11  21022419.981   112337393.552        2721.158          27.733  
R20  20415963.223   109173184.540        1817.105          32.253  
R21  22936117.256   122735899.876        4640.679          30.528  
> 2019  5 20  8 25  2.0002666  0 26
C12  25287437.172                       -2544.477          26.125  
C13  38879437.825                        1626.930          22.955  
C20  25747352.978   134073032.143         208.708          27.615  
C23  22365261.452   116461778.416        1511.788          36.501  
C25  22225643.008   115734682.188       -1280.706          34.296  
E02                                                                                                                                  27317766.304   107200669.307        1861.734          22.579  
E03                                                                  25556225.993   134298960.478       -1393.637          33.240    25556243.381   100288185.171       -1040.685          35.714  
E05                                                                  27321794.615   143577005.917       -2967.886          33.128    27321799.412   107216568.523       -2216.236          30.251  
E11                                                                                                                                  24845758.639    97500115.220        2317.601          22.848  
E12                                                                  23436150.990   123157821.389        1004.380          27.120    23436157.886    91968509.960         750.058          28.009  
E25                                                                  23139130.713   121596992.331        1022.236          36.536    23139142.705    90802958.484         763.371          41.805  
G02  25023882.726                        3045.287          19.559  
G06  23920040.900   125700673.371        2710.306          37.452    23920041.500    93867375.309        2023.942          34.602  
G10  25211726.685                       -2039.861          19.363    25211713.794    98936243.088       -1520.662          32.963  
G12  20766605.578   109129247.479        1936.628          46.237  
G15  23699366.670   124541073.193       -3430.157          43.384  
G17  22887512.505   120274713.333       -2355.958          39.587  
G24  20194104.213   106120815.743        -108.204          38.425    20194115.005    79246047.716         -80.802          44.519  
G32  24393898.855   128190822.575        2957.526          36.958    24393877.270    95726811.3271       2208.630          25.900  
R01  21789426.394                       -2062.803          25.405  
R02  22874738.348   122063938.699        2207.057          32.982  
R09  21995080.123   117452630.126       -2874.489          29.583  
R10  19546203.245   104192179.247        -567.042          39.779  
R11  21021897.743   112334672.843        2720.709          28.349  
R20  20415623.558   109171368.659        1815.881          32.095  
R21  22935257.452   122731259.576        4640.300          30.825  
> 2019  5 20  8 25  3.0002667  0 26
C12  25287961.808   131680966.1401      -2544.374          27.253  
C13  38879159.618                        1626.668          23.092  
C20  25747342.186   134072980.133         208.119          27.239  
C23  22365001.232   116460423.061        1511.464          36.777  
C25  22225923.913   115736119.405       -1281.107          33.668  
E02                                                                                                                                  27317322.611   107198925.383        1861.568          21.907  
E03                                                                  25556518.890   134300512.188       -1394.168          32.952    25556537.477   100289343.889       -1041.073          35.423  
E05                                                                  27322391.502   143580131.463       -2968.003          33.022    27322393.001   107218902.585       -2216.417          30.515  
E11                                                                                                                                  24845199.226    97497915.505        2317.359          22.520  
E12                                                                  23435988.203   123156975.177        1003.754          25.954    23435998.996    91967878.078         749.527          27.751  
E25                                                                  23138967.026   121596127.928        1021.945          36.920    23138977.819    90802313.014         763.115          41.961  
G02  25023339.503                        3045.473          19.258  
G06  23919556.735   125698121.086        2709.827          37.415    23919555.836    93865469.386        2023.569          34.741  
G10  25212139.199                       -2043.734          19.210    25212132.304    98937881.772       -1521.038          33.005  
G12  20766267.412   109127468.944        1936.077          46.364  
G15  23700048.398   124544661.144       -3430.409          42.378  
G17  22887990.074   120277227.329       -2356.454          39.502  
G24  20194156.077   106121082.174        -108.888          39.080    20194165.670    79246246.679         -81.318          44.464  
G32  24393370.921   128188023.020        2957.096          37.042    24393344.239    95724720.818        2208.155          25.093  
R01  21789831.414                       -2060.768          24.386  
R02  22874340.224   122061892.433        2206.242          32.789  
R09  21995650.028   117455665.006       -2874.792          29.849  
R10  19546333.955   104192906.675        -567.621          39.387  
R11  21021405.784   112332112.643        2720.400          27.062  
R20  20415315.971   109169714.013        1814.959          31.703  
R21  22934406.341   122726780.005        4639.997          29.672  
> 2019  5 20  8 25  4.0002668  0 26
C12  25288484.347   131683667.300       -2545.049          27.521  
C13  38878880.511                        1624.526          23.706  
C20  25747330.194                         207.635          25.198  
C23  22364742.511   116459068.202        1510.969          37.077  
C25  22226202.720   115737557.157       -1281.643          33.206  
E03                                                                  25556815.085   134302064.445       -1394.715          32.197    25556833.073   100290503.042       -1041.508          35.391  
E05                                                                  27322986.590   143583257.265       -2968.260          33.319    27322988.089   107221236.732       -2216.502          30.764  
E11                                                                                                                                  24844636.516                        2321.382          22.734  
E12                                                                  23435830.812   123156129.647        1003.072          25.916    23435835.908    91967246.650         749.073          27.508  
E25                                                                  23138803.640   121595263.917        1021.553          36.844    23138813.233    90801667.799         762.860          41.901  
G02  25022789.084                        3051.541          20.110  
G06  23919068.973   125695569.291        2709.338          37.241    23919070.172    93863563.866        2023.165          34.818  
G10  25212566.403                       -2040.320          17.468    25212550.514    98939520.821       -1521.404          32.864  
G12  20765928.947   109125690.967        1935.519          46.303  
G15  23700728.927   124548249.431       -3430.745          41.972  
G17  22888469.742   120279741.932       -2357.061          39.621  
G19  21192496.440   111367319.9331      -1101.824          26.880  
G24  20194204.943   106121349.253        -109.538          39.053    20194216.635    79246446.126         -81.803          44.441  
G32  24392835.491   128185224.092        2956.471          36.477    24392810.908                        2207.607          24.984  
R01  21790250.823                       -2063.351          23.221  
R02  22873967.582   122059847.082        2205.325          32.877  
R09  21996212.739   117458700.232       -2875.138          29.794  
R10  19546471.859   104193634.698        -568.217          38.899  
R11  21020921.619   112329552.939        2719.904          27.285  
R20  20415003.587   109168060.449        1813.877          31.283  
R21  22933567.821   122722300.819        4639.611          29.379  
> 2019  5 20  8 25  5.0002668  0 25
C12  25288971.210   131686212.793       -2545.493          27.707  
C13  38878568.127   202450779.7311       1625.261          24.508  
C20  25747283.726                         205.738          23.231  
C23  22364454.111   116457557.700        1510.502          37.117  
C25  22226443.453   115738839.343       -1282.186          32.721  
E03                                                                  25557080.401   134303459.849       -1395.404          32.192    25557098.989   100291545.062       -1042.021          35.193  
E05                                                                  27323552.898   143586225.807       -2968.541          33.310    27323553.797   107223453.511       -2216.779          30.178  
E11                                                                                                                                  24844047.424                        2318.190          22.104  
E12                                                                  23435640.444   123155127.231        1002.416          25.848    23435646.739    91966498.169         748.481          27.540  
E25                                                                  23138607.276   121594242.848        1021.069          36.467    23138618.967    90800905.307         762.491          41.990  
G06  23918551.831   125692860.545        2708.746          37.590    23918554.829    93861541.094        2022.772          34.721  
G10                                                                  25212937.846    98941042.746       -1521.926          33.194  
G12  20765560.801   109123756.132        1934.835          46.417  
G15  23701384.873   124551680.582       -3431.150          42.152  
G17  22888918.232   120282099.630       -2357.698          39.544  
G19  21192711.991   111368422.668       -1102.735          28.593  
G24  20194226.228   106121459.615        -110.361          39.051    20194237.620    79246528.530         -82.404          44.456  
G32  24392267.984   128182268.265        2955.826          35.634    24392250.896    95720423.4631       2207.265          25.430  
R01  21790639.954                       -2068.471          21.699  
R02  22873551.470   122057642.859        2204.223          31.850  
R09  21996757.761   117461575.873       -2875.642          29.554  
R10  19546577.086   104194203.627        -568.929          38.801  
R11  21020414.670   112326833.447        2719.492          28.355  
R20  20414665.421   109166247.719        1812.729          31.217  
R21  22932708.616   122717661.603        4639.216          30.112  
> 2019  5 20  8 25  6.0002669  0 26
C12  25289488.951   131688915.037       -2546.134          28.037  
C13  38878278.828                        1625.266          23.569  
C20  25747272.634                         206.610          22.122  
C23  22364193.591   116456203.919        1509.891          36.132  
C25  22226720.761   115740278.292       -1282.840          31.861  
E03                                                                  25557376.297   134305013.486       -1396.094          31.873    25557394.584   100292705.227       -1042.520          35.396  
E05                                                                  27324145.588   143589352.282       -2968.933          33.046    27324149.185   107225788.187       -2217.031          30.559  
E11                                                                                                                                  24843489.510                        2316.279          22.117  
E12                                                                  23435481.254                        1001.042          26.555    23435484.252                         747.932          27.298  
E25                                                                  23138447.486   121593379.809        1020.580          36.900    23138454.981    90800260.795         762.158          41.990  
G02  25021673.556                        3051.166          20.475  
G06  23918067.966   125690309.968        2708.119          37.482    23918069.465    93859636.390        2022.349          34.811  
G10                                                                  25213355.157    98942682.759       -1522.368          33.006  
G12  20765223.235   109121979.561        1934.113          46.546  
G15  23702068.100   124555269.687       -3431.563          42.465  
G17  22889397.900   120284615.595       -2358.423          39.880  
G19  21192953.624   111369683.922       -1103.712          29.351  
G24  20194279.591   106121728.371        -111.214          39.558    20194288.885    79246729.224         -83.048          44.228  
G32  24391730.456   128179470.579        2955.229          34.369    24391716.066    95718334.321        2206.787          25.551  
R01  21791047.971                       -2069.252          22.204  
R02  22873163.838   122055599.676        2203.158          31.757  
R09  21997319.573   117464612.177       -2876.216          28.666  
R10  19546702.999   104194933.103        -569.670          37.995  
R11  21019957.186   112324274.808        2718.840          29.525  
R20  20414347.341   109164596.522        1811.509          31.101  
R21  22931884.787   122713183.311        4638.717          32.133  
> 2019  5 20  8 25  7.0002669  0 24
C12  25289978.212   131691461.732       -2546.695          27.427  
C13  38877968.842                        1625.753          23.523  
C20  25747229.164                         206.187          22.371  
C25  22226966.291   115741561.502       -1283.210          31.455  
E03                                                                  25557640.714   134306410.138       -1396.653          31.786    25557659.600   100293748.222       -1042.995          35.371  
E05                                                                  27324713.395   143592321.389       -2969.108          33.638    27324713.095   107228005.377       -2217.190          30.515  
E11                                                                                                                                  24842898.020                        2316.368          21.560  
E12                                                                  23435292.385   123153282.2291       1001.001          27.467    23435293.884    91965120.4051        747.450          26.826  
E25                                                                  23138252.921   121592359.497        1020.313          37.437    23138261.315    90799498.914         761.881          42.032  
G06  23917552.323   125687602.330        2707.638          37.838    23917554.721    93857614.480        2021.910          35.143  
G10                                                                  25213744.588    98944205.510       -1522.751          32.805  
G12  20764856.289   109120045.960        1933.601          46.884  
G15  23702720.448   124558701.561       -3431.874          42.348  
G17  22889846.689   120286974.538       -2358.944          39.877  
G19  21193163.778   111370788.490       -1104.568          29.454  
G24  20194299.377   106121840.244        -111.874          39.830    20194309.870    79246812.757         -83.533          44.187  
G32  24391168.346   128176515.963        2954.616          34.594    24391154.555    95716127.867        2206.454          25.388  
R01  21791399.028                       -2069.515          21.351  
R02  22872751.324   122053397.388        2202.288          31.778  
R09  21997844.809   117467488.741       -2876.564          28.404  
R10  19546813.623   104195503.397        -570.294          37.490  
R11  21019452.036   112321556.329        2718.478          30.336  
R20  20414021.167   109162786.033        1810.489          30.528  
R21  22931017.187   122708544.978        4638.333          33.403  
> 2019  5 20  8 25  8.0002670  0 25
C12  25290493.855   131694164.882       -2547.040          27.643  
C13  38877683.740                        1628.039          23.376  
C20  25747208.478                         206.880          19.894  
C25  22227243.000   115743001.341       -1283.729          30.571  
E03                                                                  25557936.908   134307964.841       -1397.161          31.559    25557955.496   100294909.222       -1043.355          35.422  
E05                                                                  27325301.887   143595448.227       -2969.295          33.161    27325307.883   107230340.349       -2217.327          30.551  
E11                                                                                                                                  24842337.408    97486679.6181       2316.076          20.563  
E12                                                                  23435132.895   123152439.568        1000.203          28.060    23435133.495    91964491.026         747.024          26.683  
E25                                                                  23138088.335   121591497.138        1019.901          37.799    23138097.029    90798854.931         761.627          42.164  
G02  25020541.240                        3045.784          20.955  
G06  23917068.158   125685052.643        2707.229          37.705    23917069.357    93855710.517        2021.608          35.128  
G10                                                                  25214161.599    98945846.233       -1523.078          32.339  
G12  20764519.922   109118270.503        1932.999          46.601  
G15  23703399.178   124562291.243       -3432.140          41.994  
G17  22890329.655   120289491.569       -2359.489          39.495  
G19  21193406.310   111372051.440       -1105.408          30.129  
G24  20194355.738   106122110.315        -112.529          40.494    20194361.135    79247014.437         -84.035          44.126  
G32  24390637.413   128173719.348        2954.156          34.814    24390621.824                        2206.091          24.863  
R01  21791799.251                       -2067.925          21.344  
R02  22872359.795   122051355.921        2201.442          31.169  
R09  21998418.012   117470525.856       -2877.028          28.890  
R10  19546938.336   104196234.088        -570.885          36.618  
R11  21018962.775   112318998.398        2718.132          29.651  
R20  20413706.685   109161136.852        1809.494          30.426  
R21  22930177.768   122704067.270        4638.133          32.396  
> 2019  5 20  8 25  9.0002671  0 24
C12  25291017.293   131696868.479       -2547.488          28.053  
C13  38877401.935                        1623.692          24.150  
C20  25747196.787                         208.957          19.311  
C25  22227516.710   115744441.506       -1284.055          29.537  
E03                                                                  25558234.003   134309520.132       -1397.749          31.946    25558252.290   100296070.621       -1043.754          35.547  
E05                                                                  27325898.774   143598575.223       -2969.454          32.905    27325902.371   107232675.474       -2217.480          30.651  
E11                                                                  24841814.869                        3104.721          20.966    24841774.697    97484481.477        2315.786          20.360  
E12                                                                  23434974.605   123151597.253         999.857          27.880    23434973.705    91963862.074         746.597          26.984  
E25                                                                  23137926.147   121590635.013        1019.667          37.654    23137932.742    90798211.147         761.429          42.040  
G06  23916583.993   125682503.423        2706.761          37.407    23916584.293    93853806.851        2021.311          35.187  
G10                                                                  25214580.109    98947487.336       -1523.458          32.868  
G12  20764179.957   109116495.476        1932.569          46.328  
G15  23704086.303   124565881.207       -3432.423          41.725  
G17  22890808.423   120292009.085       -2359.974          39.884  
G19  21193649.742   111373315.155       -1106.173          30.882  
G24  20194406.703   106122381.002        -113.144          40.077    20194412.999    79247216.557         -84.475          44.265  
G32  24390104.982   128170923.275        2953.616          33.272    24390090.292    95711951.6281       2205.579          25.322  
R01  21792210.567                       -2063.512          20.883  
R02  22871981.457   122049315.332        2200.563          31.660  
R09  21998991.515   117473563.142       -2877.198          29.285  
R10  19547089.731   104196965.310        -571.416          36.374  
R11  21018476.811   112316440.757        2717.841          28.760  
R20  20413400.597   109159488.589        1808.575          30.087  
R21  22929327.557   122699589.917        4637.778          32.666  
> 2019  5 20  8 25 10.0002671  0 24
C12  25291508.953   131699416.453       -2547.973          27.761  
C13  38877097.645   202443126.7591       1623.728          24.919  
C20  25747155.715                         205.496          14.622  
C25  22227758.343   115745726.176       -1284.670          28.158  
E03                                                                  25558502.917   134310918.476       -1398.344          33.398    25558517.606   100297114.759       -1044.137          34.769  
E05                                                                  27326460.885   143601544.832       -2969.609          32.078    27326467.480   107234893.022       -2217.548          30.278  
E11                                                                  24841222.180                        3104.215          20.666    24841185.005                        2306.789          20.401  
E12                                                                  23434775.243   123150598.031         999.221          28.207    23434781.538    91963116.060         746.013          27.232  
E25                                                                  23137732.781   121589615.723        1019.290          38.440    23137739.077    90797449.968         761.179          42.151  
G06  23916065.053   125679797.105        2706.319          36.694    23916068.650    93851785.878        2020.973          35.177  
G10                                                                  25214968.640    98949011.077       -1523.741          32.572  
G12  20763813.611   109114563.524        1931.952          46.618  
G15  23704738.351   124569313.873       -3432.666          42.559  
G17  22891255.114   120294369.588       -2360.503          40.079  
G19  21193861.095   111374422.165       -1107.010          30.398  
G24  20194430.687   106122494.824        -113.823          41.000    20194434.884    79247301.543         -84.986          44.219  
G32                                                                  24389531.479    95709746.367        2205.261          24.597  
R01  21792586.806                       -2054.624          17.348  
R02  22871573.439   122047115.636        2199.697          32.718  
R09  21999539.536   117476440.754       -2877.612          29.010  
R10  19547167.078   104197537.334        -572.024          34.872  
R11  21017946.778   112313723.301        2717.456          27.734  
R20  20413049.240   109157681.143        1807.445          29.549  
R21  22928488.438   122694952.287        4637.630          32.368  
> 2019  5 20  8 25 11.0002672  0 23
C12  25292027.893   131702120.959       -2548.396          28.338  
C13  38876815.541   202441659.394        1623.474          24.874  
C25  22228044.345   115747167.211       -1284.925          26.723  
E03                                                                  25558798.512   134312474.667       -1398.648          33.805    25558812.302   100298276.918       -1044.514          34.847  
E05                                                                  27327058.071   143604672.201       -2969.828          31.831    27327063.468   107237228.405       -2217.738          30.294  
E11                                                                  24840654.972                        3103.879          17.406    24840626.492                        2315.968          20.199  
E12                                                                  23434619.950   123149757.031         998.543          28.061    23434623.847    91962487.933         745.772          26.854  
E25                                                                  23137570.293   121588754.219        1019.046          38.518    23137575.090    90796806.642         760.972          42.068  
G06  23915583.286   125677248.749        2705.897          37.799    23915584.186    93849882.865        2020.658          35.486  
G10                                                                  25215386.251    98950652.810       -1524.088          32.656  
G12  20763475.445   109112789.569        1931.496          46.723  
G15  23705419.180   124572904.317       -3432.902          42.044  
G17  22891740.778   120296888.101       -2360.971          40.031  
G19  21194105.726   111375687.511       -1107.803          32.168  
G24  20194480.152   106122766.773        -114.406          40.970    20194486.448    79247504.634         -85.446          44.284  
G32  24389017.035   128165174.9971       2952.637          30.017    24389000.246    95707659.026        2204.986          24.836  
R01  21793014.910                       -2061.802          15.590  
R02  22871198.399   122045076.706        2198.904          32.489  
R09  22000120.234   117479478.830       -2877.989          28.819  
R10  19547291.791   104198269.627        -572.487          32.831  
R11  21017467.410                        2716.764          27.539  
R20  20412744.351   109156034.893        1806.563          28.796  
R21  22927636.128   122690475.523        4637.190          32.514  
> 2019  5 20  8 25 12.0002672  0 23
C12  25292518.354   131704669.636       -2548.677          28.860  
C13  38876501.058                        1623.518          23.779  
C25  22228291.974                       -1285.905          27.553  
E03                                                                  25559066.526   134313873.831       -1399.164          33.995    25559079.118   100299321.768       -1044.850          34.994  
E05                                                                  27327620.182   143607641.987       -2969.786          32.237    27327628.576   107239446.057       -2217.652          30.112  
E11                                                                                                                                  24840035.301                        2313.845          19.891  
E12                                                                  23434431.081   123148758.940         998.091          27.930    23434432.280    91961742.622         745.312          26.521  
E25                                                                  23137376.028   121587735.393        1018.826          38.517    23137381.124    90796045.823         760.819          42.219  
G06  23915067.943   125674543.162        2705.587          37.609    23915068.842    93847862.530        2020.335          35.438  
G10                                                                  25215776.281    98952177.258       -1524.447          32.394  
G12  20763108.199   109110858.517        1931.053          47.148  
G15  23706074.226   124576337.380       -3433.062          41.996  
G17  22892184.470   120299249.541       -2361.439          40.041  
G19  21194320.377   111376796.018       -1108.507          33.947  
G24  20194506.834   106122881.747        -114.975          41.206    20194508.033    79247590.488         -85.853          44.174  
G32                                                                  24388434.838    95705454.434        2204.592          25.389  
R01  21793461.600                       -2077.346          18.827  
R02  22870779.289   122042878.601        2198.105          32.029  
R09  22000670.952   117482357.027       -2878.197          29.349  
R10  19547395.819   104198842.649        -573.022          32.196  
R11  21016959.562   112308449.5081       2716.906          27.628  
R20  20412384.300   109154229.265        1805.628          27.236  
R21  22926760.134   122685838.458        4637.065          32.473  
> 2019  5 20  8 25 13.0002673  0 21
C12  25293037.594   131707375.150       -2549.404          28.826  
C13  38876221.652                        1620.594          23.908  
C25  22228572.280   115749894.4331      -1285.860          28.271  
E03                                                                  25559362.721   134315431.329       -1399.956          33.765    25559375.612   100300484.806       -1045.393          34.740  
E05                                                                  27328216.769   143610769.723       -2970.194          31.794    27328223.365   107241781.741       -2218.039          30.551  
E12                                                                  23434268.893   123147919.245         997.237          28.401    23434272.491                         744.166          25.744  
E25                                                                  23137211.742   121586874.614        1018.321          38.622    23137217.438    90795403.039         760.430          42.084  
G06  23914579.881   125671995.784        2704.920          37.218    23914584.378    93845960.216        2019.959          35.496  
G10                                                                  25216192.693    98953819.843       -1524.940          32.552  
G12  20762770.933   109109085.701        1930.358          47.130  
G15  23706759.852   124579928.453       -3433.532          41.411  
G17  22892664.438   120301769.180       -2362.097          40.134  
G19  21194562.310   111378063.054       -1109.494          35.222  
G24  20194559.597   106123155.128        -115.839          41.765    20194560.497    79247794.623         -86.491          44.219  
G32                                                                  24387904.205                        2203.939          25.179  
R01  21793851.630                       -2082.403          18.350  
R02  22870396.154   122040841.587        2196.989          31.775  
R09  22001250.451   117485395.901       -2878.786          29.223  
R11  21016475.097   112305893.391        2716.317          28.153  
R20  20412069.219                        1803.342          25.718  
R21  22925936.904   122681362.272        4636.611          33.431  
> 2019  5 20  8 25 14.0002673  0 23
C12  25293533.151   131709924.926       -2549.776          28.579  
C13  38875917.962   202436946.9671       1622.547          24.421  
C25  22228820.808   115751180.800       -1286.367          28.199  
E03                                                                  25559631.335   134316831.669       -1400.341          32.337    25559642.128   100301530.574       -1045.768          35.169  
E05                                                                  27328782.777   143613740.080       -2970.357          32.298    27328788.773   107243999.861       -2218.120          30.434  
E12                                                                  23434078.225   123146922.629         996.616          28.267    23434082.422    91960371.3041        744.310          25.892  
E25                                                                  23137014.478   121585856.628        1017.986          38.068    23137023.472    90794642.857         760.182          42.089  
G02  25017194.057                        3052.936          20.159  
G06  23914067.536   125669291.302        2704.482          37.017    23914069.934    93843940.649        2019.567          35.328  
G10                                                                  25216582.423    98955344.971       -1525.128          32.402  
G12  20762402.188   109107155.892        1929.809          47.254  
G15  23707411.001   124583362.251       -3433.798          42.057  
G17  22893120.123   120304131.837       -2362.657          40.523  
G19  21194774.863   111379173.408       -1110.354          35.338  
G24  20194582.082   106123271.614        -116.486          42.071    20194582.681    79247881.598         -86.975          44.268  
G32                                                                  24387342.094    95701164.2321       2203.735          25.452  
R01  21794256.950                       -2079.093          19.317  
R02  22869978.244   122038645.535        2196.052          31.566  
R09  22001781.084   117488274.912       -2879.011          30.955  
R10  19547658.438   104200150.5281       -574.338          31.738  
R11  21015975.943   112303177.459        2715.933          28.264  
R20  20411722.658                        1803.630          23.822  
R21  22925069.605   122676726.009        4636.263          32.858  
> 2019  5 20  8 25 15.0002674  0 24
C12  25294051.792   131712631.171       -2550.136          28.990  
C13  38875629.562   202435480.748        1622.329          25.203  
C25  22229101.114                       -1286.859          27.746  
E03                                                                  25559929.029   134318390.056       -1400.845          32.109    25559938.323   100302694.289       -1046.070          35.384  
E05                                                                  27329375.167   143616867.957       -2970.335          32.183    27329382.962   107246335.676       -2218.169          30.398  
E08                                                                                                                                  24888078.242    97666078.3761        877.419          30.270  
E12                                                                  23433924.731   123146083.903         996.268          28.840    23433925.031                         743.559          25.410  
E25                                                                  23136851.391   121584996.313        1017.856          37.715    23136859.485    90794000.411         760.091          42.121  
G02  25016656.229                        3047.132          20.121  
G06  23913584.270   125666744.624        2704.219          37.337    23913585.169    93842038.932        2019.362          35.183  
G10                                                                  25217000.634    98956988.090       -1525.474          32.401  
G12  20762065.221   109105384.035        1929.399          47.112  
G15  23708094.528   124586953.706       -3433.913          42.080  
G17  22893592.895   120306652.411       -2363.032          40.732  
G19  21195011.699   111380441.918       -1110.969          35.573  
G24  20194636.344   106123546.107        -116.951          42.073    20194635.145    79248086.594         -87.351          44.191  
G32                                                                  24386810.862    95699078.510        2203.367          25.818  
R01  21794664.668                       -2070.479          20.433  
R02  22869589.712   122036610.123        2195.388          31.236  
R09  22002352.189   117491314.298       -2879.298          31.243  
R10  19547799.940   104200885.097        -574.763          32.216  
R11  21015488.780   112300621.900        2715.759          27.598  
R20  20411432.160                        1800.172          22.922  
R21  22924216.095   122672250.281        4636.153          32.710  
> 2019  5 20  8 25 16.0002675  0 24
C12  25294569.534   131715337.672       -2550.391          29.125  
C13  38875348.656                        1623.560          25.114  
C24  26569036.139                       -2821.542          19.832  
C25  22229389.514   115754066.4981      -1286.923          26.202  
E03                                                                  25560225.524   134319948.908       -1401.310          32.814    25560235.117   100303858.334       -1046.400          35.157  
E05                                                                  27329971.454   143619995.957       -2970.458          30.916    27329979.249   107248671.523       -2218.202          30.694  
E08                                                                  24887898.366                        1174.113          24.231    24887883.677    97665318.780         877.241          31.363  
E12                                                                  23433761.345   123145245.756         995.690          29.042    23433766.141    91959119.1391        743.542          25.361  
E25                                                                  23136686.505   121584136.244        1017.612          37.754    23136696.099    90793358.157         759.899          42.004  
G02  25016106.410                        3043.539          18.954  
G06  23913099.805   125664198.376        2703.790          37.508    23913100.705    93840137.476        2019.101          35.064  
G10                                                                  25217419.744    98958631.511       -1525.776          32.924  
G12  20761727.955   109103612.587        1928.990          47.062  
G15  23708778.354   124590545.335       -3434.087          41.294  
G17  22894078.259   120309173.381       -2363.428          41.093  
G19  21195257.529   111381711.167       -1111.706          35.875  
G24  20194684.611   106123821.177        -117.529          41.723    20194687.309    79248291.996         -87.758          44.272  
G32                                                                  24386280.829    95696992.902        2203.253          25.743  
R02  22869197.584   122034575.522        2194.576          31.120  
R09  22002913.700   117494353.943       -2879.557          31.535  
R10  19547951.934   104201620.062        -575.159          31.759  
R11  21015018.106   112298066.536        2715.564          26.960  
R20  20411110.782                        1801.549          21.760  
R21  22923366.783   122667774.747        4635.958          31.982  
> 2019  5 20  8 25 17.0002675  0 23
C12  25295056.996   131717888.593       -2550.921          28.635  
C13  38875038.071   202432392.6321       1621.967          25.039  
C24  26569597.351                       -2818.077          20.781  
C25  22229642.838   115755353.906       -1287.407          26.388  
E03                                                                  25560492.040   134321350.725       -1401.817          33.289    25560501.333   100304905.068       -1046.734          35.028  
E05                                                                  27330532.966   143622966.612       -2970.655          30.988    27330544.358   107250889.851       -2218.328          30.700  
E08                                                                  24887676.220   130785707.8131       1174.179          24.397    24887660.331    97664441.951         876.829          32.048  
E12                                                                  23433572.176   123144250.569         995.186          28.711    23433576.373    91958376.013         743.126          25.172  
E25                                                                  23136496.137   121583118.962        1017.281          38.619    23136502.732    90792598.481         759.675          42.005  
G02  25015523.014                        3049.663          20.629  
G06  23912588.060   125661494.982        2703.394          37.586    23912585.062    93838118.735        2018.741          35.042  
G10  25217828.361                       -2038.628          19.727    25217810.373    98960157.639       -1526.129          32.529  
G12  20761360.409   109101684.142        1928.446          46.892  
G15  23709430.103   124593979.659       -3434.325          41.641  
G17  22894526.149   120311537.323       -2363.942          41.032  
G19  21195469.482   111382823.652       -1112.485          35.619  
G24  20194710.393   106123939.342        -118.165          41.614    20194709.793    79248380.213         -88.217          44.267  
R01  21795525.372   116509608.8121      -2074.940          24.856  
R02  22868792.864   122032381.838        2193.683          30.645  
R09  22003455.425   117497233.822       -2879.880          31.740  
R11  21014500.964   112295351.382        2715.154          27.076  
R20  20410818.185                        1801.571          22.254  
R21  22922519.270   122663139.144        4635.603          31.751  
> 2019  5 20  8 25 18.0002676  0 25
C12  25295574.738   131720596.048       -2551.345          28.207  
C13  38874755.067   202430927.021        1621.721          25.019  
C20  25747004.320   134071316.3951        197.874          25.163  
C24  26570157.962                       -2823.526          23.640  
C25  22229916.849   115756797.680       -1287.664          26.364  
E03                                                                  25560789.733   134322910.495       -1402.228          33.038    25560798.727   100306069.821       -1047.108          34.928  
E05                                                                  27331128.054   143626094.905       -2970.751          31.225    27331139.446   107253225.904       -2218.408          30.709  
E08                                                                  24887481.355   130784691.673        1173.682          24.067    24887466.965    97663683.127         876.469          32.473  
E12                                                                  23433410.288   123143413.566         994.545          29.051    23433414.185                         742.541          24.406  
E25                                                                  23136332.151   121582259.462        1017.043          38.879    23136338.746    90791956.649         759.478          41.920  
G02  25014952.809                        3050.884          21.180  
G06  23912104.794   125658949.502        2703.022          37.123    23912101.796    93836217.929        2018.451          35.035  
G10  25218251.068                       -2043.282          15.927    25218227.384    98961801.585       -1526.301          32.273  
G12  20761023.143   109099913.687        1927.997          46.261  
G15  23710114.529   124597571.749       -3434.548          41.452  
G17  22895008.815   120314059.278       -2364.413          41.952  
G19  21195712.613   111384094.462       -1113.268          36.301  
G24  20194763.156   106124215.642        -118.758          41.548    20194762.257    79248586.534         -88.676          44.188  
R01  21795942.083                       -2077.754          24.261  
R02  22868407.631   122030348.932        2192.881          30.870  
R09  22003999.248   117500274.105       -2880.195          31.308  
R10  19548197.764   104202931.8401       -576.246          31.561  
R11  21014036.585   112292796.697        2714.884          27.484  
R20  20410481.817                        1799.363          21.479  
R21  22921672.356   122658664.097        4635.472          32.339  
> 2019  5 20  8 25 19.0002676  0 25
C12  25296067.597   131723147.788       -2551.740          28.926  
C13  38874446.281   202429305.566        1621.455          25.641  
C20  25746959.951   134071118.921         197.474          27.209  
C24  26570699.088                       -2824.070          23.599  
E03                                                                  25561054.750   134324313.222       -1402.727          31.911    25561065.543   100307117.354       -1047.533          35.694  
E05                                                                  27331697.659   143629065.712       -2970.807          31.579    27331703.955   107255444.375       -2218.471          30.926  
E08                                                                  24887272.400   130783518.490        1173.183          24.764    24887242.421    97662807.108         876.019          32.119  
E12                                                                  23433222.917   123142419.559         994.007          29.626    23433227.114    91957008.6831        742.270          24.961  
E25                                                                  23136137.885   121581242.687        1016.774          38.803    23136145.380    90791197.378         759.270          41.929  
G02  25014376.008                        3047.200          22.064  
G06  23911589.451   125656246.954        2702.548          37.733    23911586.453    93834199.809        2018.120          34.459  
G10  25218655.788                       -2050.192          16.413    25218616.815    98963328.357       -1526.772          32.325  
G12  20760657.096   109097986.205        1927.481          46.424  
G15  23710769.876   124601006.540       -3434.791          41.256  
G17  22895457.305   120316424.179       -2364.901          41.305  
G19  21195925.766   111385208.497       -1114.035          37.001  
G24  20194779.045   106124335.020        -119.379          41.338    20194784.442    79248675.686         -89.151          44.059  
G32  24384606.188   128141848.4301       2948.869          26.178  
R01  21796355.497   116513921.2341      -2076.522          25.081  
R02  22868002.012   122028156.773        2192.160          30.428  
R09  22004538.275   117503154.517       -2880.412          30.797  
R10  19548314.384   104203508.593        -576.753          32.653  
R11  21013526.938                        2713.858          27.177  
R20  20410173.931                        1799.083          20.218  
R21  22920800.860   122654028.956        4635.141          32.454  
> 2019  5 20  8 25 20.0002677  0 24
C12  25296588.336   131725856.102       -2552.204          28.280  
C13  38874167.774   202427840.593        1621.083          26.660  
C20  25746954.854   134071078.487         196.544          27.053  
C24  26571271.991                       -2827.648          22.646  
E03                                                                  25561354.243   134325874.099       -1403.335          31.859    25561363.236   100308282.996       -1047.997          35.534  
E05                                                                  27332295.745   143632194.453       -2971.200          31.620    27332299.643   107257780.732       -2218.712          31.574  
E08                                                                  24887070.939   130782503.659        1172.373          24.093    24887048.755    97662049.255         875.498          32.042  
E12                                                                  23433064.927   123141583.769         993.332          29.912    23433067.625    91956384.587         741.741          24.448  
E25                                                                  23135974.498   121580383.869        1016.361          38.489    23135981.993    90790556.065         758.958          42.058  
G02  25013822.891                        3046.127          22.590  
G06  23911107.984   125653702.447        2702.049          37.925    23911101.689    93832299.612        2017.842          34.854  
G12  20760319.230   109096216.866        1926.881          46.467  
G15  23711458.499   124604599.217       -3435.135          41.387  
G17  22895942.669   120318947.211       -2365.489          41.618  
G19  21196165.000   111386480.991       -1114.952          37.345  
G24  20194838.404   106124612.640        -120.077          41.361    20194838.104    79248883.010         -89.680          44.070  
G32                                                                  24384095.942    95688419.2351       2201.607          25.825  
R01  21796765.913   116516159.004       -2077.514          26.471  
R02  22867619.476   122026125.580        2191.168          30.311  
R09  22005097.088   117506195.547       -2880.943          30.143  
R10  19548462.181   104204245.842        -577.442          31.813  
R11  21013057.763   112287528.1931       2714.143          27.444  
R20  20409878.335                        1795.290          21.778  
R21  22919974.632   122649554.660        4634.721          31.897  
> 2019  5 20  8 25 21.0002677  0 26
C12  25297076.099   131728408.751       -2552.649          28.438  
C13  38873854.491                        1620.595          26.820  
C20  25746917.080   134070882.069         196.417          28.535  
C23  22360078.040   116434850.0361       1504.149          33.891  
C24  26571815.815                       -2824.457          22.835  
C25  22230720.892                       -1289.288          25.618  
E03                                                                  25561622.257   134327277.967       -1403.868          32.060    25561630.651   100309331.342       -1048.347          35.576  
E05                                                                  27332859.655   143635165.746       -2971.293          31.484    27332865.351   107259999.500       -2218.768          31.448  
E08                                                                  24886843.996                        1171.725          23.382    24886826.009    97661174.141         875.114          31.878  
E12                                                                  23432876.657   123140591.061         992.707          29.676    23432878.456                         741.327          23.754  
E25                                                                  23135779.633   121579367.825        1016.044          38.545    23135788.627    90789797.321         758.744          41.825  
G02  25013242.792   131445618.3361       3047.011          23.542  
G06  23910591.742   125651000.855        2701.592          37.254    23910587.844    93830282.205        2017.408          34.616  
G12  20759955.282   109094290.511        1926.355          46.306  
G15  23712105.751   124608034.652       -3435.435          41.211  
G17  22896389.659   120321313.265       -2366.055          42.288  
G19  21196377.253   111387596.723       -1115.733          37.540  
G24  20194859.090   106124733.421        -120.781          41.388    20194860.589    79248973.212         -90.202          44.165  
G32                                                                  24383535.030    95686217.928        2201.307          25.872  
R01  21797128.062                       -2076.670          26.059  
R02  22867239.639   122023935.302        2190.278          31.565  
R09  22005625.922   117509076.869       -2881.322          30.606  
R10  19548567.708   104204823.855        -578.014          31.257  
R11  21012566.403   112284814.488        2713.705          29.063  
R20  20409571.048                        1795.816          21.171  
R21  22919104.034   122644920.199        4634.462          30.749  
> 2019  5 20  8 25 22.0002678  0 26
C12  25297593.840   131731118.179       -2553.318          27.428  
C13  38873579.281   202424755.4921       1620.429          26.572  
C20  25746910.185   134070843.034         195.145          28.863  
C23  22359824.416   116433502.400        1503.746          34.802  
C25  22230999.399                       -1289.438          24.635  
E03                                                                  25561918.452   134328840.089       -1404.579          32.112    25561926.546   100310497.887       -1048.899          35.589  
E05                                                                  27333457.141   143638294.935       -2971.647          31.739    27333460.739   107262336.326       -2219.181          31.430  
E08                                                                  24886650.031                        1169.989          22.364    24886633.242    97660417.207         874.579          32.131  
E11                                                                  24834318.559                        3105.365          25.795  
E12                                                                  23432718.367   123139756.696         991.907          29.677    23432721.065                         740.378          23.395  
E25                                                                  23135617.745   121578509.806        1015.561          38.939    23135625.240    90789156.583         758.384          41.919  
G02  25012692.973                        3047.080          23.748  
G06  23910106.977   125648457.387        2701.010          36.982    23910103.380    93828382.871        2016.979          34.720  
G12  20759616.816   109092522.409        1925.644          46.712  
G15  23712795.573   124611627.980       -3435.786          41.810  
G17  22896873.225   120323837.519       -2366.712          42.195  
G19  21196621.584   111388870.990       -1116.724          37.667  
G24  20194912.753   106125012.588        -121.625          41.791    20194913.952    79249181.657         -90.800          44.139  
G32  24382997.502   128133320.3421       2947.144          28.825  
R01  21797572.654   116520477.0031      -2079.407          26.952  
R02  22866852.907   122021906.090        2189.188          32.626  
R09  22006199.725   117512118.709       -2881.753          31.240  
R10  19548712.508   104205562.454        -578.792          31.179  
R11  21012096.928   112282261.538        2713.149          29.300  
R20  20409236.779                        1795.914          22.503  
R21  22918266.115   122640446.568        4634.056          31.177  
> 2019  5 20  8 25 23.0002679  0 25
C12  25298113.381   131733828.051       -2553.762          27.952  
C13  38873298.076   202423291.529        1620.072          26.691  
C23  22359568.992   116432155.303        1503.206          35.143  
C25  22231288.399                       -1290.615          22.540  
E03                                                                  25562216.746   134330402.771       -1405.140          32.014    25562224.240   100311664.789       -1049.257          35.542  
E05                                                                  27334054.328   143641424.263       -2971.786          31.536    27334056.127   107264673.138       -2219.167          31.643  
E08                                                                  24886457.864                        1169.946          22.079    24886440.776    97659660.698         874.154          32.167  
E11                                                                  24833756.148                        3104.678          25.710  
E12                                                                  23432560.376   123138922.849         991.389          29.404  
E25                                                                  23135454.358   121577652.092        1015.256          38.950    23135462.153    90788516.088         758.140          41.813  
G02  25012142.854                        3046.488          23.917  
G06  23909620.114   125645914.362        2700.567          37.084    23909619.215    93826483.867        2016.650          34.161  
G12  20759280.449   109090754.805        1925.146          46.566  
G15  23713479.999   124615221.580       -3436.058          41.468  
G17  22897350.194   120326362.250       -2367.189          41.836  
G19  21196865.016   111390146.025       -1117.494          37.892  
G24  20194967.315   106125292.373        -122.243          41.367    20194967.015    79249390.582         -91.280          44.067  
G32  24382469.568   128130531.190        2946.694          30.690  
R01  21797995.961   116522717.354       -2080.095          26.110  
R02  22866481.764   122019877.645        2188.420          32.869  
R09  22006761.236   117514876.876       -2882.079          30.980  
R10  19548847.115   104206301.523        -579.263          30.370  
R11  21011626.853   112279708.830        2712.908          29.828  
R20  20408942.983                        1794.354          23.996  
R21  22917440.786   122635973.247        4633.745          31.541  
> 2019  5 20  8 25 24.0002679  0 25
C12  25298605.340   131736380.960       -2552.909          28.229  
C13  38872984.193   202421670.483        1621.046          27.302  
C23  22359280.892   116430651.156        1504.148          35.574  
C25  22231518.640                       -1288.866          21.625  
E03                                                                  25562484.160   134331807.149       -1404.378          32.201    25562491.355   100312713.543       -1048.754          35.607  
E05                                                                  27334611.043   143644395.017       -2970.754          31.513    27334621.535   107266891.549       -2218.412          31.593  
E08                                                                  24886235.418                        1172.339          21.931    24886217.430    97658786.019         874.679          31.983  
E11                                                                  24833176.949                        3097.580          27.007  
E12                                                                  23432370.308   123137930.817         992.032          29.367  
E25                                                                  23135262.491   121576635.932        1016.160          39.230    23135267.887    90787757.243         758.844          41.745  
G02  25011564.854   131436792.4661       3047.715          25.233  
G06  23909106.570   125643213.086        2701.275          36.702    23909106.270    93824466.622        2017.244          34.290  
G12  20758914.403   109088828.925        1925.880          46.646  
G15  23714134.446   124618656.741       -3435.160          41.905  
G17  22897802.581   120328728.751       -2366.501          41.789  
G19  21197075.470   111391263.169       -1117.144          37.643  
G24  20194991.298   106125413.989        -121.616          41.676    20194990.399    79249481.421         -90.839          44.153  
G32  24381909.855   128127583.815        2947.375          31.679    24381914.952                        2201.129          26.657  
R01  21798379.696   116524797.218       -2079.864          25.845  
R02  22866078.543   122017688.967        2188.678          33.794  
R09  22007299.963   117517758.121       -2881.245          31.486  
R10  19548954.440   104206880.039        -578.516          30.333  
R11  21011119.305   112276995.042        2713.789          30.085  
R20  20408639.893                        1792.169          22.391  
R21  22916578.583   122631338.534        4634.713          31.137  
> 2019  5 20  8 25 25.0002680  0 24
C12  25299124.880   131739088.864       -2551.794          27.902  
C13  38872704.786   202420204.087        1622.506          27.715  
C23  22359022.771   116429301.944        1505.322          36.032  
E03                                                                  25562782.154   134333367.927       -1403.236          31.884    25562788.450   100313879.058       -1047.870          35.576  
E05                                                                  27335207.929   143647521.784       -2969.225          31.272    27335216.923   107269226.461       -2217.267          31.631  
E08                                                                  24886045.949   130777118.9841       1172.327          21.669    24886024.364    97658028.208         875.456          31.960  
E11                                                                  24832613.340   130496200.2131       3100.143          26.870  
E12                                                                  23432211.717   123137095.303         993.056          29.580  
E25                                                                  23135097.905   121575775.889        1017.586          39.304    23135104.800    90787115.032         759.856          41.904  
G02  25011014.735   131433900.197        3049.811          24.901  
G06  23908621.506   125640668.020        2702.608          36.617    23908620.606    93822566.095        2018.173          34.097  
G12  20758578.335   109087059.433        1927.034          46.722  
G15  23714815.875   124622248.003       -3433.721          41.730  
G17  22898281.050   120331251.600       -2365.307          41.755  
G19  21197318.602   111392536.878       -1116.167          37.728  
G24  20195043.462   106125692.115        -120.583          41.804    20195043.163    79249689.098         -90.032          43.982  
G32  24381379.522   128124792.814        2948.543          32.199    24381382.820    95677766.9161       2201.855          26.570  
R01  21798787.413   116527036.368       -2078.894          26.350  
R02  22865688.513   122015659.359        2189.583          33.838  
R09  22007868.670   117520798.004       -2879.795          31.251  
R10  19549092.945   104207617.248        -577.403          29.768  
R11  21010642.935   112274440.084        2715.158          31.112  
R20  20408337.702                        1787.562          20.437  
R21  22915740.063   122626862.807        4636.152          30.218  
> 2019  5 20  8 25 26.0002680  0 25
C12  25299613.242   131741639.853       -2550.989          27.639  
C13  38872391.803   202418580.764        1623.322          27.766  
C23  22358730.773   116427795.807        1506.137          36.497  
C24  26574623.671                       -2820.675          24.310  
E03                                                                  25563049.269   134334770.534       -1402.607          32.319    25563056.164   100314926.467       -1047.410          35.716  
E05                                                                  27335769.441   143650489.994       -2968.210          31.048    27335781.432   107271442.970       -2216.509          31.408  
E11                                                                  24832026.046   130493099.332        3100.882          27.710    24832024.247                        2317.772          19.313  
E12                                                                  23432023.748   123136101.612         993.691          29.752  
E25                                                                  23134904.539   121574757.483        1018.405          39.458    23134910.535    90786354.525         760.507          41.721  
G02  25010423.844   131430849.963        3050.234          25.260  
G06  23908104.963   125637964.687        2703.333          36.247    23908107.961    93820547.380        2018.715          34.081  
G12  20758212.588   109085131.807        1927.625          46.879  
G15  23715470.322   124625680.782       -3432.779          41.789  
G17  22898732.537   120333616.280       -2364.681          41.503  
G19  21197531.454   111393652.744       -1115.866          37.863  
G24  20195064.148   106125812.198        -120.084          41.402    20195065.947    79249778.795         -89.697          44.056  
G25  23917386.238                        3359.831          27.804  
G32  24380819.510   128121843.575        2949.239          33.127    24380822.808    95675564.490        2202.426          26.997  
R01  21799187.636                       -2078.608          26.858  
R02  22865275.099   122013469.476        2189.883          34.195  
R09  22008403.799   117523677.018       -2879.014          31.206  
R10  19549188.578   104208194.074        -576.826          28.735  
R11  21010173.160   112271995.126        2715.957          31.129  
R20  20407983.647                        1779.932          16.618  
R21  22914868.866   122622225.832        4636.974          29.184  
> 2019  5 20  8 25 27.0002681  0 24
C12  25300136.980   131744347.869       -2551.906          26.400  
C13  38872110.898   202417114.250        1622.624          27.957  
C23  22358473.851   116426446.577        1505.340          36.403  
C24  26575192.677                       -2823.391          24.290  
C25  22232329.878                       -1286.575          21.448  
E03                                                                  25563351.460   134336331.609       -1403.533          32.453    25563352.659   100316092.186       -1048.074          35.916  
E05                                                                  27336365.428   143653616.375       -2968.839          30.582    27336374.722   107273777.600       -2216.985          31.474  
E11                                                                  24831469.032   130490156.676        3100.197          28.082    24831460.038                        2315.768          20.692  
E12                                                                  23431865.457   123135266.479         992.675          30.136  
E25                                                                  23134740.253   121573897.346        1017.679          39.652    23134746.248    90785712.216         759.954          41.705  
G06  23907621.098   125635419.783        2702.447          36.394    23907621.998    93818647.037        2017.987          33.945  
G12  20757874.722   109083362.654        1926.695          46.703  
G15  23716156.546   124629271.800       -3433.476          41.942  
G17  22899216.402   120336139.404       -2365.581          41.835  
G19  21197774.286   111394927.385       -1117.099          37.513  
G24  20195118.111   106126090.893        -121.153          41.313    20195119.310    79249986.896         -90.456          44.079  
G25  23916773.462   125683511.9541       3358.002          28.002  
G32  24380295.473   128119316.784        2948.334          34.265    24380289.177                        2201.443          26.962  
R01  21799590.557   116531355.0411      -2079.870          26.949  
R02  22864892.264   122011440.877        2188.574          34.311  
R09  22008975.503   117526716.837       -2879.732          31.506  
R10  19549310.594   104208931.693        -577.813          27.701  
R11  21009687.496   112269440.139        2715.188          31.171  
R21  22914036.043   122617749.972        4636.286          28.469  
> 2019  5 20  8 25 28.0002681  0 26
C12  25300620.245                       -2552.889          24.474  
C13  38871804.510   202415492.672        1621.578          28.982  
C20  25746777.677   134070139.7551        193.965          32.731  
C23  22358185.450   116424942.463        1504.115          36.886  
C24  26575737.100   138386851.4951      -2822.205          24.488  
C25  22232580.205                       -1291.862          19.679  
E03                                                                  25563615.577   134337736.572       -1404.963          32.507    25563620.074   100317141.289       -1049.104          35.745  
E05                                                                  27336929.637   143656586.162       -2969.787          30.598    27336941.030   107275995.292       -2217.693          31.615  
E11                                                                  24830880.839                        3098.514          28.746    24830871.246                        2313.898          21.270  
E12                                                                  23431678.387   123134275.351         991.128          30.131  
E25                                                                  23134547.186   121572880.833        1016.513          39.620    23134553.182    90784953.126         759.090          41.616  
G02  25009305.318   131424908.9751       3048.745          25.239  
G06  23907109.053   125632718.618        2701.165          36.690    23907108.453    93816629.944        2017.094          33.958  
G12  20757506.877   109081437.299        1925.354          46.533  
G15  23716807.995   124632706.371       -3434.571          41.703  
G17  22899662.194   120338506.367       -2366.963          42.411  
G19  21197985.340   111396046.123       -1118.738          38.002  
G24  20195143.293   106126213.501        -122.608          41.194    20195142.394    79250078.488         -91.592          44.065  
G25  23916138.202   125680155.016        3356.938          28.402  
G32  24379734.561   128116369.851        2946.933          35.374    24379730.664    95671279.8441       2200.645          27.778  
R01  21799989.881   116533436.553       -2081.512          27.779  
R02  22864493.540   122009253.998        2186.878          34.960  
R09  22009518.427   117529597.760       -2880.922          32.399  
R10  19549421.817   104209510.854        -579.160          27.907  
R11  21009172.453   112266726.136        2714.002          30.907  
R21  22913167.844   122613114.710        4635.262          28.429  
> 2019  5 20  8 25 29.0002682  0 25
C13  38871526.602   202414028.077        1620.706          29.586  
C20  25746772.580   134070103.068         192.797          33.492  
C23  22357930.027   116423595.344        1503.228          37.373  
C24  26576304.607   138389830.579       -2822.974          23.793  
C25  22232861.710                       -1290.263          20.937  
E03                                                                  25563912.672   134339300.074       -1405.960          32.460    25563917.468   100318308.870       -1049.935          35.936  
E05                                                                  27337529.822   143659714.195       -2970.491          30.813    27337536.118   107278331.141       -2218.204          31.805  
E11                                                                  24830319.927   130484116.8091       3098.304          28.698    24830314.231                        2309.689          20.341  
E12                                                                  23431519.796   123133442.901         989.992          30.574  
E25                                                                  23134386.198   121572022.674        1015.701          40.015    23134390.095    90784312.299         758.472          41.600  
G02  25008747.704   131422018.445        3048.072          25.341  
G06  23906628.186   125630175.993        2700.167          36.610    23906623.989    93814731.180        2016.409          34.261  
G12  20757172.908   109079670.538        1924.303          46.752  
G15  23717489.424   124636299.279       -3435.366          41.966  
G17  22900145.159   120341031.923       -2368.014          42.571  
G19  21198229.971   111397323.715       -1120.050          37.870  
G24  20195194.558   106126494.857        -123.815          40.862    20195195.757    79250288.590         -92.458          44.099  
G25  23915529.324   125676956.410        3356.149          28.911  
G32  24379209.025   128113581.480        2945.913          35.411    24379200.031    95669197.629        2199.860          27.234  
R01  21800423.081   116535679.712       -2082.903          28.058  
R02  22864114.603   122007228.500        2185.474          35.911  
R09  22010096.128   117532639.670       -2881.822          33.668  
R10  19549568.715   104210251.057        -580.397          27.583  
R11  21008692.485   112264173.269        2713.067          30.486  
R21  22912338.918   122608640.830        4634.305          28.584  
> 2019  5 20  8 25 30.0002683  0 25
C13  38871244.198   202412564.090        1620.096          29.431  
C20  25746762.088   134070067.426         191.751          34.452  
C23  22357671.606   116422249.039        1502.415          37.528  
C24  26576875.712                       -2824.742          22.413  
C25  22233142.016                       -1291.447          20.711  
E03                                                                  25564210.965   134340864.535       -1406.919          32.852    25564215.162   100319477.133       -1050.618          35.961  
E05                                                                  27338123.711   143662842.790       -2971.053          30.829    27338131.805   107280667.459       -2218.673          31.788  
E11                                                                  24829761.114   130481176.673        3097.679          29.496    24829752.420                        2308.297          20.728  
E12                                                                  23431363.605   123132611.419         989.024          30.303  
E25                                                                  23134223.410   121571165.253        1014.963          40.223    23134227.008    90783672.023         757.921          41.832  
G02  25008199.384   131419128.439        3047.548          25.544  
G06  23906141.323   125627634.224        2699.310          36.533    23906140.723    93812833.086        2015.739          34.349  
G12  20756834.143   109077904.703        1923.377          46.491  
G15  23718181.645   124639892.846       -3436.025          42.009  
G17  22900624.827   120343558.386       -2368.922          42.331  
G19  21198470.404   111398602.545       -1121.288          37.619  
G24  20195243.724   106126777.248        -124.849          39.908    20195249.420    79250499.466         -93.231          44.057  
G25  23914921.045   125673758.529        3355.422          29.518  
G32  24378676.593   128110793.924        2945.098          35.706    24378669.698    95667116.044        2199.229          27.286  
R01  21800847.587   116537924.198       -2084.230          27.984  
R02  22863737.464   122005204.314        2184.161          35.690  
R09  22010678.324   117535682.334       -2882.577          34.157  
R10  19549743.194   104210992.105        -581.242          26.494  
R11  21008218.213   112261621.093        2712.376          30.670  
R21  22911521.983   122604167.620        4633.634          29.136  
> 2019  5 20  8 25 31.0002683  0 25
C13  38870934.512   202410943.846        1620.244          29.516  
C20  25746726.712   134069875.956         191.471          34.679  
C23  22357382.306   116420746.603        1502.436          37.528  
C24  26577415.038                       -2825.911          22.908  
C25  22233395.940                       -1291.105          19.340  
E03                                                                  25564479.279   134342271.502       -1406.968          33.012    25564483.177   100320527.812       -1050.679          35.850  
E05                                                                  27338688.220   143665813.647       -2970.857          30.787    27338696.914   107282885.950       -2218.490          31.713  
E11                                                                  24829171.722   130478078.946        3097.727          29.731    24829163.628                        2309.189          21.038  
E12                                                                  23431175.035   123131622.573         988.847          30.512  
E25                                                                  23134029.445   121570150.208        1015.045          40.221    23134033.642    90782914.019         758.003          41.696  
G02  25007614.189   131416080.588        3047.851          24.474  
G06  23905624.481   125624934.926        2699.299          36.365    23905628.378    93810817.403        2015.683          34.218  
G12  20756469.295   109075981.488        1923.214          46.553  
G15  23718832.194   124643328.747       -3435.902          41.991  
G17  22901073.317   120345927.426       -2369.039          42.731  
G19  21198682.957   111399724.227       -1121.682          37.039  
G24  20195265.908   106126902.342        -125.094          39.793    20195274.003    79250592.868         -93.402          44.079  
G25  23914286.084   125670402.496        3356.033          29.657    23914277.090    93844810.9081       2505.622          31.388  
G32  24378119.279   128107849.020        2944.904          36.208    24378110.885    95664916.897        2199.147          27.735  
R01  21801231.921   116540008.739       -2084.540          28.317  
R02  22863330.346   122003020.625        2183.689          36.618  
R09  22011209.257   117538564.877       -2882.543          33.951  
R10  19549861.313   104211573.629        -581.524          25.771  
R11  21007722.956   112258908.678        2712.415          29.887  
R21  22910664.277                        4634.685          28.223  
> 2019  5 20  8 25 32.0002684  0 25
C13  38870654.506   202409479.443        1620.513          29.517  
C20  25746721.915   134069840.593         191.472          35.257  
C23  22357124.785   116419400.050        1502.663          37.995  
C24  26577987.642                       -2824.920          22.589  
C25  22233670.550                       -1287.794          16.583  
E03                                                                  25564781.770   134343835.976       -1406.932          33.831    25564780.571   100321696.076       -1050.619          35.840  
E05                                                                  27339283.908   143668941.565       -2970.376          30.712    27339292.602   107285221.741       -2218.147          31.536  
E11                                                                  24828613.209   130475138.336        3098.153          30.057    24828603.915                        2316.381          19.994  
E12                                                                  23431018.543   123130791.197         988.917          30.926  
E25                                                                  23133866.957   121569292.363        1015.387          40.305    23133870.854    90782273.433         758.232          41.674  
G02  25007051.179   131413189.791        3048.340          23.914  
G06  23905139.716   125622392.977        2699.490          36.138    23905142.414    93808919.196        2015.852          34.172  
G12  20756133.228   109074215.634        1923.397          46.501  
G15  23719515.421   124646921.804       -3435.515          41.842  
G17  22901556.882   120348453.884       -2368.917          42.923  
G19  21198927.288   111401003.638       -1121.869          37.472  
G24  20195323.468   106127184.967        -125.083          39.440    20195327.666    79250803.937         -93.424          44.033  
G25  23913679.904   125667204.119        3355.919          29.504    23913666.713    93842422.502        2506.051          31.920  
G32  24377590.146   128105061.512        2945.050          36.255    24377578.154    95662835.347        2199.195          27.385  
R01  21801660.624   116542253.832       -2084.837          28.786  
R02  22862942.115   122000997.143        2183.457          37.272  
R09  22011786.657   117541607.177       -2882.212          34.487  
R10  19549972.835                        -582.258          25.486  
R11  21007236.992   112256356.146        2712.732          29.220  
R21  22909819.162                        4633.656          26.866  
> 2019  5 20  8 25 33.0002684  0 26
C12  25303154.391                       -2553.780          22.061  
C13  38870347.518   202407859.033        1620.410          29.270  
C20  25746686.540   134069649.690         190.903          35.364  
C23  22356837.583   116417897.644        1502.406          38.341  
C24  26578533.264                       -2821.618          22.388  
C25  22233898.992                       -1297.264          17.266  
E03                                                                  25565046.786   134345243.250       -1407.274          34.076    25565048.585   100322747.037       -1050.960          35.925  
E05                                                                  27339850.515   143671911.936       -2970.371          30.480    27339856.811   107287439.903       -2218.162          31.677  
E11                                                                  24828024.117   130472040.319        3098.016          30.946    24828014.523                        2319.748          20.379  
E12                                                                  23430829.974   123129802.832         988.365          30.725  
E25                                                                  23133674.490   121568277.201        1015.161          40.427    23133677.488    90781515.341         758.092          41.803  
G02  25006481.273   131410141.468        3048.322          24.000  
G06  23904626.172   125619693.849        2699.128          35.943    23904629.170    93806903.649        2015.547          34.100  
G12  20755766.582   109072292.694        1922.940          46.519  
G15  23720169.269   124650357.476       -3435.672          41.888  
G17  22902008.070   120350823.207       -2369.323          43.164  
G19  21199139.541   111402126.217       -1122.578          36.973  
G24  20195337.859   106127310.568        -125.600          38.767    20195351.649    79250897.764         -93.826          43.996  
G25  23913037.748   125663848.349        3355.770          29.177    23913028.155    93839916.579        2505.922          32.421  
G32  24377028.634   128102116.849        2944.663          36.040    24377017.542    95660636.375        2198.972          28.139  
R01  21802049.155   116544339.277       -2085.445          29.099  
R02  22862538.894   121998814.412        2182.730          37.310  
R09  22012326.284   117544489.632       -2882.456          34.012  
R10  19550077.163   104212896.5271       -581.711          26.322  
R11  21006734.540   112253643.725        2712.421          29.576  
R21  22908941.370                        4632.329          25.642  
> 2019  5 20  8 25 34.0002685  0 25
C12  25303670.334                       -2555.312          22.149  
C13  38870063.615   202406394.722        1620.421          29.073  
C20  25746680.844   134069615.252         190.548          35.572  
C23  22356578.863   116416551.449        1502.304          38.188  
C24  26579108.566                       -2819.276          21.831  
E03                                                                  25565346.579   134346808.355       -1407.564          34.240    25565345.979   100323915.738       -1051.056          36.119  
E05                                                                  27340438.109   143675039.818       -2970.340          30.425    27340452.798   107289775.653       -2218.105          31.561  
E11                                                                  24827467.102   130469099.832        3098.030          31.306    24827454.511                        2313.416          20.255  
E12                                                                  23430671.983   123128972.273         988.101          30.780  
E25                                                                  23133511.703   121567419.557        1015.186          40.653    23133514.101    90780874.894         758.092          41.616  
G02  25005923.359                        3047.487          22.334  
G06  23904142.606   125617152.379        2699.012          35.763    23904145.604    93805005.752        2015.542          34.198  
G12  20755429.015   109070527.518        1922.718          46.367  
G15  23720854.594   124653950.631       -3435.612          42.363  
G17  22902484.740   120353350.241       -2369.492          42.840  
G19  21199385.970   111403406.771       -1123.013          37.043  
G24  20195393.320   106127594.128        -126.018          38.359    20195405.612    79251109.458         -94.049          44.053  
G25  23912426.771   125660650.089        3355.802          28.563    23912419.576    93837528.352        2505.872          32.105  
G32  24376496.503   128099329.873        2944.518          36.149  
R01  21802469.764   116546585.609       -2086.076          29.120  
R02  22862159.656   121996792.214        2182.173          37.421  
R09  22012895.889   117547532.214       -2882.494          34.617  
R10  19550227.659                        -582.339          26.125  
R11  21006241.382   112251091.536        2712.389          28.916  
R21  22908083.364                        4630.839          21.697  
> 2019  5 20  8 25 35.0002686  0 25
C12  25304190.174                       -2551.161          21.762  
C13  38869780.911   202404930.544        1620.289          28.734  
C20  25746675.148   134069581.326         190.036          36.077  
C23  22356319.242   116415205.537        1502.022          38.214  
C24  26579672.176                       -2821.569          21.488  
E03                                                                  25565646.072   134348373.864       -1407.967          34.629    25565644.573   100325084.774       -1051.391          36.078  
E05                                                                  27341036.794   143678167.718       -2970.358          30.437    27341047.287   107292111.368       -2218.069          31.520  
E11                                                                  24826906.190   130466159.443        3097.931          31.089    24826897.497                        2308.689          19.755  
E12                                                                  23430514.592   123128142.128         987.687          30.564  
E25                                                                  23133347.417   121566562.105        1014.994          40.865    23133350.415    90780234.591         757.948          41.747  
G02  25005371.741                        3045.563          21.094  
G06  23903655.743   125614611.258        2698.664          35.543    23903662.339    93803108.174        2015.223          34.052  
G12  20755095.946   109068762.727        1922.333          46.587  
G15  23721538.421   124657543.937       -3435.765          41.762  
G17  22902967.705   120355877.678       -2369.895          42.807  
G19  21199632.100   111404688.050       -1123.736          37.093  
G24  20195446.084   106127878.088        -126.418          37.984    20195459.274    79251321.571         -94.468          43.997  
G25  23911822.390   125657452.091        3355.540          28.315    23911810.698    93835140.131        2505.866          32.296  
G32  24375964.371   128096543.320        2944.095          36.206  
R01  21802892.472   116548832.675       -2086.810          28.349  
R02  22861781.618   121994770.707        2181.482          37.505  
R09  22013483.183   117550575.035       -2882.733          34.487  
R10  19550361.366   104214380.7571       -582.577          26.535  
R11  21005765.311   112248539.553        2712.183          28.240  
R21  22907209.769                        4629.703          19.209  
> 2019  5 20  8 25 36.0002686  0 26
C12  25304674.039                       -2554.164          22.018  
C13  38869469.426   202403311.272        1619.272          29.708  
C20  25746637.674   134069392.637         188.690          35.979  
C23  22356031.142   116413704.590        1500.947          38.010  
C24  26580221.695                       -2819.091          21.290  
C25  22234656.867                       -1289.338          23.394  
E03                                                                  25565908.690   134349783.018       -1409.154          34.480    25565912.887   100326137.041       -1052.267          36.393  
E05                                                                  27341610.297   143681138.892       -2971.174          30.267    27341612.695   107294330.124       -2218.756          31.443  
E11                                                                  24826315.000   130463062.537        3096.906          31.094    24826303.608                        2307.790          20.226  
E12                                                                  23430327.222   123127155.855         986.273          30.539  
E25                                                                  23133156.749   121565548.120        1013.984          41.091    23133157.648    90779477.401         757.190          41.655  
G02  25004774.555                        3043.359          19.518  
G06  23903142.799   125611913.692        2697.566          35.118    23903148.195    93801093.738        2014.436          33.986  
G12  20754730.199   109066841.646        1921.081          46.733  
G15  23722192.268   124660980.669       -3436.732          42.090  
G17  22903417.994   120358248.808       -2371.130          42.783  
G19  21199846.152   111405813.298       -1125.249          36.636  
G24  20195467.669   106128005.970        -127.882          37.545    20195484.157    79251417.042         -95.471          44.059  
G25  23911180.234   125654097.393        3354.698          28.506    23911172.440    93832635.087        2505.044          32.259  
G32  24375402.560   128093600.407        2942.913          36.289  
R01  21803272.309   116550920.971       -2088.295          28.708  
R02  22861373.301   121992590.865        2179.842          38.010  
R09  22014009.019   117553458.781       -2883.746          34.299  
R10  19550484.281                        -583.381          27.562  
R11  21005248.769   112245828.348        2711.206          27.245  
R21  22906340.970                        4630.835          15.205  
> 2019  5 20  8 25 37.0002687  0 25
C12  25305197.177                       -2560.074          21.313  
C13  38869191.818   202401847.779        1619.602          29.207  
C20  25746633.477   134069360.173         188.573          36.090  
C23  22355771.222   116412359.519        1501.182          38.163  
C24  26580793.100                       -2822.200          21.643  
C25  22234947.666   115783344.5111      -1292.734          25.220  
E03                                                                  25566206.683   134351349.695       -1409.135          34.144    25566210.881   100327306.977       -1052.291          36.509  
E05                                                                  27342202.687   143684267.202       -2970.768          30.380    27342208.083   107296666.181       -2218.412          31.747  
E11                                                                  24825761.283   130460122.822        3097.257          31.130    24825744.795                        2309.842          19.845  
E12                                                                  23430171.030   123126327.059         986.338          30.915  
E25                                                                  23132992.463   121564691.396        1014.266          41.075    23132994.861    90778837.641         757.406          41.588  
G02  25004214.243                        3048.529          20.302  
G06  23902655.036   125609373.548        2697.686          34.861    23902665.529    93799196.914        2014.468          34.249  
G12  20754394.432   109065078.011        1921.177          46.685  
G15  23722877.294   124664574.611       -3436.400          42.272  
G17  22903895.563   120360777.418       -2371.068          42.491  
G19  21200088.684   111407096.265       -1125.425          36.429  
G24  20195526.728   106128291.369        -127.857          37.893    20195538.420    79251630.207         -95.520          44.003  
G25  23910573.155   125650900.020        3354.915          28.213    23910563.861    93830247.394        2505.338          32.647  
G32  24374870.428   128090814.935        2943.014          36.471    24374869.229    95652196.6741       2197.696          28.405  
R01  21803695.316   116553169.836       -2088.610          28.988  
R02  22860989.866   121990571.253        2179.588          37.796  
R09  22014573.228   117556502.376       -2883.508          34.043  
R10  19550634.477   104215708.0001       -583.730          28.472  
R11  21004763.705   112243277.214        2711.334          27.218  
> 2019  5 20  8 25 38.0002687  0 23
C12  25305685.239                       -2554.653          22.022  
C13  38868878.835   202400228.375        1619.404          28.753  
C20  25746594.504   134069172.141         188.033          35.997  
C23  22355481.023   116410858.727        1500.792          37.711  
C24  26581339.022                       -2824.810          21.775  
E03                                                                  25566480.394   134352759.203       -1409.508          35.104    25566479.195   100328359.537       -1052.559          36.492  
E05                                                                  27342768.395   143687238.006       -2970.804          30.406    27342773.492   107298884.662       -2218.481          31.656  
E11                                                                  24825166.795   130457025.668        3097.154          31.264    24825158.101                        2313.789          20.511  
E12                                                                  23429981.561   123125341.229         985.830          30.519  
E25                                                                  23132801.195   121563677.360        1014.036          41.125    23132801.495    90778080.421         757.219          41.671  
G06  23902142.091   125606676.206        2697.342          34.449    23902152.284    93797182.630        2014.284          34.132  
G12  20754030.184   109063157.301        1920.710          46.731  
G15  23723532.340   124668011.154       -3436.543          42.564  
G17  22904347.650   120363148.881       -2371.463          42.303  
G19  21200303.635   111408222.422       -1126.156          36.616  
G24  20195547.713   106128419.790        -128.421          37.714    20195562.703    79251726.151         -95.945          43.830  
G25  23909934.897   125647545.233        3354.787          27.786    23909925.303    93827742.262        2505.132          32.874  
G32  24374307.418   128087872.350        2942.586          36.285  
R01  21804087.444   116555259.129       -2089.292          29.521  
R02  22860582.448   121988392.468        2178.785          37.814  
R09  22015118.251   117559386.163       -2883.787          33.670  
R10  19550744.201   104216292.171        -584.171          28.131  
R11  21004265.150   112240566.019        2711.195          27.349  
> 2019  5 20  8 25 39.0002688  0 25
C12  25306212.873                       -2557.293          22.385  
C13  38868598.529   202398765.878        1618.606          29.671  
C20  25746587.608   134069141.415         186.835          36.043  
C23  22355222.901   116409514.907        1499.930          37.803  
C24  26581909.527                       -2825.441          23.073  
C25  22235484.594   115786087.3291      -1293.615          26.089  
E03                                                                  25566775.689   134354327.356       -1410.611          34.742    25566777.488   100329530.570       -1053.388          36.638  
E05                                                                  27343364.383   143690367.160       -2971.612          30.380    27343368.580   107301221.331       -2219.025          31.682  
E11                                                                  24824605.283   130454086.935        3096.275          30.999    24824596.290                        2312.454          20.285  
E12                                                                  23429823.571   123124514.185         984.586          30.798  
E25                                                                  23132638.108   121562821.744        1013.158          41.214    23132638.408    90777441.469         756.597          41.524  
G02  25003084.025                        3043.010          21.733  
G06  23901658.826   125604137.415        2696.333          34.659    23901668.719    93795286.830        2013.445          34.023  
G12  20753694.117   109061395.186        1919.657          46.985  
G15  23724216.467   124671606.046       -3437.350          42.528  
G17  22904827.318   120365678.958       -2372.536          42.254  
G19  21200546.767   111409507.488       -1127.524          35.852  
G24  20195609.171   106128707.058        -129.726          38.137    20195616.965    79251940.642         -96.846          43.999  
G25  23909330.515   125644348.835        3353.940          28.793    23909317.324    93825355.356        2504.551          32.562  
G32  24373775.586   128085088.384        2941.507          36.035    24373779.184                        2196.094          28.581  
R01  21804512.850   116557510.155       -2090.770          30.284  
R02  22860205.309   121986375.118        2177.325          38.263  
R09  22015683.360   117562430.907       -2884.656          33.430  
R10  19550877.609   104217037.298        -585.321          27.986  
R11  21003801.071                        2710.018          26.555  
> 2019  5 20  8 25 40.0002688  0 26
C12  25306706.332                       -2562.551          22.784  
C13  38868288.244   202397147.596        1618.282          30.290  
C20  25746552.533   134068955.285         186.130          36.853  
C23  22354932.402   116408015.415        1499.492          37.479  
C24  26582451.552   138421824.6981      -2824.341          23.858  
C25  22235729.525   115787381.927       -1294.598          25.996  
E03                                                                  25567048.501   134355738.568       -1411.212          35.118    25567046.702   100330584.380       -1053.810          36.871  
E05                                                                  27343929.791   143693338.927       -2971.767          30.526    27343933.988   107303440.503       -2219.172          31.890  
E11                                                                  24824015.592   130450990.886        3096.049          31.027    24824008.696                        2310.602          20.745  
E12                                                                  23429637.100   123123530.156         984.029          30.590  
E25                                                                  23132445.641   121561808.915        1012.829          41.369    23132445.941    90776685.135         756.335          41.666  
G02  25002506.325                        3047.400          21.870  
G06  23901150.078   125601441.539        2695.876          34.677    23901156.074    93793273.670        2013.160          34.374  
G12  20753328.070   109059476.088        1919.098          47.039  
G15  23724869.415   124675043.720       -3437.674          42.635  
G17  22905281.504   120368052.014       -2373.055          41.838  
G19  21200759.320   111410635.809       -1128.322          36.018  
G24  20195637.651   106128837.352        -130.294          38.763    20195642.448    79252037.972         -97.330          44.030  
G25  23908693.456   125640995.190        3353.645          27.936    23908679.066    93822850.996        2504.361          32.604  
G32  24373216.473   128082147.393        2940.991          35.718  
R01  21804893.886   116559601.757       -2091.602          30.294  
R02  22859799.690   121984198.717        2176.401          38.327  
R09  22016221.787   117565315.968       -2885.062          33.657  
R10  19550987.033   104217623.260        -585.962          26.898  
R11  21003289.925   112235306.1601       2709.852          26.656  
R21  22903071.434                        4632.202          22.529  
> 2019  5 20  8 25 41.0002689  0 26
C12  25307221.675                       -2561.857          23.392  
C13  38868015.133   202395953.771        1616.935          30.576  
C20  25746549.834   134068926.993         184.402          36.983  
C23  22354673.681   116406673.502        1498.023          37.500  
C24  26583026.254                       -2825.138          23.489  
C25  22236014.028                       -1296.636          26.923  
E03                                                                  25567348.893   134357308.877       -1412.767          35.340    25567344.995   100331757.019       -1054.995          36.662  
E05                                                                  27344525.779   143696469.441       -2972.972          30.905    27344529.376   107305778.247       -2220.099          31.904  
E11                                                                  24823456.479   130448053.826        3094.602          31.056    24823449.583                        2307.569          20.637  
E12                                                                  23429480.608   123122705.350         982.348          30.668  
E25                                                                  23132284.053   121560955.023        1011.434          41.434    23132283.154    90776047.499         755.280          41.625  
G02  25001963.401                        3045.440          23.108  
G06  23900661.716   125598904.784        2694.297          34.845    23900673.108    93791379.356        2011.960          34.206  
G12  20752994.701   109057716.155        1917.475          47.031  
G15  23725552.941   124678640.282       -3439.020          42.247  
G17  22905758.473   120370584.254       -2374.698          41.861  
G19  21201007.248   111411923.650       -1130.298          36.105  
G24  20195692.213   106129126.966        -132.072          38.621    20195697.010    79252254.243         -98.626          44.014  
G25  23908085.477   125637800.491        3352.241          28.248    23908070.487    93820465.392        2503.248          32.793  
G32  24372687.939   128079365.549        2939.386          35.189    24372688.839                        2194.448          28.651  
R01  21805326.487   116561855.551       -2093.538          30.264  
R02  22859421.652   121982184.240        2174.452          38.821  
R09  22016779.701   117568362.523       -2886.467          32.901  
R10  19551104.852   104218370.567        -587.501          26.936  
R11  21002823.448   112232758.040        2708.320          27.233  
R21  22902196.939                        4631.129          22.819  
> 2019  5 20  8 25 42.0002690  0 26
C12  25307745.113                       -2565.045          22.851  
C13  38867734.228   202394493.651        1616.229          31.198  
C20  25746545.038   134068899.820         183.282          36.994  
C23  22354414.661   116405332.433        1497.178          37.295  
C24  26583595.560                       -2827.939          24.125  
C25  22236295.833   115790287.6281      -1296.973          28.120  
E03                                                                  25567648.985   134358880.240       -1413.821          35.939    25567644.188   100332930.421       -1055.757          37.099  
E05                                                                  27345122.366   143699600.618       -2973.635          30.925    27345125.364   107308116.496       -2220.604          31.717  
E11                                                                  24822897.965   130445117.482        3093.886          30.746    24822889.271                        2313.552          21.969  
E12                                                                  23429322.318   123121881.660         981.232          30.296  
E25                                                                  23132120.366   121560101.925        1010.639          41.368    23132120.666    90775410.433         754.711          41.580  
G02  25001411.183   131383326.6841       3045.432          24.854  
G06  23900182.048   125596368.887        2693.440          34.447    23900191.042    93789485.652        2011.349          34.225  
G12  20752661.032   109055957.234        1916.463          47.205  
G15  23726235.569   124682237.551       -3439.727          41.878  
G17  22906240.540   120373117.455       -2375.659          41.534  
G19  21201249.181   111413212.723       -1131.531          35.711  
G24  20195748.874   106129417.674        -133.166          38.826    20195753.371    79252471.344         -99.456          44.112  
G25  23907480.795   125634606.487        3351.547          27.388    23907463.407    93818080.273        2502.765          32.937  
G32  24372154.309   128076584.650        2938.440          34.739    24372160.904    95641570.1111       2194.293          29.056  
R01  21805756.989   116564110.698       -2094.891          29.965  
R02  22859040.016   121980171.156        2173.059          38.945  
R09  22017350.805   117571409.970       -2887.360          32.507  
R10  19551223.270                        -589.318          25.428  
R11  21002355.172   112230210.676        2707.565          26.468  
R21  22901332.637   122549656.3231       4629.473          25.984  
> 2019  5 20  8 25 43.0002690  0 25
C13  38867423.643   202392877.625        1616.026          31.712  
C20  25746509.063   134068717.120         182.700          36.023  
C23  22354127.460   116403835.571        1496.863          37.630  
C24  26584140.882                       -2825.856          24.718  
C25  22236544.061   115791584.900       -1297.272          30.049  
E03                                                                  25567916.400   134360294.426       -1414.186          35.814    25567914.001   100333986.505       -1056.083          37.121  
E05                                                                  27345690.472   143702574.388       -2973.770          31.008    27345691.672   107310337.095       -2220.599          31.846  
E11                                                                  24822310.972   130442023.729        3093.753          30.798    24822306.475                        2317.011          20.473  
E12                                                                  23429134.348   123120900.884         980.776          30.464  
E25                                                                  23131928.799   121559091.517        1010.408          41.364    23131929.099    90774655.917         754.515          41.758  
G02  25000844.575   131380281.234        3045.450          25.452  
G06  23899668.204   125593675.912        2692.975          34.427    23899677.797    93787474.662        2010.990          34.145  
G12  20752295.285   109054041.195        1916.040          47.115  
G15  23726894.213   124685677.479       -3439.928          42.204  
G17  22906689.029   120375493.558       -2376.103          41.351  
G19  21201468.928   111414345.003       -1132.280          36.381  
G24  20195775.855   106129551.508        -133.834          38.926    20195777.954    79252571.235         -99.891          43.990  
G25  23906842.537   125631255.191        3351.296          27.447    23906825.449    93815577.698        2502.575          33.061  
G32  24371592.198   128073646.681        2937.970          33.962    24371600.292    95639376.164        2193.947          29.155  
R01  21806151.815   116566206.327       -2095.629          29.562  
R02  22858636.495   121977998.845        2172.312          39.507  
R09  22017891.031   117574297.530       -2887.559          31.673  
R10  19551330.895                        -588.279          24.569  
R11  21001835.632   112227503.392        2707.283          25.973  
R21  22900453.346   122545027.096        4629.226          29.041  
> 2019  5 20  8 25 44.0002691  0 25
C13  38867143.037   202391418.112        1615.623          31.872  
C20  25746499.469   134068691.314         181.916          35.564  
C23  22353870.537   116402495.315        1496.366          37.569  
C24  26584715.884   138433598.3271      -2826.777          24.524  
C25  22236826.765   115793038.831       -1297.821          30.343  
E03                                                                  25568217.391   134361866.835       -1414.867          35.872    25568213.194   100335160.709       -1056.560          37.119  
E05                                                                  27346287.359   143705705.905       -2973.975          30.967    27346287.359   107312675.610       -2220.869          31.797  
E11                                                                  24821753.358   130439087.979        3093.292          30.889    24821744.064                        2315.745          20.953  
E12                                                                  23428976.657   123120078.382         980.043          30.220  
E25                                                                  23131766.611   121558239.067        1009.992          41.400    23131766.611    90774019.341         754.221          41.840  
G02  25000300.452   131377393.643        3045.134          26.277  
G06  23899187.936   125591140.929        2692.525          33.919    23899194.832    93785581.686        2010.621          34.153  
G12  20751961.316   109052283.344        1915.393          47.270  
G15  23727574.742   124689275.296       -3440.275          42.404  
G17  22907176.791   120378027.825       -2376.725          41.571  
G19  21201712.660   111415635.707       -1133.162          36.030  
G24  20195831.617   106129843.545        -134.495          38.817    20195833.415    79252789.346        -100.465          43.956  
G25  23906236.957   125628061.798        3350.935          27.445    23906217.170    93813193.070        2502.272          32.824  
G32  24371066.362   128070866.831        2937.392          34.430    24371072.358    95637300.299        2193.510          28.884  
R01  21806568.527   116568463.193       -2096.609          29.232  
R02  22858257.558   121975987.465        2171.355          40.033  
R09  22018450.144   117577345.660       -2888.043          30.778  
R10  19551487.687   104220457.5621       -589.730          26.611  
R11  21001360.161   112224956.808        2706.785          24.891  
R21  22899667.890   122540558.600        4628.921          30.690  
> 2019  5 20  8 25 45.0002691  0 25
C13  38866833.051   202389802.829        1615.284          31.946  
C20  25746464.094   134068510.037         181.277          35.580  
C23  22353583.336   116400999.394        1495.920          37.268  
C24  26585261.506   138436425.224       -2826.897          25.307  
C25  22237077.392   115794336.616       -1297.785          30.226  
E03                                                                  25568484.207   134363282.262       -1415.427          35.943    25568482.108   100336217.645       -1056.936          37.195  
E05                                                                  27346854.567   143708680.146       -2974.241          30.774    27346852.768   107314896.615       -2221.005          31.932  
E11                                                                  24821162.467   130435994.890        3093.088          31.312  
E12                                                                  23428788.687   123119098.981         979.402          29.536  
E25                                                                  23131575.943   121557229.405        1009.662          41.635    23131573.845    90773265.395         753.946          41.754  
G02  24999720.054   131374348.601        3045.041          26.953  
G06  23898671.994   125588448.928        2692.001          34.173    23898683.386    93783571.401        2010.285          34.168  
G12  20751597.668   109050368.512        1914.832          47.401  
G15  23728230.088   124692715.894       -3440.598          41.541  
G17  22907629.778   120380405.089       -2377.264          41.691  
G19  21201929.410   111416769.685       -1133.978          35.343  
G24  20195853.801   106129978.805        -135.260          39.231    20195859.198    79252890.303        -100.957          43.834  
G25  23905597.799   125624711.235        3350.562          26.723    23905579.811    93810691.022        2502.048          32.841  
G32  24370508.448   128067929.916        2936.916          34.790    24370512.945    95635107.167        2193.132          28.870  
R01  21806964.553   116570560.659       -2097.466          28.347  
R02  22857853.138   121973816.972        2170.492          39.696  
R09  22018995.766   117580234.010       -2888.350          30.335  
R10  19551604.006   104221047.940        -590.378          27.547  
R11  21000866.103                        2709.465          25.509  
R21  22898778.106   122535930.021        4628.579          31.145  
> 2019  5 20  8 25 46.0002692  0 26
C12  25309772.609   131794658.3591      -2562.712          23.680  
C13  38866553.645   202388343.965        1614.974          31.805  
C20  25746461.995   134068485.635         180.512          35.118  
C23  22353324.016   116399660.006        1495.497          37.023  
C24  26585835.309   138439408.067       -2826.733          25.453  
C25  22237354.100   115795791.496       -1298.770          30.317  
E03                                                                  25568780.102   134364855.848       -1416.044          35.691    25568782.200   100337392.738       -1057.448          37.328  
E05                                                                  27347450.854   143711812.072       -2974.384          30.554    27347449.355   107317235.446       -2221.186          32.083  
E11                                                                  24820606.951   130433059.732        3092.700          31.615    24820599.157                        2306.355          22.325  
E12                                                                  23428633.694   123118277.846         978.677          29.523  
E25                                                                  23131412.856   121556377.691        1009.256          41.544    23131412.556    90772629.348         753.692          41.566  
G02  24999163.939   131371461.391        3044.752          25.919  
G06  23898189.028   125585914.991        2691.479          33.926    23898201.319    93781679.206        2009.840          33.965  
G12  20751263.999   109048611.788        1914.267          47.720  
G15  23728917.512   124696314.332       -3440.897          41.132  
G17  22908110.345   120382940.460       -2377.829          41.135  
G19  21202179.736   111418062.130       -1134.903          34.950  
G24  20195908.064   106130272.224        -135.877          39.888    20195914.959    79253109.444        -101.496          43.756  
G25  23904988.021                        3350.173          26.455    23904972.132    93808306.813        2501.854          32.932  
G32  24369980.514   128065151.185        2936.273          35.285    24369985.310    95633032.167        2192.645          29.141  
R01  21807398.652   116572819.282       -2098.367          27.497  
R02  22857482.294   121971807.455        2169.492          39.840  
R09  22019570.169   117583282.918       -2888.821          30.162  
R10  19551741.911   104221798.646        -590.900          28.916  
R11  21000377.741   112219704.6531       2705.898          28.423  
R21  22897945.282   122531462.219        4628.227          31.909  
> 2019  5 20  8 25 47.0002692  0 25
C13  38866240.661   202386729.366        1614.598          31.281  
C20  25746425.421   134068305.939         179.696          35.063  
C23  22353037.114   116398165.084        1494.922          36.339  
C24  26586385.129   138442235.620       -2827.554          26.849  
C25  22237602.328   115797090.844       -1299.348          30.693  
E03                                                                  25569049.016   134366272.544       -1416.696          35.577    25569052.014   100338450.653       -1057.915          37.389  
E05                                                                  27348019.560   143714786.840       -2974.767          30.234    27348016.262   107319456.826       -2221.380          32.099  
E11                                                                  24820018.459   130429967.462        3092.270          31.244    24820010.964                        2309.173          22.495  
E12                                                                  23428445.425   123117299.872         977.974          29.391  
E25                                                                  23131220.689   121555368.878        1008.813          41.492    23131219.790    90771876.037         753.311          41.578  
G02  24998588.937   131368416.826        3044.566          25.822  
G06                                                                  23897688.674    93779669.760        2009.446          34.271  
G12  20750900.051   109046698.214        1913.574          47.613  
G15  23729568.961   124699755.646       -3441.314          41.359  
G17  22908564.231   120385318.977       -2378.518          41.170  
G19  21202396.187   111419197.970       -1135.841          35.677  
G24  20195934.146   106130408.976        -136.752          40.029    20195940.741    79253211.515        -102.071          43.819  
G25  23904351.862   125618169.2281       3349.783          26.678    23904334.174    93805805.377        2501.437          32.749  
G32  24369418.702   128062215.517        2935.668          34.805    24369425.898    95630839.918        2192.249          29.415  
R01  21807797.976                       -2098.490          26.743  
R02  22857076.076   121969638.972        2168.483          39.587  
R09  22020118.489   117586172.251       -2889.333          30.316  
R10  19551854.633   104222390.360        -591.715          29.948  
R11  20999866.895   112216999.154        2705.499          28.324  
R21  22897094.471   122526834.479        4627.740          33.691  
> 2019  5 20  8 25 48.0002693  0 26
C12  25310788.905                       -2564.302          23.546  
C13  38865956.458   202385271.207        1614.270          31.376  
C20  25746419.725   134068282.947         179.103          35.114  
C23  22352774.796   116396826.595        1494.599          36.052  
C24  26586957.732   138445219.433       -2827.703          27.192  
C25  22237876.938   115798546.750       -1299.796          30.212  
E03                                                                  25569348.508   134367847.240       -1417.155          35.391    25569351.806   100339626.564       -1058.266          37.240  
E05                                                                  27348617.346   143717919.239       -2974.858          30.160    27348611.950   107321795.983       -2221.512          32.088  
E11                                                                  24819458.446   130427032.965        3092.039          31.444    24819450.652                        2308.847          22.160  
E12                                                                  23428288.633   123116479.930         977.483          29.120  
E25                                                                  23131057.302   121554517.894        1008.527          41.228    23131058.202    90771240.557         753.125          41.550  
G02  24998036.719   131365529.898        3044.470          25.649  
G06                                                                  23897207.208    93777778.219        2009.186          34.120  
G12  20750563.684   109044942.661        1913.095          47.531  
G15  23730254.587   124703354.710       -3441.522          41.069  
G17  22909045.098   120387855.499       -2378.980          40.965  
G19  21202641.117   111420492.079       -1136.567          35.311  
G24  20195989.907   106130703.832        -137.314          39.648    20195997.102    79253431.692        -102.533          43.897  
G25  23903744.482   125614977.139        3349.631          27.138    23903726.794    93803421.692        2501.330          32.462  
G32  24368891.967   128059437.907        2935.151          34.200    24368896.164    95628765.725        2191.838          29.229  
R01  21808222.782                       -2100.108          26.246  
R02  22856694.140   121967631.345        2167.602          39.277  
R09  22020692.592   117589221.897       -2889.559          30.237  
R10  19551998.233   104223142.323        -592.157          30.707  
R11  20999383.030   112214454.200        2705.155          28.347  
R21  22896242.161   122522367.429        4627.474          34.067  
> 2019  5 20  8 25 49.0002693  0 26
C12  25311280.265                       -2565.802          23.520  
C13  38865647.372   202383657.147        1614.059          31.013  
C20  25746384.949   134068104.503         178.443          34.768  
C23  22352492.092   116395332.344        1494.250          35.695  
C24  26587498.258   138448047.314       -2827.881          26.803  
C25  22238125.466   115799846.879       -1300.129          29.067  
E03                                                                  25569618.322   134369264.947       -1417.707          35.490    25569621.619   100340685.232       -1058.668          37.469  
E05                                                                  27349185.753   143720894.315       -2975.076          30.087    27349178.258   107324017.606       -2221.623          32.029  
E11                                                                  24818861.859   130423941.075        3091.890          31.481    24818863.358    97394442.8441       2309.016          22.653  
E12                                                                  23428103.062   123115503.169         976.761          28.740  
E25                                                                  23130866.035   121553509.651        1008.242          41.369    23130866.634    90770487.667         752.890          41.512  
G02  24997456.921   131362485.461        3044.437          25.343  
G06  23896680.472   125578001.0741       2690.066          33.694    23896695.162    93775769.485        2008.734          34.261  
G12  20750203.633   109043030.088        1912.573          47.599  
G15  23730910.233   124706796.506       -3441.796          40.461  
G17  22909495.686   120390234.995       -2379.496          40.837  
G19  21202859.666   111421629.488       -1137.408          35.239  
G24  20196018.687   106130841.786        -137.954          40.099    20196023.184    79253534.729        -103.037          43.851  
G25  23903109.222   125611627.432        3349.708          27.378    23903089.735    93800920.603        2501.089          32.468  
G32  24368333.454   128056503.215        2934.692          34.091    24368337.351    95626574.233        2191.491          29.175  
R01  21808634.397                       -2102.785          24.021  
R02  22856287.621   121965464.596        2166.749          39.330  
R09  22021220.526   117592111.905       -2890.008          29.145  
R10  19552118.150   104223735.072        -592.749          32.107  
R11  20998887.772   112211749.438        2704.762          28.338  
R21  22895385.055   122517740.263        4627.166          34.605  
> 2019  5 20  8 25 50.0002694  0 26
C12  25311807.001                       -2564.852          23.975  
C13  38865369.465   202382199.516        1613.741          31.009  
C20  25746381.051   134068082.865         177.748          34.840  
C23  22352230.073   116393994.721        1493.733          34.858  
C24  26588070.562   138451031.570       -2828.146          27.303  
C25  22238398.877   115801303.635       -1300.646          27.116  
E03                                                                  25569919.613   134370840.760       -1418.271          35.599    25569921.712   100341861.973       -1059.096          37.568  
E05                                                                  27349783.839   143724027.080       -2975.223          29.502    27349774.245   107326357.046       -2221.794          32.135  
E11                                                                  24818307.843   130421007.186        3091.432          31.321    24818304.545    97392252.011        2308.478          23.074  
E12                                                                  23427945.371   123114684.563         976.148          28.758  
E25                                                                  23130704.447   121552659.360        1007.833          41.555    23130704.746    90769852.692         752.620          41.666  
G02  24996903.504   131359599.072        3043.931          24.301  
G06                                                                  23896213.695    93773878.745        2008.385          34.526  
G12  20749869.364   109041275.672        1911.958          47.685  
G15  23731594.059   124710396.136       -3442.087          39.751  
G17  22909978.952   120392772.609       -2380.072          40.687  
G19  21203105.795   111422925.313       -1138.283          34.896  
G24  20196075.648   106131137.997        -138.669          40.623    20196080.444    79253755.928        -103.555          43.732  
G25  23902503.641   125608435.969        3349.005          26.779    23902481.157    93798537.398        2500.850          32.434  
G32  24367798.624   128053726.601        2934.156          34.322    24367810.316    95624500.787        2191.091          29.225  
R01  21809078.989                       -2099.775          20.767  
R02  22855909.883   121963458.734        2165.837          39.019  
R09  22021775.742   117595162.331       -2890.338          28.420  
R10  19552259.652   104224488.274        -593.395          33.021  
R11  20998409.304   112209205.220        2704.418          30.327  
R21  22894544.736   122513273.835        4626.853          35.335  
> 2019  5 20  8 25 51.0002695  0 26
C12  25312330.138   131807947.4961      -2564.955          24.996  
C13  38865087.360   202380742.083        1613.542          30.511  
C20  25746375.655   134068061.832         177.142          34.412  
C23  22351974.650   116392657.381        1493.450          35.296  
C24  26588643.765                       -2828.334          26.939  
C25  22238675.585                       -1305.515          24.226  
E03                                                                  25570219.405   134372417.001       -1418.700          35.693    25570222.703   100343039.035       -1059.417          37.913  
E05                                                                  27350378.627   143727159.893       -2975.271          29.131    27350369.933   107328696.530       -2221.839          31.951  
E11                                                                  24817756.225   130418073.409        3091.319          31.530    24817748.130                        2307.532          22.672  
E12                                                                  23427788.879   123113866.322         975.783          28.313  
E25                                                                  23130540.760   121551809.244        1007.658          41.401    23130542.858    90769217.869         752.468          41.800  
G02  24996356.383   131356712.474        3044.140          24.438  
G06                                                                  23895731.030    93771988.188        2008.202          34.460  
G12  20749534.196   109039521.657        1911.558          47.724  
G15  23732279.984   124713995.949       -3442.271          39.762  
G17  22910466.114   120395310.645       -2380.493          40.976  
G19  21203359.720   111424221.844       -1138.989          35.381  
G24  20196133.208   106131434.803        -139.265          41.064    20196135.906    79253977.545        -103.971          43.668  
G25  23901893.863   125605244.660        3348.851          25.170    23901873.477    93796154.316        2500.727          32.549  
G32  24367272.788   128050950.446        2933.696          34.474    24367280.583    95622427.706        2190.726          28.974  
R01  21809502.296                       -2099.467          18.273  
R02  22855542.337   121961453.669        2165.040          38.870  
R09  22022361.836   117598213.039       -2890.621          28.399  
R10  19552378.070   104225241.841        -593.761          33.758  
R11  20997939.229   112206661.256        2704.164          31.527  
R21  22893711.913   122508807.600        4626.660          36.578  
> 2019  5 20  8 25 52.0002695  0 26
C12  25312821.498                       -2564.997          24.881  
C13  38864777.974   202379128.762        1613.321          30.333  
C20  25746339.980   134067885.213         176.619          34.163  
C23  22351686.849   116391164.174        1493.207          35.314  
C24  26589185.790   138456844.6801      -2828.278          26.266  
C25  22238915.119                       -1304.191          22.300  
E03                                                                  25570486.820   134373836.132       -1419.131          35.416    25570492.217   100344098.783       -1059.748          37.861  
E05                                                                  27350939.838   143730135.368       -2975.475          29.876    27350936.541   107330918.424       -2221.895          31.605  
E11                                                                  24817163.535   130414982.226        3091.182          31.313    24817161.137                        2308.014          23.126  
E12                                                                  23427600.909   123112891.242         975.080          28.140  
E25                                                                  23130350.392   121550801.838        1007.406          41.444    23130350.991    90768465.572         752.297          41.809  
G02  24995782.280                        3044.104          24.489  
G06                                                                  23895219.883    93769980.265        2007.923          34.430  
G12  20749171.448   109037610.505        1911.152          47.823  
G15  23732935.331   124717438.392       -3442.443          39.592  
G17  22910917.602   120397691.531       -2380.886          41.161  
G19  21203571.373   111425361.553       -1139.709          35.365  
G24  20196158.390   106131574.550        -139.747          41.232    20196162.288    79254081.934        -104.389          43.650  
G25  23901252.008                        3348.781          23.747    23901236.718    93793653.757        2500.559          32.247  
G32  24366719.371   128048017.120        2933.326          35.078    24366721.770    95620237.251        2190.454          28.926  
R01  21809832.367                       -2102.785          21.740  
R02  22855139.116   121959289.359        2164.310          38.130  
R09  22022900.863   117601103.888       -2890.849          28.752  
R10  19552502.184   104225836.081        -594.241          35.234  
R11  20997439.175   112203957.393        2703.862          31.667  
R21  22892844.913   122504181.113        4626.487          36.873  
> 2019  5 20  8 25 53.0002696  0 25
C12  25313339.540                       -2567.971          24.235  
C13  38864499.467   202377671.832        1613.040          30.505  
C20  25746338.481   134067865.494         175.829          34.009  
C23  22351432.925   116389827.635        1492.648          35.191  
C24  26589761.391   138459829.460       -2828.670          26.864  
E03                                                                  25570788.711   134375413.481       -1419.806          35.431    25570792.309   100345276.666       -1060.238          37.904  
E05                                                                  27351537.625   143733268.644       -2975.734          29.718    27351532.828   107333258.178       -2222.109          31.737  
E11                                                                  24816603.223   130412049.020        3090.749          31.122    24816602.923    97385562.5931       2308.037          23.823  
E12                                                                  23427447.116                         973.926          28.622  
E25                                                                  23130185.206   121549952.392        1006.988          41.068    23130189.403    90767831.264         751.953          41.868  
G02  24995240.255                        3047.018          22.970  
G06  23894722.828   125567717.8601       2688.243          34.302    23894738.417    93768090.500        2007.410          34.257  
G12  20748836.579   109035857.615        1910.432          47.546  
G15  23733617.359   124721038.748       -3442.814          39.862  
G17  22911400.867   120400230.619       -2381.546          40.841  
G19  21203824.098   111426659.744       -1140.649          35.426  
G24  20196214.751   106131872.645        -140.553          41.146    20196219.248    79254304.539        -104.961          43.940  
G25  23900651.223                        3347.796          24.353    23900630.838    93791271.142        2500.260          32.233  
G32  24366194.734   128045242.015        2932.647          35.160    24366194.435    95618164.911        2189.985          29.355  
R01  21810266.767                       -2105.981          23.518  
R02  22854748.487   121957286.071        2163.263          37.891  
R09  22023468.670   117604155.257       -2891.281          28.418  
R10  19552651.181   104226590.904        -595.017          35.880  
R11  20996960.107   112201414.152        2703.442          31.869  
R21  22892003.096   122499715.521        4626.017          37.281  
> 2019  5 20  8 25 54.0002696  0 25
C12  25313833.897                       -2567.025          24.043  
C13  38864190.980   202376059.271        1612.561          30.173  
C20  25746302.506   134067690.419         175.075          33.234  
C23  22351146.923   116388335.476        1492.160          36.205  
C24  26590303.116   138462658.379       -2828.919          27.146  
E03                                                                  25571058.525   134376833.908       -1420.427          35.351    25571063.021   100346337.388       -1060.722          37.971  
E05                                                                  27352104.232   143736244.604       -2975.960          29.264    27352100.035   107335480.420       -2222.242          31.969  
E11                                                                  24816013.831   130408958.652        3090.368          31.163  
E12                                                                  23427264.542   123111100.6091        973.762          28.781  
E25                                                                  23129995.138   121548945.825        1006.567          40.913    23129998.135    90767079.596         751.668          41.877  
G02  24994645.767                        3045.622          22.825  
G06  23894214.679   125565030.169        2687.691          34.917    23894227.271    93766083.406        2007.094          34.798  
G12  20748474.130   109033947.747        1909.868          47.599  
G15  23734276.003   124724481.913       -3443.165          39.756  
G17  22911855.952   120402612.733       -2382.114          41.105  
G19  21204042.947   111427801.272       -1141.529          36.259  
G24  20196241.733   106132013.947        -141.303          41.602    20196246.230    79254410.051        -105.511          44.014  
G25  23900010.267   125595358.1641       3347.830          24.646    23899992.579    93788771.157        2499.985          32.129  
G32  24365635.322   128042309.914        2932.101          35.031    24365636.221    95615975.296        2189.615          29.269  
R01  21810657.096                       -2105.730          26.044  
R02  22854357.857   121955123.717        2162.354          37.952  
R09  22023991.808   117607047.048       -2891.791          28.317  
R10  19552755.809   104227186.513        -595.609          36.160  
R11  20996451.359   112198711.154        2702.998          31.570  
R21  22891139.094   122495089.859        4625.662          36.926  
> 2019  5 20  8 25 55.0002697  0 25
C12  25314357.635                       -2565.621          24.143  
C13  38863912.473   202374602.682        1612.699          30.268  
C20  25746292.013   134067671.723         174.806          32.734  
C23  22350887.303   116386999.447        1492.139          35.385  
C24  26590874.221   138465643.234       -2828.746          27.176  
E03                                                                  25571355.919   134378411.987       -1420.537          34.977    25571363.114   100347515.814       -1060.781          38.119  
E05                                                                  27352710.413   143739377.849       -2975.703          29.166    27352695.723   107337820.249       -2222.184          31.614  
E11                                                                  24815458.316   130406025.680        3090.514          31.614  
E12                                                                  23427109.250   123110284.660         973.491          29.274  
E25                                                                  23129833.250   121548096.704        1006.663          40.840    23129836.547    90766445.527         751.714          41.999  
G02  24994088.153                        3042.884          22.894  
G06  23893734.712   125562500.021        2687.690          35.272    23893745.204    93764194.035        2007.016          34.750  
G12  20748140.461   109032195.589        1909.701          47.867  
G15  23734965.525   124728082.456       -3443.001          39.804  
G17  22912334.421   120405152.558       -2382.282          40.773  
G19  21204296.571   111429100.760       -1141.945          35.516  
G24  20196296.895   106132313.064        -141.575          41.830    20196303.190    79254633.395        -105.699          44.129  
G25  23899405.586   125592167.300        3348.406          23.510    23899385.500    93786388.710        2500.092          32.174  
G32  24365110.985   128039535.503        2931.953          34.906    24365109.486    95613903.509        2189.432          29.719  
R01  21811107.385   116592814.5161      -2105.712          27.388  
R02  22853969.026   121953121.904        2161.788          37.098  
R09  22024594.091   117610098.829       -2891.694          29.352  
R10  19552905.105   104227942.100        -595.780          37.290  
R11  20995960.599   112196168.404        2702.950          30.774  
R21  22890306.870   122490624.591        4625.694          36.671  
> 2019  5 20  8 25 56.0002697  0 25
C12  25314858.288                       -2564.744          25.268  
C13  38863602.188   202372988.873        1613.808          30.670  
C20  25746260.835   134067496.213         175.510          32.377  
C23  22350600.701   116385506.222        1493.225          34.771  
C24  26591421.342   138468470.679       -2827.444          26.833  
E03                                                                  25571626.032   134379831.639       -1419.652          35.385    25571633.826   100348575.935       -1060.120          38.128  
E05                                                                  27353270.725   143742352.387       -2974.538          28.877    27353261.431   107340041.430       -2221.181          31.842  
E11                                                                  24814870.722   130402933.970        3091.710          32.290  
E12                                                                  23426924.578   123109310.350         974.310          29.905  
E25                                                                  23129639.884   121547088.967        1007.737          40.632    23129644.380    90765692.992         752.535          41.854  
G02  24993513.750                        3045.992          23.218  
G06  23893220.568   125559811.370        2688.651          35.036    23893233.159    93762186.344        2007.691          34.400  
G12  20747775.614   109030284.998        1910.590          47.626  
G15  23735614.576   124731524.334       -3441.878          39.728  
G17  22912791.305   120407533.902       -2381.345          40.701  
G19  21204507.025   111430242.117       -1141.357          34.269  
G24  20196326.874   106132453.826        -140.762          42.258    20196330.471    79254738.532        -105.138          44.158  
G25  23898779.020   125588818.217        3349.082          23.821    23898748.141    93783887.836        2500.873          31.528  
G32  24364548.274   128036602.627        2932.875          35.179    24364550.673    95611713.357        2190.152          29.478  
R01  21811491.419   116594919.753       -2105.237          26.825  
R02  22853565.506   121950959.534        2162.370          36.444  
R09  22025140.612   117612989.374       -2890.545          30.403  
R10  19553016.328   104228537.061        -594.961          38.146  
R11  20995447.354   112193464.356        2704.049          30.528  
R21  22889443.468   122485997.704        4626.886          36.284  
> 2019  5 20  8 25 57.0002698  0 26
C12  25315382.625                       -2563.694          25.677  
C13  38863324.280   202371529.235        1615.748          31.046  
C20  25746251.841   134067475.292         177.030          31.597  
C23  22350346.777   116384167.395        1494.937          35.381  
C24  26591993.946   138471451.843       -2825.055          26.898  
C25  22240241.401   115810755.5091      -1299.263          26.795  
E03                                                                  25571925.524   134381407.184       -1418.003          35.305    25571933.619   100349752.480       -1058.901          38.497  
E05                                                                  27353866.113   143745482.336       -2972.406          29.842    27353856.819   107342378.772       -2219.697          31.840  
E11                                                                  24814310.710   130399997.949        3093.563          32.884    24814312.809                        2310.139          25.900  
E12                                                                  23426767.786   123108491.947         975.945          29.568  
E25                                                                  23129477.396   121546236.863        1009.646          40.284    23129482.492    90765056.686         753.951          41.664  
G02  24992961.833                        3046.147          21.127  
G06  23892740.900   125557278.568        2690.344          35.065    23892751.392    93760294.914        2009.075          34.328  
G12  20747441.645   109028530.310        1912.230          47.425  
G15  23736300.501   124735121.829       -3439.953          39.684  
G17  22913274.270   120410071.161       -2379.716          41.369  
G19  21204751.056   111431539.639       -1139.980          33.878  
G24  20196383.235   106132750.610        -139.242          42.495    20196386.832    79254960.145        -103.968          44.310  
G25  23898165.344   125585624.765        3350.995          23.993    23898140.462    93781503.140        2502.341          31.386  
G32  24364026.336   128033825.602        2934.567          35.378    24364021.539                        2191.586          29.116  
R01  21811908.430   116597183.786       -2103.776          27.372  
R02  22853196.761   121948955.790        2163.719          36.444  
R09  22025706.920   117616038.213       -2888.751          30.416  
R10  19553161.128   104229290.162        -593.294          38.315  
R11  20994954.495   112190918.612        2705.944          29.028  
R21  22888599.852   122481529.263        4628.867          36.890  
> 2019  5 20  8 25 58.0002698  0 26
C12  25315871.587   131826372.3221      -2562.924          25.733  
C13  38863013.695   202369912.515        1616.720          30.461  
C20  25746220.962   134067297.537         177.755          31.871  
C23  22350062.274   116382671.475        1495.919          35.870  
C24  26592534.771                       -2822.554          26.591  
C25  22240486.032   115812054.329       -1298.820          27.618  
E03                                                                  25572190.841   134382824.349       -1417.165          35.614    25572204.331   100350810.742       -1058.262          38.466  
E05                                                                  27354431.221   143748453.590       -2971.255          29.997    27354422.527   107344597.547       -2218.774          31.722  
E11                                                                  24813721.618   130396903.280        3094.669          32.806    24813721.318    97374252.4151       2311.068          25.853  
E12                                                                  23426583.114   123107515.245         976.702          29.947    23426587.311                         729.540          24.580  
E25                                                                  23129287.927   121545226.175        1010.688          40.458    23129290.026    90764301.957         754.729          41.748  
G02  24992363.147                        3046.548          20.972  
G06  23892229.454   125554587.250        2691.318          35.781    23892238.747    93758285.191        2009.723          34.376  
G12  20747077.697   109026617.200        1913.110          47.534  
G15  23736957.346   124738560.675       -3438.846          40.437  
G17  22913728.456   120412449.986       -2378.825          41.460  
G19  21204977.699   111432679.046       -1139.407          33.450  
G24  20196410.516   106132889.108        -138.498          42.567    20196412.914    79255063.562        -103.417          44.209  
G25  23897523.789                        3350.529          22.425    23897502.503    93779000.008        2503.132          31.529  
G32  24363472.019   128030890.155        2935.447          35.783    24363463.925    95607447.5531       2192.085          29.281  
R01  21812286.768   116599287.016       -2103.231          27.239  
R02  22852779.450   121946791.495        2164.295          35.578  
R09  22026256.740   117618925.835       -2887.622          30.731  
R10  19553261.259   104229882.636        -592.475          37.762  
R11  20994447.846   112188211.669        2706.943          29.504  
R21  22887731.353   122476899.376        4629.887          37.434  
