     3.03           OBSERVATION DATA    M: Mixed            RINEX VERSION / TYPE
Geo++ RINEX Logger  Geo++               20190520 084908 UTC PGM / RUN BY / DATE
************************************************************COMMENT
This file was generated by the Geo++ RINEX Logger App       COMMENT
for Android devices (Version   2.1). If you encounter       COMMENT
any issues, please send an email to android@geopp.de        COMMENT
************************************************************COMMENT
Geo++                                                       MARKER NAME
GEODETIC                                                    MARKER TYPE
Geo++               Geo++                                   OBSERVER / AGENCY
unknown             Xiaomi              MI 8                REC # / TYPE / VERS
unknown             MI 8                                    ANT # / TYPE
3995138.2973 1385115.3636  4759467.0299                     APPROX POSITION XYZ
        0.0000        0.0000        0.0000                  ANTENNA: DELTA H/E/N
G    8 C1C L1C D1C S1C C5Q L5Q D5Q S5Q                      SYS / # / OBS TYPES
R    4 C1C L1C D1C S1C                                      SYS / # / OBS TYPES
E   12 C1B L1B D1B S1B C1C L1C D1C S1C C5Q L5Q D5Q S5Q      SYS / # / OBS TYPES
C    4 C2I L2I D2I S2I                                      SYS / # / OBS TYPES
J    8 C1C L1C D1C S1C C5Q L5Q D5Q S5Q                      SYS / # / OBS TYPES
  2019     5    20     8    49   26.9966500     GPS         TIME OF FIRST OBS
 24 R01  1 R02 -4 R03  5 R04  6 R05  1 R06 -4 R07  5 R08  6 GLONASS SLOT / FRQ #
    R09 -2 R10 -7 R11  0 R12 -1 R13 -2 R14 -7 R15  0 R16 -1 GLONASS SLOT / FRQ #
    R17  4 R18 -3 R19  3 R20  2 R21  4 R22 -3 R23  3 R24  2 GLONASS SLOT / FRQ #
G L1C                                                       SYS / PHASE SHIFT
G L5Q -0.25000                                              SYS / PHASE SHIFT
R L1C                                                       SYS / PHASE SHIFT
E L1B                                                       SYS / PHASE SHIFT
E L1C +0.50000                                              SYS / PHASE SHIFT
E L5Q -0.25000                                              SYS / PHASE SHIFT
C L2I                                                       SYS / PHASE SHIFT
J L1C                                                       SYS / PHASE SHIFT
J L5Q -0.25000                                              SYS / PHASE SHIFT
 C1C    0.000 C1P    0.000 C2C    0.000 C2P    0.000        GLONASS COD/PHS/BIS
                                                            END OF HEADER
> 2019  5 20  8 49 26.9999665  3  1
Geo++                                                       MARKER NAME
> 2019  5 20  8 49 26.9999665  0 24
C08  38569216.487   200840030.6261        493.901          30.420  
C11  22269252.317   115961839.7071        944.087          36.069  
C12  26089180.536                       -2962.516          26.131  
C13  38482098.897                        1354.491          17.829  
C23  22026058.877   114695467.8531       1052.299          39.936  
C25  22675903.699   118079380.3621      -1752.968          33.559  
E03                                                                  26049991.066   136893627.4601      -1961.016          31.608    26049982.372   102225725.7621      -1464.471          30.137  
E08                                                                                                                                  24681967.929    96857343.0531        354.432          29.522  
E11                                                                  24043789.531   126350966.9911       2789.090          28.553    24043801.223    94353039.4851       2082.725          28.592  
E12                                                                  23283299.407   122354563.8661        251.988          28.023    23283309.900                         187.708          20.487  
E25                                                                                                                                  22921146.520    89947501.1591        526.909          21.758  
G02  24211556.688   127232588.8281       2907.019          34.256  
G12  20338341.259   106878704.6061       1297.734          28.586  
G17  23643663.732   124248290.7351      -2871.675          33.865  
G19  21659584.182   113821882.6561      -2060.246          30.454  
G24                                                                  20359696.675    79895822.2501       -682.582          34.254  
G25  23058037.453   121170804.3821       3065.858          32.633    23058008.973    90484578.8201       2289.412          36.405  
G32                                                                  23683006.995    92937205.6211       1700.988          29.630  
R01  22514181.257   120351201.0961      -3004.028          26.652  
R02  22454965.651   119823998.7331        994.798          31.230  
R09  22852796.538                       -3201.608          26.144  
R11  20354074.967   108766005.0301       2302.008          38.491  
R20  20128441.270   107635820.9911        430.926          33.733  
R21  21740374.052                        4195.986          19.145  
> 2019  5 20  8 49 27.9999666  0 25
C08  38569155.629   200839693.894         492.842          30.206  
C11  22269099.723   115961053.015         942.802          35.901  
C12  26089775.624   135856328.0961      -2963.109          25.811  
C13  38481860.262                        1354.660          17.181  
C23  22025889.494   114694572.819        1051.143          40.221  
C25  22676266.148   118081290.699       -1754.227          33.228  
E03                                                                  26050394.587   136895747.231       -1962.230          30.008    26050387.692   102227308.703       -1465.296          31.607  
E08                                                                                                                                  24681907.971    96857107.254         353.444          29.642  
E11                                                                  24043291.576   126348336.540        2787.993          28.251    24043299.970    94351075.099        2082.030          28.715  
E12                                                                  23283279.321   122354470.789         250.619          29.134    23283294.910                         181.544          19.769  
E25                                                                                                                                  22921039.495    89947092.683         526.121          23.326  
G02  24211040.146   127229840.341        2906.029          33.368  
G12  20338127.507   106877565.613        1296.535          29.241  
G15  24702744.146   129813814.8291      -3562.009          24.609  
G17  23644233.937   124251321.013       -2872.736          33.592  
G19  21660008.988   113824102.020       -2061.822          31.940  
G24                                                                  20359901.434    79896623.564        -683.669          35.566  
G25  23057479.539   121167897.073        3064.852          33.058    23057454.357    90482407.781        2288.685          36.361  
G32  23682595.680                        2275.767          21.726    23682605.573    92935623.177        1700.089          30.116  
R01  22514787.137                       -3003.784          26.703  
R02  22454815.455   119823165.627         993.081          31.265  
R09  22853419.507                       -3202.372          26.017  
R11  20353675.943   108763864.378        2300.852          39.887  
R20  20128394.802   107635552.170         429.133          34.746  
R21  21739671.039                        4198.989          19.189  
> 2019  5 20  8 49 28.9999666  0 24
C08  38569064.792                         491.454          29.705  
C11  22268918.049   115960111.408         941.607          36.863  
C12  26090344.930   135859292.125       -2964.029          26.512  
C23  22025694.629   114693522.475        1050.344          37.432  
C25  22676607.311                       -1755.090          32.527  
E03                                                                  26050764.831   136897710.297       -1963.066          28.834    26050760.933   102228774.658       -1465.955          32.403  
E11                                                                  24042760.044   126345549.285        2787.255          27.865    24042772.635    94348993.662        2081.437          27.688  
E12                                                                  23283231.354   122354221.189         249.600          27.919    23283252.340                         182.442          18.790  
E25                                                                                                                                  22920909.984    89946566.987         525.696          25.235  
G02  24210487.328   127226934.961        2905.379          32.769  
G06  23267381.627   122270985.2321       2091.155          28.842    23267388.522                        1561.098          27.367  
G12  20337889.772   106876270.510        1295.103          27.204  
G15  24703413.583   129817377.586       -3562.757          29.936  
G17  23644776.862   124254194.623       -2873.610          33.036  
G19  21660403.814                       -2065.022          29.405  
G24                                                                  20360074.114    79897307.992        -684.428          35.651  
G25  23056888.648   121164833.098        3063.974          33.347    23056871.860    90480119.693        2288.088          35.522  
G32  23682163.379                        2277.352          18.227    23682169.975    92933923.989        1699.188          30.547  
R01  22515335.158   120357373.0781      -3006.432          26.265  
R02  22454623.288   119822173.981         991.646          28.288  
R09  22854011.297                       -3205.861          25.081  
R11  20353246.641   108761564.512        2299.866          41.096  
R20  20128305.164   107635124.585         427.585          35.019  
R21  21738767.464                        4202.771          22.594  
> 2019  5 20  8 49 29.9999666  0 24
C08  38568973.655   200838710.9811        491.322          30.381  
C11  22268737.274   115959170.712         940.696          36.143  
C12  26090912.137   135862256.691       -2964.567          26.181  
C13  38481296.353                        1356.418          23.462  
C23  22025494.068   114692473.016        1049.458          38.285  
C25  22676946.676   118084802.1221      -1755.897          30.879  
E03                                                                  26051142.569                       -1964.151          28.384    26051134.175   102230241.200       -1466.542          31.535  
E11                                                                  24042228.512   126342762.669        2786.616          26.666    24042242.902    94346912.684        2080.978          27.245  
E12                                                                  23283183.088   122353972.555         248.634          28.930    23283205.872                         190.077          19.254  
E25                                                                                                                                  22920774.778    89946042.039         524.948          25.680  
G02  24209937.809   127224030.264        2904.698          33.442  
G06  23266985.901   122268895.062        2090.170          30.948    23266986.500    91304660.0771       1560.905          26.720  
G12  20337625.955   106874975.913        1294.598          29.774  
G17  23645328.780   124257069.048       -2874.424          33.937  
G19  21660793.844   113828229.6631      -2063.579          29.992  
G24                                                                  20360249.193    79897993.188        -685.196          35.477  
G25  23056304.053   121161769.722        3063.376          34.032    23056288.763    90477832.182        2287.510          35.768  
G32                                                                  23681737.374    92932225.516        1698.473          30.213  
R01  22515863.692                       -3007.556          25.149  
R02  22454442.813   119821183.586         990.395          27.626  
R09  22854601.888                       -3203.751          24.095  
R11  20352813.740   108759265.333        2299.179          40.731  
R20  20128222.122   107634698.407         426.178          34.743  
R21  21737983.507                        4198.589          25.341  
> 2019  5 20  8 49 30.9999667  0 24
C08  38568912.198   200838376.380         490.710          29.697  
C11  22268588.277   115958387.354         939.469          33.516  
C12  26091513.521   135865378.165       -2965.364          26.825  
C13  38481061.615   200380946.5731       1355.527          25.830  
C23  22025321.987   114691580.402        1048.724          37.968  
C25  22677312.723   118086714.790       -1756.558          32.207  
E03                                                                  26051547.589                       -1965.496          27.341    26051537.696   102231826.027       -1467.182          31.287  
E11                                                                  24041731.156                        2788.348          22.230    24041744.347                        2080.224          25.782  
E12                                                                  23283164.201   122353882.562         247.535          27.300    23283186.685                         185.494          18.058  
E25                                                                                                                                  22920671.649    89945635.244         524.440          26.587  
G02  24209412.572   127221283.765        2904.041          32.462  
G06  23266617.756   122266962.911        2089.693          30.765  
G12  20337405.907                        1293.148          26.363  
G17  23645901.383   124260101.722       -2875.132          33.274  
G19  21661216.852                       -2065.781          27.732  
G24  20360481.832                        -922.964          22.743    20360454.251    79898796.838        -686.005          34.175  
G25  23055751.835   121158864.655        3062.609          33.835    23055736.246    90475662.761        2287.067          36.934  
G32                                                                  23681335.652    92930645.385        1697.776          31.244  
R01  22516478.866   120363549.3391      -3008.537          24.884  
R02  22454291.418   119820354.588         988.972          26.099  
R09  22855223.658                       -3202.234          22.515  
R11  20352412.918   108757127.226        2298.307          39.179  
R20  20128184.048   107634434.094         424.626          34.814  
R21  21737239.422                        4196.405          24.602  
> 2019  5 20  8 49 31.9999667  0 25
C08  38568815.964   200837886.497         489.884          29.768  
C11  22268409.301   115957449.038         938.316          32.821  
C12  26092082.227   135868344.393       -2966.228          27.003  
C13  38480795.999   200379591.939        1354.634          25.400  
C23  22025123.524   114690532.724        1047.678          37.979  
C25  22677645.193   118088472.334       -1757.543          32.628  
E02                                                                                                                                  26656145.934   104604419.7301       1791.208          25.634  
E03                                                                  26051922.329                       -1966.354          25.352    26051911.837   102233293.909       -1467.881          31.410  
E11                                                                  24041196.626                        2788.442          19.302    24041213.114                        2079.858          25.452  
E12                                                                  23283117.733   122353636.109         246.453          27.433  
E25                                                                                                                                  22920538.242    89945111.346         523.898          27.155  
G02  24208860.355   127218380.579        2903.186          32.886  
G06  23266225.028   122264874.843        2088.068          32.148  
G12  20337176.266                        1294.021          21.929  
G17  23646448.804   124262977.787       -2876.065          33.039  
G19  21661614.976   113832518.4251      -2066.170          27.476  
G24  20360666.504                        -931.139          21.125    20360629.929    79899483.730        -686.892          34.370  
G25  23055162.743   121155802.869        3061.787          33.937    23055153.749    90473376.376        2286.385          37.400  
G32  23680887.763                        2271.230          22.706    23680902.153    92928948.538        1696.846          32.059  
R01  22517055.067   120366558.891       -3009.551          25.076  
R02  22454109.743   119819367.205         987.384          25.847  
R09  22855825.941                       -3205.580          22.264  
R11  20351980.017   108754829.886        2297.341          39.483  
R20  20128096.809   107634011.024         423.070          35.081  
R21  21736464.159   116316097.8171       4196.943          25.757  
> 2019  5 20  8 49 32.9999668  0 25
C08  38568754.807   200837553.084         489.523          29.688  
C11  22268254.308   115956667.934         937.213          32.896  
C12  26092679.414                       -2967.529          26.809  
C13  38480568.757                        1354.334          25.160  
C23  22024952.942   114689642.071        1046.763          38.270  
C25  22678013.638   118090386.349       -1757.906          32.618  
E02                                                                                                                                  26655716.332   104602746.480        1790.895          25.618  
E03                                                                  26052330.047   136905886.2521      -1966.589          25.743    26052315.957   102234880.127       -1468.574          31.228  
E11                                                                  24040690.576   126334722.9641       2784.209          18.632    24040713.360    94340909.1591       2078.895          25.871  
E12                                                                  23283100.945   122353548.452         245.198          27.031  
E25                                                                                                                                  22920434.513    89944705.733         523.258          26.992  
G02  24208347.710   127215635.657        2902.463          33.719  
G06  23265860.780   122262945.384        2087.001          33.309  
G12  20336976.904                        1294.081          19.337  
G17  23647034.299   124266012.271       -2876.942          33.115  
G19  21662042.480   113834743.384       -2067.417          27.023  
G24  20360854.474                        -929.420          18.307    20360834.987    79900289.087        -687.712          34.444  
G25  23054609.926   121152899.484        3060.927          33.979    23054600.932    90471208.229        2285.792          37.289  
G32  23680487.540   124441732.5501       2271.114          24.043    23680499.531    92927370.146        1696.038          32.058  
R01  22517620.176   120369729.859       -3010.712          24.930  
R02  22453945.757                         986.016          23.978  
R09  22856439.916                       -3213.941          20.801  
R11  20351583.392   108752693.703        2296.382          39.051  
R20  20128050.640   107633749.777         421.559          35.203  
R21  21735724.571   116312062.269        4195.973          27.783  
> 2019  5 20  8 49 33.9999668  0 25
C08  38568660.972   200837064.667         488.416          28.908  
C11  22268076.531   115955731.845         936.090          34.545  
C12  26093252.917                       -2967.444          25.393  
C13  38480310.935   200377041.2951       1353.029          25.447  
C23  22024751.182   114688596.048        1046.024          38.046  
C25  22678354.802   118092145.444       -1759.094          31.659  
E02                                                                                                                                  26655260.947   104600956.000        1790.480          24.760  
E03                                                                  26052694.595                       -1968.129          26.478    26052690.098   102236349.359       -1469.232          30.927  
E11                                                                  24040187.524   126331939.957        2783.008          21.150    24040182.728    94338830.824        2078.335          26.444  
E12                                                                  23283050.280                         243.214          27.705  
E25                                                                                                                                  22920301.406    89944182.944         522.789          26.759  
G02  24207792.494   127212733.919        2901.738          34.963  
G06  23265462.056   122260859.445        2085.939          33.837    23265453.362    91298659.7181       1557.747          24.644  
G15  24706864.793   129835514.8201      -3565.683          25.149  
G17  23647576.024   124268889.974       -2877.703          33.585  
G19  21662434.609   113836811.919       -2068.535          28.215  
G24                                                                  20361010.366    79900977.637        -688.550          34.640  
G25  23054028.928   121149839.284        3060.199          33.717    23054019.335    90468923.015        2285.213          36.676  
G32  23680063.933                        2267.827          24.407    23680068.130    92925674.867        1695.278          31.228  
R01  22518178.689   120372741.707       -3011.848          25.636  
R02  22453765.282                         981.980          22.086  
R09  22857020.914                       -3216.865          17.744  
R11  20351144.196   108750398.178        2295.525          39.154  
R20  20127974.493   107633329.838         419.940          34.805  
R21  21734916.031   116307867.067        4195.202          28.694  
> 2019  5 20  8 49 34.9999669  0 24
C08  38568595.917   200836733.441         487.336          30.340  
C11  22267924.237   115954952.984         934.971          34.313  
C12  26093850.103   135877559.9441      -2968.620          25.508  
C13  38480082.193                        1349.900          23.441  
C23  22024582.699   114687707.298        1044.859          39.126  
C25  22678722.947   118094061.754       -1760.200          33.126  
E02                                                                                                                                  26654833.443   104599283.677        1789.968          25.164  
E03                                                                  26053106.809                       -1968.077          26.200    26053097.216   102237936.948       -1469.944          31.231  
E11                                                                  24039679.076   126329315.093        2782.406          23.535  
E12                                                                  23283035.890   122353218.5931        243.142          28.047    23283028.994                         177.950          21.377  
G02  24207268.157   127209990.433        2901.028          36.751  
G06  23265102.904   122258932.089        2084.898          32.764  
G12  20336484.944                        1288.252          26.265  
G15  24707568.406   129839238.447       -3566.085          32.656  
G17  23648154.923   124271926.170       -2878.654          33.801  
G24                                                                  20361215.424    79901784.643        -689.360          34.923  
G25  23053474.312   121146937.542        3059.284          32.971    23053467.417    90466756.064        2284.596          37.003  
G32  23679668.207                        2268.733          22.971    23679667.907    92924098.124        1694.388          30.631  
R01  22518810.652   120375914.954       -3012.991          27.333  
R02  22453597.698                         979.730          21.329  
R09  22857594.117                       -3211.887          17.744  
R11  20350741.875   108748263.702        2294.677          38.731  
R20  20127924.128   107633071.737         418.413          35.187  
R21  21734165.650   116303833.455        4194.037          30.545  
> 2019  5 20  8 49 35.9999669  0 24
C08  38568502.681   200836246.619         486.822          28.884  
C11  22267748.558   115954019.224         933.760          34.566  
C12  26094420.609   135880529.170       -2969.226          25.863  
C13  38479825.271                        1350.645          23.967  
C23  22024382.138   114686663.106        1044.192          37.995  
E02                                                                                                                                  26654374.461   104597494.106        1789.571          24.688  
E03                                                                  26053477.653   136911949.1351      -1969.396          27.128    26053471.357   102239407.519       -1470.572          31.751  
E11                                                                  24039153.241   126326533.450        2781.643          27.768  
E12                                                                  23282990.321   122352976.544         242.049          27.617    23282984.625                         180.905          22.205  
G02  24206718.637   127207090.133        2900.300          37.303  
G06  23264697.285   122256848.263        2083.826          33.621  
G12  20336235.517   106867698.9141       1288.848          26.099  
G15  24708248.336   129842805.137       -3566.690          36.925  
G17  23648705.942   124274805.589       -2879.420          33.872  
G19  21663240.750   113841110.5191      -2070.723          25.190  
G24  20361390.802   106999862.6301       -924.138          28.796    20361393.501    79902474.824        -690.181          35.314  
G25  23052888.218   121143878.770        3058.772          33.708    23052885.519    90464472.028        2284.036          37.207  
G32                                                                  23679235.906    92922404.540        1693.584          31.084  
R01  22519369.765   120378929.007       -3014.052          27.999  
R02  22453384.845                         983.489          20.033  
R09  22858203.295                       -3206.167          16.379  
R11  20350318.568   108745969.951        2293.750          39.715  
R20  20127855.476   107632654.861         416.877          35.385  
R21  21733384.091   116299640.548        4192.907          28.682  
> 2019  5 20  8 49 36.9999669  0 23
C08  38568411.544   200835760.496         486.123          29.746  
C11  22267566.584   115953086.342         932.882          35.024  
C12  26094993.812   135883499.209       -2970.039          26.201  
C13  38479565.951   200373142.4281       1351.009          25.553  
C23  22024179.478   114685619.726        1043.380          37.497  
E02                                                                                                                                  26653919.376   104595704.971        1789.135          25.367  
E03                                                                  26053853.892                       -1970.257          27.337    26053845.198   102240878.716       -1471.197          31.717  
E11                                                                  24038623.207   126323752.697        2780.753          28.643    24038617.811    94332717.1391       2076.578          29.193  
E12                                                                  23282944.453   122352735.279         241.265          27.419    23282939.356    91367360.4031        180.023          22.421  
G02  24206167.619   127204190.438        2899.695          36.755  
G06  23264303.358   122254765.298        2082.965          33.121    23264291.966    91294108.7701       1555.360          23.524  
G15  24708928.265   129846372.241       -3567.104          38.219  
G17  23649253.363   124277685.781       -2880.192          32.435  
G19  21663624.485   113843182.186       -2071.667          23.047  
G24  20361572.177   107000787.850        -925.220          28.469    20361568.280    79903165.750        -690.926          34.867  
G25  23052305.121   121140820.803        3057.967          33.550    23052303.622    90462188.455        2283.574          37.490  
G32                                                                  23678802.706    92920711.607        1692.933          31.203  
R01  22519937.871   120381944.029       -3015.022          28.424  
R02  22453170.194                         984.111          19.560  
R09  22858898.514                       -3203.691          19.184  
R11  20349891.963   108743676.915        2293.036          40.016  
R20  20127783.825   107632239.309         415.551          35.130  
R21  21732602.832   116295448.236        4192.312          30.624  
> 2019  5 20  8 49 37.9999670  0 24
C08  38568348.888   200835431.272         485.334          29.743  
C11  22267418.187   115952310.815         931.637          35.704  
C12  26095590.698   135886626.023       -2970.704          26.885  
C13  38479334.211                        1352.041          24.010  
C23  22024009.795   114684733.318        1042.518          37.680  
E02                                                                                                                                  26653492.771   104594034.002        1788.614          25.059  
E03                                                                  26054262.210   136916047.6701      -1970.988          27.577    26054250.218   102242468.197       -1471.836          31.788  
E08                                                                  24681171.381                         465.530          23.879    24681144.099                         351.209          20.400  
E11                                                                  24038123.753   126321130.075        2780.164          29.835    24038118.957    94330758.678        2076.106          27.935  
E12                                                                  23282926.465   122352652.811         240.011          28.100    23282924.367                         179.055          23.507  
G02  24205649.877   127201448.959        2899.021          36.387  
G06  23263931.915   122252840.943        2081.897          34.324    23263917.225                        1554.671          21.204  
G15  24709636.974   129850097.400       -3567.617          38.720  
G17  23649830.763   124280724.267       -2880.944          33.313  
G19  21664043.894                       -2072.939          21.498  
G24  20361777.235   107001871.819        -926.427          29.347    20361775.736    79903975.135        -691.740          35.212  
G25  23051755.002   121137921.085        3057.260          33.343    23051750.205    90460023.133        2282.967          37.005  
G32                                                                  23678402.483    92919137.116        1692.136          30.933  
R01  22520542.853                       -3016.971          29.474  
R02  22452979.526                         984.106          17.786  
R09  22859538.871                       -3203.411          14.520  
R11  20349492.939   108741545.028        2292.088          40.109  
R20  20127727.464   107631985.665         413.957          35.801  
R21  21731851.552   116291417.405        4191.255          31.463  
> 2019  5 20  8 49 38.9999670  0 23
C08  38568255.652   200834946.613         484.659          29.466  
C11  22267235.314   115951380.153         930.662          35.263  
C12  26096164.801                       -2971.492          25.979  
C13  38479063.499                        1346.574          22.513  
C23  22023813.431   114683691.667        1041.651          37.906  
E02                                                                                                                                  26653038.585   104592245.610        1788.393          25.219  
E03                                                                  26054636.650   136918019.467       -1971.796          26.635    26054624.659   102243940.596       -1472.399          31.255  
E08                                                                  24681107.825                         484.685          21.638  
E11                                                                  24037595.519   126318350.810        2779.265          30.200  
E12                                                                  23282882.096   122352413.659         239.152          28.199  
G02  24205098.259   127198550.644        2898.315          37.127  
G06  23263535.589   122250759.977        2080.966          34.991    23263529.594                        1554.835          22.131  
G15  24710314.505   129853665.553       -3568.153          36.556  
G17  23650375.186   124283606.011       -2881.744          32.871  
G19  21664438.721                       -2073.379          21.193  
G24  20361951.115   107002799.139        -927.320          27.082    20361953.513    79904667.648        -692.513          35.222  
G25  23051173.705   121134864.632        3056.453          33.719    23051170.107    90457740.669        2282.464          36.937  
G32                                                                  23677972.581    92917445.748        1691.368          30.865  
R01  22521101.666   120388137.4221      -3017.097          29.914  
R02  22452791.856                         980.673          12.563  
R11  20349052.844   108739253.707        2291.321          39.181  
R20  20127648.319   107631573.070         412.594          35.288  
R21  21731066.096   116287227.084        4190.321          35.300  
> 2019  5 20  8 49 39.9999671  0 23
C08  38568193.295   200834618.376         484.347          29.433  
C11  22267087.516   115950606.217         930.047          35.045  
C12  26096762.587   135892725.1431      -2971.654          25.612  
C13  38478834.757                        1346.815          22.657  
C23  22023643.149   114682806.429        1041.347          38.069  
E02                                                                                                                                  26652611.981   104590575.046        1788.209          24.680  
E03                                                                  26055039.871   136920149.133       -1972.125          25.873    26055030.278   102245530.958       -1472.717          31.104  
E08                                                                  24681033.476   129699567.2881        461.497          20.255  
E11                                                                  24037098.163   126315729.346        2779.006          29.825  
E12                                                                  23282866.207   122352332.637         238.564          28.392    23282864.708                         178.432          24.116  
G02  24204572.123   127195810.060        2898.126          37.044  
G06  23263165.046   122248837.143        2080.376          34.865    23263159.949    91289681.9451       1553.393          22.632  
G12  20335324.748   106862868.9251       1285.366          28.425  
G15  24711023.215   129857391.312       -3568.217          36.935  
G17  23650958.282   124286645.631       -2882.077          32.951  
G19  21664886.611                       -2077.810          23.926  
G24  20362160.669   107003884.651        -927.970          26.456    20362159.770    79905478.147        -692.854          35.222  
G25  23050619.388   121131965.861        3056.314          33.255    23050618.189    90455576.033        2282.281          37.065  
G32  23677583.450   124426331.1861       2264.468          26.084    23677572.358    92915872.468        1690.925          31.111  
R01  22521689.859   120391315.352       -3017.674          30.118  
R11  20348660.715   108737122.929        2290.978          39.382  
R20  20127594.956   107631321.919         411.464          35.154  
R21  21730313.317   116283197.689        4189.820          36.428  
> 2019  5 20  8 49 40.9999671  0 23
C08  38568100.060   200834132.658         485.718          29.285  
C11  22266907.041   115949675.247         930.970          35.195  
C12  26097333.092   135895695.527       -2970.384          25.955  
C13  38478580.833                        1350.665          21.994  
C23  22023442.888   114681763.923        1042.507          37.672  
E02                                                                                                                                  26652158.095   104588785.731        1789.314          24.640  
E03                                                                  26055413.712   136922120.027       -1970.894          25.065    26055405.318   102247002.793       -1471.834          30.901  
E08                                                                  24680958.828   129699104.703         462.584          21.913  
E11                                                                  24036570.229   126312949.025        2780.321          28.682    24036564.832    94324649.4101       2076.205          28.375  
E12                                                                  23282820.639   122352093.071         239.566          28.635    23282820.039    91366880.8071        178.931          23.690  
G02  24204020.205   127192910.562        2899.498          37.638  
G06  23262770.519   122246755.691        2081.451          34.320    23262763.324                        1553.783          22.174  
G12  20335085.213   106861582.519        1286.406          30.528  
G15  24711702.544   129860957.994       -3566.682          36.874  
G17  23651502.106   124289526.436       -2880.805          33.192  
G19  21665284.735   113851796.4911      -2073.662          23.801  
G24                                                                  20362334.849    79906170.353        -692.206          35.363  
G25  23050032.395   121128908.331        3057.530          32.950    23050036.592    90453292.766        2283.267          37.097  
G32                                                                  23677139.457    92914180.755        1691.712          31.151  
R01  22522254.068   120394331.985       -3016.632          30.234  
R11  20348234.410   108734830.688        2292.241          39.197  
R20  20127521.207   107630909.775         412.144          35.179  
R21  21729557.840   116279006.625        4191.064          32.551  
> 2019  5 20  8 49 41.9999672  0 23
C08  38568036.504   200833801.934         486.834          29.206  
C11  22266760.742   115948899.580         931.777          34.633  
C12  26097935.675   135898820.858       -2969.221          25.708  
C13  38478351.192                        1350.633          22.094  
C23  22023272.306   114680876.499        1043.534          37.212  
E02                                                                                                                                  26651730.291   104587113.135        1790.241          24.649  
E03                                                                  26055817.833   136924247.549       -1969.980          25.505    26055810.338   102248591.502       -1471.064          31.124  
E11                                                                  24036067.477   126310325.125        2781.442          29.274    24036065.378    94322690.019        2077.036          28.508  
E12                                                                  23282805.949   122352010.204         240.409          28.308    23282804.150    91366818.931         179.521          24.316  
G02  24203497.967   127190167.387        2900.718          37.467  
G06  23262403.273   122244830.920        2082.314          34.604    23262398.177                        1555.071          21.791  
G12  20334872.960   106860452.688        1287.373          32.188  
G15  24712412.153   129864680.816       -3565.280          37.734  
G17  23652080.405   124292563.649       -2879.670          32.692  
G19  21665704.445   113854027.060       -2073.027          25.441  
G24                                                                  20362542.006    79906979.528        -691.530          35.075  
G25  23049476.879   121126007.146        3058.726          32.272    23049484.374    90451126.308        2284.102          37.043  
G32                                                                  23676738.035    92912606.079        1692.321          31.074  
R01  22522850.655   120397507.988       -3015.748          30.165  
R09  22861953.099                       -3210.397          13.789  
R11  20347838.385   108732697.634        2293.253          39.397  
R20  20127475.039   107630657.600         412.488          35.097  
R21  21728791.271   116274975.052        4191.998          31.788  
> 2019  5 20  8 49 42.9999672  0 22
C08  38567943.868   200833314.795         487.140          29.645  
C11  22266576.670   115947967.765         931.815          34.400  
C12  26098505.281   135901789.711       -2968.854          25.714  
C13  38478098.467                        1352.469          22.942  
C23  22023073.843   114679832.663        1043.836          36.986  
E02                                                                                                                                  26651273.707   104585322.400        1790.735          24.471  
E03                                                                  26056195.871   136926217.196       -1969.647          27.248    26056184.779   102250062.287       -1470.786          31.090  
E11                                                                  24035540.142   126307543.416        2781.709          28.460    24035535.645    94320612.765        2077.254          28.963  
E12                                                                  23282762.479   122351769.674         240.530          28.089    23282758.881    91366639.479         179.453          25.415  
G02  24202945.150   127187266.267        2901.120          37.479  
G06  23262006.348   122242748.493        2082.426          34.860  
G12  20334639.722   106859165.174        1287.514          33.561  
G15  24713089.684   129868245.549       -3564.733          37.856  
G17  23652634.122   124295443.088       -2879.439          33.387  
G19  21666100.471   113856099.929       -2072.869          26.335  
G24                                                                  20362718.883    79907671.066        -691.538          35.278  
G25  23048899.179   121122948.049        3059.097          32.833    23048903.076    90448841.917        2284.391          36.859  
G32                                                                  23676308.133    92910913.650        1692.430          31.398  
R01  22523412.766   120400523.632       -3015.643          29.981  
R11  20347407.883   108730404.080        2293.555          39.446  
R20  20127402.789   107630245.419         412.180          35.204  
R21  21728022.603   116270782.799        4192.253          33.297  
> 2019  5 20  8 49 43.9999672  0 25
C08  38567850.033   200832829.043         485.752          29.904  
C11  22266397.094   115947037.789         929.976          34.473  
C12  26099079.383   135904760.005       -2970.294          25.701  
C13  38477841.245                        1352.639          23.992  
C20  25827873.036                        -603.271          15.870  
C23  22022868.785   114678790.478        1042.185          36.366  
E02                                                                                                                                  26650817.423   104583532.676        1789.724          25.070  
E03                                                                  26056567.014   136928188.460       -1971.264          28.172    26056561.018   102251534.336       -1472.048          31.272  
E08                                                                  24680696.509                         460.794          25.488  
E11                                                                  24035010.409   126304763.136        2780.279          28.286    24035006.211    94318536.665        2076.100          29.076  
E12                                                                  23282717.210   122351531.003         238.671          28.253    23282712.114    91366461.131         178.348          25.434  
G02  24202391.433   127184366.539        2899.728          37.038  
G06  23261602.228   122240667.762        2080.732          34.021  
G12  20334394.192   106857879.349        1285.825          33.912  
G15  24713769.613   129871811.533       -3565.983          37.968  
G17  23653182.443   124298323.977       -2880.889          34.002  
G19  21666494.398   113858174.606       -2074.677          26.408  
G24  20362901.457   107007748.9441       -927.795          24.903    20362894.262    79908363.877        -692.811          35.111  
G25  23048319.980   121119890.405        3057.644          33.030    23048319.980    90446558.606        2283.311          36.898  
G32                                                                  23675875.532    92909222.572        1691.078          31.260  
R01  22523992.564   120403541.116       -3017.484          30.516  
R09  22863178.651                       -3206.836          17.675  
R11  20346982.477   108728112.077        2292.002          39.049  
R20  20127334.436   107629835.458         409.961          34.676  
R21  21727235.648   116266592.234        4190.565          34.655  
> 2019  5 20  8 49 44.9999673  0 25
C08  38567785.278   200832500.656         484.497          29.644  
C11  22266248.997   115946265.496         928.403          33.746  
C12  26099675.671                       -2971.587          25.918  
C13  38477609.205                        1349.220          24.249  
C20  25828027.129                        -606.522          17.485  
C23  22022697.604   114677905.643        1040.944          35.209  
E02                                                                                                                                  26650392.317   104581861.392        1788.929          25.735  
E03                                                                  26056972.633   136930318.621       -1972.620          28.337    26056966.038   102253125.025       -1473.045          31.278  
E08                                                                  24680647.044   129697570.5821        460.293          25.389  
E11                                                                  24034511.554   126302141.742        2778.936          28.017    24034507.657    94316579.038        2075.272          29.209  
E12                                                                  23282700.122   122351451.268         237.277          27.571    23282698.323                         176.497          25.165  
G02  24201869.794   127181625.545        2898.536          36.866  
G06  23261244.276   122238746.131        2079.172          34.648  
G12  20334180.440   106856752.495        1284.396          34.761  
G15  24714480.721   129875536.088       -3567.013          37.944  
G17  23653755.346   124301363.746       -2882.226          33.662  
G19  21666919.204   113860408.495       -2076.347          26.588  
G24  20363118.806   107008835.902        -929.416          26.049    20363102.617    79909175.501        -693.979          35.266  
G25  23047759.068   121116991.570        3056.377          32.871    23047767.762    90444393.896        2282.355          37.020  
G32  23675509.786   124415591.2121       2263.067          30.132    23675476.808    92907650.331        1689.886          31.104  
R01  22524584.055   120406720.354       -3018.981          30.822  
R09  22863749.456                       -3213.087          16.179  
R11  20346576.258   108725981.665        2290.612          38.822  
R20  20127283.771   107629587.873         407.898          34.183  
R21  21726487.666   116262563.591        4189.067          35.382  
> 2019  5 20  8 49 45.9999673  0 26
C08  38567691.143   200832017.234         483.422          29.135  
C11  22266073.018   115945338.552         926.944          34.022  
C12  26100250.073   135910860.2021      -2972.576          26.032  
C13  38477347.487                        1348.432          22.610  
C20  25828147.046                        -607.994          17.357  
C23  22022492.246   114676865.972        1039.671          34.600  
E02                                                                                                                                  26649936.633   104580073.275        1788.117          25.437  
E03                                                                  26057347.074   136932292.446       -1973.825          28.430    26057341.678   102254599.019       -1473.994          31.684  
E08                                                                  24680542.116   129697111.634         458.947          25.505  
E11                                                                  24033985.118   126299363.968        2777.774          27.846    24033979.422    94314504.659        2074.379          29.181  
E12                                                                  23282655.453   122351215.546         235.722          27.911    23282655.753    91366225.5681        176.094          25.270  
G02  24201318.776   127178728.088        2897.457          37.042  
G06  23260848.250   122236668.362        2077.770          35.051  
G12  20333933.111   106855469.426        1283.069          34.701  
G15  24715158.252   129879103.982       -3567.894          37.639  
G17  23654307.564   124304247.083       -2883.337          34.203  
G19  21667314.630   113862486.314       -2077.819          25.989  
G24  20363305.577   107009766.607        -930.705          26.768    20363279.495    79909870.553        -695.052          35.204  
G25  23047175.073   121113936.273        3055.297          32.582    23047188.264    90442112.334        2281.562          37.266  
G32  23675078.684   124413329.608        2261.603          30.474    23675045.107    92905961.456        1688.875          30.894  
R01  22525142.268   120409740.793       -3020.440          30.880  
R02  22451712.303                         970.505          21.887  
R09  22864461.762                       -3218.697          16.185  
R11  20346145.457   108723692.220        2289.445          38.725  
R20  20127197.731   107629181.762         406.111          34.099  
R21  21725702.209   116258375.793        4187.798          36.133  
> 2019  5 20  8 49 46.9999674  0 27
C08  38567629.985   200831690.818         482.526          29.950  
C11  22265924.321   115944568.934         925.728          34.095  
C12  26100849.658   135913989.914       -2973.603          26.204  
C13  38477114.848                        1344.769          21.859  
C20  25828241.480                        -607.846          18.816  
C23  22022322.863   114675983.407        1038.674          34.669  
C25  22682928.735   118115998.0751      -1766.210          34.168  
E02                                                                                                                                  26649511.227   104578403.259        1787.660          25.545  
E03                                                                  26057750.295   136934424.807       -1974.819          28.822    26057746.697   102256191.366       -1474.702          31.526  
E08                                                                  24680479.160                         457.194          25.141  
E11                                                                  24033485.364   126296744.583        2776.927          27.754    24033482.666    94312548.753        2073.551          29.038  
E12                                                                  23282639.264   122351138.416         234.671          27.948    23282639.864    91366168.069         175.144          25.337  
G02  24200798.936   127175989.002        2896.627          37.276  
G06  23260485.501   122234749.297        2076.607          34.609  
G12  20333718.160   106854345.021        1281.947          34.201  
G15  24715866.062   129882830.086       -3568.562          38.299  
G17  23654888.262   124307289.003       -2884.378          34.660  
G19  21667742.434   113864722.918       -2079.062          26.836  
G24  20363520.528   107010856.181        -932.032          26.349    20363487.551    79910684.213        -696.015          35.288  
G25  23046624.354   121111039.406        3054.409          32.164    23046636.945    90439949.080        2280.899          37.354  
G32                                                                  23674647.283    92904391.114        1687.987          31.460  
R01  22525741.554   120412922.689       -3021.639          30.919  
R02  22451589.988                         969.412          23.254  
R09  22865055.352                       -3212.975          20.599  
R11  20345760.523   108721564.022        2288.398          38.333  
R20  20127157.559   107628937.665         404.409          33.152  
R21  21724950.630   116254349.605        4186.613          35.572  
> 2019  5 20  8 49 47.9999674  0 25
C08  38567538.249   200831209.024         481.794          29.071  
C11  22265747.444   115943644.300         924.634          33.690  
C12  26101415.366   135916964.133       -2974.219          25.215  
C13  38476859.425                        1349.480          23.192  
C23  22022118.105   114674945.574        1037.833          33.536  
C25  22683267.501   118117765.190       -1767.114          34.023  
E02                                                                                                                                  26649055.243   104576616.067        1787.192          25.871  
E03                                                                  26058131.331   136936400.502       -1975.694          28.957    26058122.937   102257666.704       -1475.338          31.418  
E11                                                                  24032958.329                        2775.599          26.819    24032952.333    94310475.674        2073.079          28.751  
E12                                                                  23282592.197   122350904.978         233.438          27.178    23282597.893    91365993.649         174.420          26.054  
G02  24200244.319   127173093.067        2895.935          36.927  
G06  23260088.576   122232673.681        2075.616          34.167  
G12  20333472.930   106853064.119        1280.902          33.831  
G15  24716544.792   129886399.210       -3569.124          36.957  
G17  23655434.184   124310174.169       -2885.166          34.639  
G19  21668136.661                       -2081.395          25.978  
G24                                                                  20363665.628    79911381.034        -696.821          35.275  
G25  23046046.954   121107985.807        3053.599          32.505    23046055.048    90437668.792        2280.288          37.379  
G32  23674250.358   124408967.3011       2259.442          30.874    23674215.582    92902703.898        1687.215          31.585  
R01  22526312.958   120415945.413       -3022.725          30.474  
R02  22451431.098   119804883.6931        968.812          26.571  
R09  22865664.530                       -3208.833          21.611  
R11  20345330.321   108719276.482        2287.540          38.786  
R20  20127063.424   107628534.772         402.893          32.934  
R21  21724170.270   116250163.820        4185.785          36.431  
> 2019  5 20  8 49 48.9999675  0 26
C08  38567473.194   200830884.273         480.861          28.619  
C11  22265599.346   115942877.057         923.352          34.191  
C12  26102023.945   135920095.427       -2975.184          25.257  
C13  38476635.480   200357884.9291       1346.243          23.857  
C23  22021944.825   114674064.871        1036.813          33.308  
C25  22683641.941   118119689.282       -1767.982          34.288  
E02                                                                                                                                  26648630.737   104574947.040        1786.672          26.008  
E03                                                                  26058535.751   136938534.757       -1976.713          29.949    26058529.755   102259260.469       -1476.120          31.438  
E08                                                                  24680339.157                         455.219          25.318  
E11                                                                  24032460.674   126291350.8991       2775.126          28.230    24032454.378                        2072.411          28.837  
E12                                                                  23282580.805   122350830.158         232.362          27.374    23282580.805    91365937.797         173.497          25.791  
G02  24199726.278   127170355.473        2895.136          36.577  
G06  23259726.127   122230756.782        2074.441          35.089  
G12  20333250.783   106851941.800        1279.861          33.193  
G15  24717252.003   129890126.538       -3569.786          37.232  
G17  23656018.179   124313217.796       -2886.085          35.226  
G19  21668563.266                       -2081.599          26.795  
G24  20363904.262   107012881.2671       -934.414          25.101    20363872.185    79912196.373        -697.694          35.594  
G25  23045502.231   121105090.610        3052.738          32.353    23045504.929    90435506.773        2279.664          37.413  
G32  23673845.338   124406866.692        2258.151          30.795    23673816.858    92901135.250        1686.294          31.143  
R01  22526902.050   120419129.616       -3023.947          30.012  
R02  22451281.501   119804076.314         967.353          27.446  
R09  22866284.501                       -3217.242          19.801  
R11  20344932.796   108717150.139        2286.543          39.160  
R20  20127019.055   107628293.797         401.288          32.855  
R21  21723414.793   116246139.578        4184.667          36.940  
> 2019  5 20  8 49 49.9999675  0 26
C08  38567376.661   200830404.154         480.119          28.372  
C11  22265421.569   115941954.755         922.303          34.685  
C12  26102595.049   135923071.287       -2975.860          25.711  
C13  38476378.857                        1347.160          22.146  
C23  22021738.268   114673028.905        1035.966          31.859  
C25  22683985.803   118121458.117       -1768.836          34.629  
E02                                                                                                                                  26648175.352   104573160.814        1786.226          26.387  
E03                                                                  26058916.488   136940512.339       -1977.582          29.986    26058905.695   102260737.218       -1476.749          31.527  
E08                                                                  24680253.716                         454.189          25.963  
E11                                                                  24031933.039   126288576.579        2774.320          29.079    24031925.244    94306449.1851       2071.775          27.727  
E12                                                                  23282537.934   122350598.795         231.362          27.631    23282540.333    91365764.994         172.803          25.016  
G02  24199174.060   127167461.073        2894.400          35.593  
G06  23259327.103   122228683.359        2073.422          34.774  
G12  20333004.954   106850662.884        1278.917          32.337  
G15  24717934.630   129893696.894       -3570.356          37.686  
G17  23656572.795   124316104.730       -2886.934          35.587  
G19  21668956.594   113871124.5661      -2082.587          27.353  
G24  20364092.832   107013816.725        -935.458          27.142    20364049.962    79912894.892        -698.519          35.471  
G25  23044912.239   121102038.586        3052.025          32.678    23044923.931    90433227.685        2279.088          37.692  
G32                                                                  23673386.955    92899449.718        1685.531          31.458  
R01  22527459.664   120422154.551       -3024.935          30.098  
R02  22451103.425   119803389.458         965.857          27.093  
R09  22866868.197                       -3217.700          20.498  
R11  20344511.288   108714864.446        2285.693          38.755  
R20  20126954.599   107627894.093         399.704          31.965  
R21  21722623.341   116241955.895        4183.683          38.004  
> 2019  5 20  8 49 50.9999675  0 25
C08  38567286.423   200829924.778         479.376          28.599  
C11  22265245.591   115941033.614         921.141          34.174  
C12  26103166.154   135926048.014       -2976.727          26.065  
C13  38476112.342                        1344.127          21.593  
C25  22684326.667   118123227.853       -1769.736          34.492  
E02                                                                                                                                  26647722.066   104571375.046        1785.768          26.025  
E03                                                                  26059292.127   136942490.800       -1978.461          30.420    26059281.935   102262214.667       -1477.449          31.083  
E08                                                                  24680161.979                         452.976          25.896  
E11                                                                  24031405.104   126285803.022        2773.557          29.217    24031399.109    94304378.130        2071.055          28.195  
E12                                                                  23282492.366   122350368.592         230.204          27.396    23282495.963    91365593.094         171.900          25.988  
G02  24198626.340   127164567.458        2893.615          34.858  
G06  23258931.677   122226611.025        2072.335          35.185  
G12  20332762.721   106849385.085        1277.798          31.240  
G15  24718616.058   129897267.835       -3570.941          36.875  
G17  23657117.818   124318992.458       -2887.728          35.947  
G19  21669352.320   113873208.358       -2083.791          27.030  
G24  20364279.003   107014753.301        -936.576          26.449    20364227.738    79913594.227        -699.335          35.620  
G25  23044332.441   121098987.423        3051.162          32.300    23044343.833    90430949.166        2278.519          37.808  
G32                                                                  23672957.353    92897765.049        1684.669          32.263  
R01  22528022.375   120425180.652       -3026.101          29.529  
R02  22450924.448   119802424.949         964.509          26.790  
R09  22867486.968                       -3216.092          21.851  
R11  20344075.689   108712579.683        2284.762          38.397  
R20  20126869.158   107627495.843         398.250          32.126  
R21  21721849.277   116237773.178        4182.717          37.699  
> 2019  5 20  8 49 51.9999676  0 25
C08  38567226.764   200829602.233         478.655          28.710  
C11  22265095.395   115940269.644         920.080          33.508  
C12  26103767.538   135929181.445       -2977.321          25.910  
C13  38475895.892                        1343.712          23.450  
C25  22684697.810   118125154.447       -1770.484          33.753  
E02                                                                                                                                  26647296.361   104569707.320        1785.371          25.934  
E03                                                                  26059701.044   136944627.616       -1979.274          30.972    26059688.453   102263810.353       -1478.041          31.285  
E08                                                                  24680104.419   129694853.3841        452.538          26.698  
E11                                                                  24030910.447   126283187.761        2772.804          28.774    24030902.053    94302425.177        2070.598          28.223  
E12                                                                  23282479.175   122350296.927         229.207          27.714    23282482.173    91365539.637         171.102          25.972  
G02  24198099.904   127161831.929        2893.071          34.548  
G06  23258570.427   122224697.173        2071.394          35.499  
G12  20332546.871   106848265.673        1276.954          31.300  
G15  24719322.369   129900996.736       -3571.359          36.599  
G17  23657698.816   124322038.510       -2888.509          35.588  
G19  21669780.723   113875450.637       -2084.737          26.694  
G24  20364497.252   107016155.117        -937.274          24.277    20364436.394    79914411.964        -700.092          35.548  
G25  23043786.219   121096094.416        3050.549          32.471    23043793.114    90428788.836        2277.974          37.606  
G32                                                                  23672558.629    92896198.743        1683.951          32.186  
R01  22528611.467   120428368.023       -3027.116          29.581  
R02  22450773.053   119801621.748         963.176          27.520  
R09  22868090.750                       -3216.626          20.477  
R11  20343687.158   108710455.924        2283.959          37.864  
R20  20126829.286   107627259.395         396.761          32.874  
R21  21721104.292   116233751.781        4181.822          37.472  
> 2019  5 20  8 49 52.9999676  0 25
C08  38567132.330   200829124.269         477.963          28.059  
C11  22264918.817   115939350.610         919.035          33.469  
C12  26104335.045   135932159.557       -2978.112          25.756  
C13  38475637.171                        1342.974          24.559  
C25  22685035.976   118126925.777       -1771.330          32.998  
E02                                                                                                                                  26646841.875   104567922.438        1784.882          25.978  
E03                                                                  26060078.783   136946607.773       -1980.157          31.601    26060066.192   102265288.992       -1478.639          31.624  
E08                                                                  24680019.578                         451.247          26.056  
E11                                                                  24030384.911   126280415.796        2771.965          27.758    24030373.519    94300355.219        2069.958          28.349  
E12                                                                  23282440.502   122350068.617         228.310          27.688    23282439.602                         170.312          26.618  
G02  24197545.888   127158939.594        2892.335          34.285  
G06  23258178.298   122222626.780        2070.394          35.603  
G12  20332300.441   106846989.711        1275.962          31.196  
G15  24720001.999   129904568.699       -3571.963          37.102  
G17  23658247.736   124324927.841       -2889.331          35.427  
G19  21670183.344   113877536.532       -2085.896          25.720  
G24  20364681.324                        -941.373          20.977    20364614.771    79915112.878        -700.914          35.533  
G25                                                                  23043213.016    90426511.418        2277.419          37.835  
G32                                                                  23672129.626    92894515.559        1683.184          31.813  
R01  22529174.777   120431396.205       -3028.182          29.287  
R02  22450603.371   119800659.991         961.757          27.608  
R09  22868697.530                       -3216.903          19.138  
R11  20343264.751   108708172.874        2283.050          37.504  
R20  20126766.929   107626864.117         395.278          32.995  
R21  21720314.639   116229570.884        4180.897          37.043  
> 2019  5 20  8 49 53.9999677  0 25
C08  38567071.172   200828803.004         477.375          27.966  
C11  22264773.718   115938588.625         918.094          33.403  
C12  26104937.028                       -2980.782          25.374  
C13  38475411.427   200351476.3731       1342.952          25.495  
C25  22685406.820   118128853.866       -1771.979          33.906  
E02                                                                                                                                  26646419.168   104566255.477        1784.606          26.207  
E03                                                                  26060485.901   136948746.156       -1980.841          31.430    26060473.310   102266885.898       -1479.261          31.822  
E08                                                                  24679964.116                         450.298          25.728  
E11                                                                  24029889.354   126277801.973        2771.364          27.278    24029875.563    94298403.353        2069.511          28.758  
E12                                                                  23282430.609   122349998.877         227.282          27.266    23282426.112    91365317.0601        169.724          27.399  
G02  24197029.345   127156205.350        2891.786          34.013  
G06  23257815.849   122220714.799        2069.522          35.823  
G12  20332086.689   106845872.045        1275.208          31.079  
G15  24720712.507   129908298.511       -3572.269          36.957  
G17  23658829.633   124327975.278       -2889.895          35.647  
G19  21670607.551                       -2087.433          24.793  
G24                                                                  20364823.126    79915932.109        -701.586          35.205  
G25  23042657.800   121090152.9641       3049.229          32.751    23042662.597    90424352.051        2277.012          38.022  
G32                                                                  23671730.302    92892950.658        1682.546          31.365  
R01  22529772.863   120434585.457       -3028.996          29.107  
R02  22450439.984   119799859.397         960.569          27.104  
R09  22869360.971                       -3217.808          19.162  
R11  20342871.723   108706050.598        2282.476          37.363  
R20  20126719.262   107626630.510         393.919          32.890  
R21  21719569.955   116225551.180        4180.129          36.704  
> 2019  5 20  8 49 54.9999677  0 26
C08  38566977.637   200828326.351         476.653          28.115  
C11  22264597.440   115937671.535         917.090          33.851  
C12  26105512.630                       -2979.125          24.728  
C13  38475153.605   200350134.070        1342.303          24.804  
C23  22020795.121   114668173.7231       1031.917          29.638  
C25  22685750.981   118130626.610       -1772.744          34.516  
E02                                                                                                                                  26645961.685   104564471.276        1784.201          26.219  
E03                                                                  26060864.239   136950727.788       -1981.632          31.296    26060849.549   102268365.673       -1479.775          32.019  
E08                                                                  24679874.478   129693658.9081        449.725          25.733  
E11                                                                  24029362.019   126275031.262        2770.712          27.257    24029347.629    94296334.330        2069.022          28.442  
E12                                                                  23282387.738   122349772.497         226.380          26.768    23282384.740    91365148.075         168.985          26.754  
G02  24196480.725   127153314.152        2891.199          34.270  
G06  23257422.222   122218646.195        2068.604          35.867  
G12  20331848.654   106844597.750        1274.295          31.301  
G15  24721387.939   129911871.268       -3572.757          36.800  
G17  23659380.652   124330865.944       -2890.666          36.247  
G19  21671006.874                       -2088.698          23.838  
G24                                                                  20365001.803    79916634.389        -702.279          35.071  
G25  23042076.502   121087104.424        3048.540          33.036    23042082.798    90422075.564        2276.486          38.186  
G32  23671330.979   124393654.2841       2252.222          28.144    23671300.700    92891268.866        1681.792          31.367  
R01  22530339.171   120437615.424       -3029.967          29.048  
R02  22450264.905   119798900.100         959.297          27.159  
R09  22869884.708                       -3215.888          19.525  
R11  20342443.619   108703768.919        2281.680          37.368  
R20  20126643.115   107626238.002         392.508          33.142  
R21  21718794.092   116221653.953        4179.228          36.454  
> 2019  5 20  8 49 55.9999677  0 26
C08  38566890.997   200827850.166         476.185          27.977  
C11  22264424.160   115936755.335         916.200          33.622  
C12  26106080.137                       -2976.273          24.349  
C13  38474894.585   200348792.392        1341.678          25.223  
C23  22020598.757   114667142.401        1031.321          29.340  
C25  22686089.147   118132400.020       -1773.411          34.111  
E02                                                                                                                                  26645507.199   104562687.360        1783.916          26.388  
E03                                                                  26061241.678   136952710.051       -1982.264          31.496    26061226.688   102269845.895       -1480.222          31.799  
E08                                                                  24679791.436   129693209.878         449.030          25.779  
E11                                                                  24028836.483   126272261.253        2770.009          26.919    24028819.994    94294265.774        2068.556          28.771  
E12                                                                  23282342.470   122349546.822         225.675          27.597  
G02  24195929.107   127150423.399        2890.752          33.887  
G06  23257032.791   122216578.436        2067.760          36.008  
G12  20331605.223   106843324.220        1273.531          31.064  
G15  24722067.569   129915444.353       -3573.085          36.318  
G17  23659928.972   124333757.238       -2891.294          35.977  
G19  21671405.598                       -2086.757          22.552  
G24                                                                  20365181.079    79917337.317        -702.928          35.200  
G25  23041495.205   121084056.449        3047.975          33.359    23041501.800    90419799.468        2276.096          38.311  
G32  23670901.976   124391402.938        2251.346          28.341    23670872.896    92889587.728        1681.138          31.209  
R01  22530909.376   120440646.251       -3030.828          29.724  
R02  22450093.724   119797942.143         957.957          26.652  
R09  22870533.459                       -3218.194          19.937  
R11  20342010.119   108701487.911        2281.008          36.998  
R20  20126576.861   107625846.735         391.266          32.465  
R21  21717996.344   116217475.470        4178.483          36.606  
> 2019  5 20  8 49 56.9999678  0 26
C08  38566828.340   200827530.449         475.827          27.628  
C11  22264276.662   115935995.953         915.492          33.385  
C12  26106683.919                       -2978.156          24.288  
C13  38474667.942                        1340.137          24.668  
C23  22020432.971   114666267.675        1030.836          29.750  
C25  22686459.391   118134329.844       -1773.714          33.817  
E02                                                                                                                                  26645084.492   104561021.203        1783.802          26.598  
E03                                                                  26061648.796   136954850.317       -1982.724          31.757    26061634.706   102271444.176       -1480.637          31.801  
E08                                                                  24679736.274                         448.486          25.771  
E11                                                                                                                                  24028323.238    94292315.091        2068.328          28.521  
E12                                                                  23282328.679   122349479.509         224.856          27.487  
G02  24195404.770   127147690.504        2890.437          33.519  
G06  23256665.545   122214668.775        2067.203          35.596  
G12  20331397.766   106842208.790        1272.972          31.237  
G15  24722779.576   129919175.083       -3573.188          36.209  
G17  23660510.270   124336806.450       -2891.670          36.178  
G19  21671835.500                       -2089.789          22.024  
G24                                                                  20365389.734    79918158.362        -703.400          35.104  
G25  23040950.482   121081166.355        3047.636          33.389    23040951.981    90417641.256        2275.858          38.423  
G32  23670501.453   124389309.867        2250.614          28.555    23670474.472    92888024.646        1680.728          31.305  
R01  22531509.860   120443838.003       -3031.496          30.205  
R02  22449935.133                         957.167          26.121  
R09  22871176.814                       -3216.912          21.831  
R11  20341609.597   108699367.556        2280.555          36.844  
R20  20126525.296   107625616.928         390.120          32.389  
R21  21717256.456   116213457.908        4177.986          36.454  
> 2019  5 20  8 49 57.9999678  0 27
C08  38566736.004   200827054.913         475.536          27.389  
C11  22264100.384   115935081.128         914.825          33.523  
C12  26107258.321                       -2980.055          24.741  
C13  38474411.919   200346265.8821       1341.154          25.046  
C23  22020237.207   114665237.241        1030.434          30.072  
C25  22686802.354   118136104.054       -1774.210          34.091  
E02                                                                                                                                  26644630.606   104559237.520        1783.683          26.388  
E03                                                                  26062026.834   136956833.527       -1983.209          31.521    26062011.545   102272925.082       -1480.906          31.743  
E08                                                                  24679650.533   129692471.3091        447.768          25.878  
E11                                                                  24027813.891   126266879.7531       2769.275          27.165    24027796.503    94290247.112        2067.978          28.328  
E12                                                                  23282286.708   122349255.280         224.229          26.847  
E25                                                                  22917439.587                         687.030          35.351  
G02  24194854.651   127144800.382        2890.122          32.964  
G06  23256270.419   122212602.223        2066.552          35.760  
G12  20331160.031   106840936.330        1272.459          32.014  
G15  24723456.807   129922748.354       -3573.271          36.008  
G17  23661056.791   124339698.467       -2892.017          35.759  
G19  21672223.732                       -2093.328          21.594  
G24                                                                  20365569.010    79918862.297        -703.935          35.117  
G25  23040370.683   121078119.000        3047.355          33.878    23040373.082    90415365.663        2275.593          38.349  
G32  23670070.051   124387059.738        2250.129          27.931    23670048.167    92886344.447        1680.199          31.314  
R01  22532080.365   120446870.105       -3032.102          30.265  
R02  22449743.866   119796188.9351        955.995          25.795  
R09  22871767.105                       -3215.232          23.589  
R11  20341170.701   108697087.407        2280.149          36.436  
R20  20126447.051   107625227.906         389.022          31.803  
R21  21716462.006   116209280.429        4177.480          35.680  
> 2019  5 20  8 49 58.9999679  0 28
C08  38566674.847                         476.341          27.064  
C11  22263955.584   115934322.808         914.430          33.166  
C12  26107863.003                       -2979.846          25.047  
C13  38474184.376   200345080.817        1341.175          24.913  
C20  25829848.668                        -621.000          23.361  
C23  22020071.722   114664363.031        1030.319          30.371  
C25  22687175.295   118138034.453       -1774.289          34.606  
E02                                                                                                                                  26644206.400   104557571.344        1783.821          26.184  
E03                                                                  26062433.353   136958974.372       -1983.304          31.337    26062418.963   102274523.737       -1481.010          31.728  
E08                                                                  24679595.671   129692181.379         447.472          26.079  
E11                                                                                                                                  24027298.547    94288296.761        2067.997          27.615  
E12                                                                  23282275.316   122349188.764         224.058          26.396    23282275.616    91364712.2271        167.234          27.642  
E25                                                                  22917341.555   120431535.1471        687.213          35.401  
G02  24194331.213   127142067.729        2890.195          32.527  
G06  23255907.071   122210693.471        2066.294          35.542  
G12  20330948.977   106839821.636        1272.236          32.089  
G15  24724165.816   129926479.007       -3573.111          35.464  
G17  23661638.089   124342748.115       -2892.106          35.882  
G19  21672642.242                       -2091.729          20.017  
G24                                                                  20365778.265    79919684.069        -704.127          34.938  
G25  23039822.663   121075229.195        3047.347          33.242    23039823.262    90413207.697        2275.611          38.407  
G32  23669668.030                        2250.371          28.214    23669648.843    92884782.085        1680.007          31.287  
R01  22532671.556   120450062.785       -3032.424          30.580  
R02  22449586.475   119795393.487         955.423          25.181  
R09  22872421.252                       -3219.065          24.597  
R11  20340772.276   108694967.593        2280.014          35.715  
R20  20126414.073   107624999.942         388.276          31.151  
R21  21715721.819   116205263.606        4177.248          34.729  
> 2019  5 20  8 49 59.9999679  0 28
C08  38566587.007   200826259.0901        476.417          27.160  
C11  22263779.906   115933407.796         915.012          33.196  
C12  26108432.608   135953486.4351      -2979.584          24.412  
C13  38473925.356   200343738.658        1342.159          25.257  
C20  25829972.482                        -616.175          23.677  
C23  22019876.557   114663331.985        1031.046          31.329  
C25  22687514.361   118139807.926       -1773.473          34.593  
E02                                                                                                                                  26643750.116   104555786.748        1784.596          26.293  
E03                                                                  26062809.293   136960956.804       -1982.432          31.149    26062796.701   102276004.167       -1480.430          31.659  
E08                                                                  24679512.929   129691733.240         448.139          26.137  
E11                                                                                                                                  24026773.011    94286228.139        2068.622          28.138  
E12                                                                  23282221.054   122348964.255         224.509          26.101    23282234.544    91364544.461         167.765          27.692  
E25                                                                  22917209.346   120430847.009         688.138          34.650  
G02  24193784.991   127139176.524        2891.205          32.855  
G06  23255517.940   122208626.546        2066.925          35.945  
G12  20330712.141   106838548.719        1272.918          32.383  
G15  24724844.546   129930051.000       -3571.993          35.666  
G17  23662191.506   124345639.383       -2891.268          36.172  
G19  21673032.872                       -2086.091          20.700  
G24  20365966.535   107023652.3261       -942.438          26.819    20365958.141    79920387.782        -703.713          35.076  
G25  23039244.063   121072180.952        3048.243          33.455    23039242.564    90410931.391        2276.306          38.513  
G32  23669232.731   124382717.7591       2250.324          27.942    23669220.739    92883101.660        1680.426          31.063  
R01  22533242.061   120453094.484       -3031.699          30.960  
R02  22449405.700                         954.265          23.978  
R09  22873008.546   122140622.1201      -3217.588          25.671  
R11  20340337.577   108692686.736        2280.857          35.220  
R20  20126341.823   107624611.417         388.525          30.777  
R21  21714919.574   116201085.578        4178.028          34.113  
> 2019  5 20  8 50  0.9999679  0 28
C08  38566495.870   200825781.244         477.846          27.043  
C11  22263606.926   115932491.691         916.105          32.934  
C12  26109007.910                       -2977.632          24.827  
C13  38473674.729   200342394.936        1343.722          26.033  
C20  25830090.301                        -617.265          23.981  
C23  22019682.891   114662299.551        1032.434          31.892  
C25  22687856.124   118141580.030       -1772.104          33.793  
E02                                                                                                                                  26643294.431   104554000.941        1785.807          26.364  
E03                                                                  26063187.930   136962937.968       -1981.164          31.314    26063174.140   102277483.644       -1479.477          31.576  
E08                                                                  24679430.486   129691283.931         449.309          25.906  
E11                                                                  24026269.060                        2771.904          26.482    24026243.578    94284158.424        2069.715          28.184  
E12                                                                  23282185.079   122348738.482         225.773          24.959    23282189.875    91364375.871         168.590          27.989  
E25                                                                  22917075.339   120430157.407         689.602          34.783  
G02  24193230.375   127136283.857        2892.667          32.330  
G06  23255124.312   122206558.389        2068.158          36.207  
G12  20330476.204   106837274.585        1274.134          32.856  
G15  24725525.675   129933621.323       -3570.323          35.373  
G17  23662739.826   124348529.212       -2889.830          36.038  
G19  21673448.684                       -2088.323          20.929  
G24  20366133.519   107024593.561        -941.235          27.596    20366136.217    79921090.585        -702.803          34.804  
G25  23038662.466   121069131.254        3049.698          34.044    23038663.965    90408654.037        2277.354          38.494  
G32  23668804.328   124380465.716        2252.043          27.718    23668792.336    92881420.327        1681.333          31.084  
R01  22533814.365   120456125.081       -3030.598          30.947  
R02  22449243.812                         959.050          23.164  
R09  22873621.022   122143838.230       -3216.110          26.436  
R11  20339904.377   108690404.496        2282.241          35.454  
R20  20126279.167   107624222.186         389.231          30.026  
R21  21714143.112   116196906.235        4179.344          33.132  
> 2019  5 20  8 50  1.9999680  0 28
C08  38566433.813   200825457.984         479.370          26.327  
C11  22263456.130   115931730.520         917.281          32.802  
C12  26109603.897                       -2975.496          24.771  
C13  38473447.487   200341205.936        1345.110          26.714  
C20  25830236.899                        -616.205          25.236  
C23  22019515.607   114661421.839        1033.822          32.625  
C25  22688225.468   118143506.810       -1770.671          33.303  
E02                                                                                                                                  26642869.625   104552331.557        1787.029          26.882  
E03                                                                  26063593.849   136965075.252       -1979.741          30.908    26063580.659   102279079.644       -1478.355          31.693  
E08                                                                  24679373.825                         450.915          25.076  
E11                                                                  24025766.308   126256110.5651       2773.122          26.967    24025748.321    94282205.296        2070.774          28.067  
E12                                                                  23282170.089   122348668.971         227.053          24.494    23282180.282    91364324.033         169.483          28.267  
E25                                                                  22916973.709   120429623.778         691.171          34.840  
G02  24192709.935   127133547.154        2894.245          31.623  
G06  23254758.266   122204646.547        2069.383          36.199  
G12  20330268.448   106836156.635        1275.492          33.660  
G15  24726232.585   129937347.431       -3568.566          35.148  
G17  23663316.327   124351575.124       -2888.370          35.192  
G19  21673879.186   113896952.9111      -2087.696          23.240  
G24  20366335.579   107025691.095        -939.992          28.127    20366345.472    79921910.180        -701.950          34.744  
G25  23038116.244   121066237.548        3051.249          34.729    23038112.047    90406493.158        2278.525          38.401  
G32  23668401.407                        2253.034          26.114    23668393.612    92879855.738        1682.234          31.146  
R01  22534423.543   120459314.627       -3029.289          31.602  
R02  22449079.226                         961.178          23.702  
R09  22874261.978   122147212.747       -3214.430          26.197  
R11  20339518.544   108688281.023        2283.673          35.041  
R20  20126230.301   107623992.482         390.017          30.186  
R21  21713372.045   116192886.028        4180.632          32.154  
> 2019  5 20  8 50  2.9999680  0 28
C08  38566337.880   200824977.929         480.055          26.690  
C11  22263283.150   115930812.950         917.570          32.713  
C12  26110175.901   135962573.3011      -2976.024          24.544  
C13  38473190.864   200339859.505        1346.431          27.154  
C20  25830357.715   134505478.4361       -616.379          25.603  
C23  22019318.943   114660387.483        1034.357          33.214  
C25  22688562.735   118145276.919       -1770.109          33.257  
E02                                                                                                                                  26642414.840   104550543.814        1787.743          26.987  
E03                                                                  26063968.890   136967054.388       -1979.137          30.049    26063957.498   102280557.566       -1477.922          32.054  
E08                                                                  24679287.485                         450.610          25.420  
E11                                                                  24025240.772   126253336.843        2773.721          27.010    24025218.287    94280134.010        2071.286          27.582  
E12                                                                  23282123.921                         227.232          24.589    23282135.013    91364154.204         169.829          28.111  
E25                                                                  22916840.601   120428931.931         691.847          35.103  
G02  24192164.913   127130652.141        2895.013          31.306  
G06  23254363.739   122202576.791        2069.757          36.051  
G12  20330032.511   106834880.696        1275.939          35.288  
G15  24726908.318   129940915.073       -3567.641          34.894  
G17  23663866.746   124354462.855       -2887.731          35.022  
G19  21674282.107                       -2087.484          24.186  
G24  20366519.952   107026630.731        -939.636          28.766    20366523.249    79922611.891        -701.711          34.668  
G25  23037537.345   121063185.657        3051.890          34.070    23037532.248    90404214.122        2279.035          38.688  
G32  23667973.903   124376117.9511       2253.134          25.774    23667964.009    92878173.255        1682.482          31.253  
R01  22534989.851   120462343.561       -3028.935          31.099  
R02  22448887.059                         955.807          23.166  
R09  22874863.961   122150426.541       -3213.794          27.144  
R11  20339090.441   108685996.733        2284.290          35.214  
R20  20126162.248   107623602.487         389.995          30.048  
R21  21712590.187   116188704.872        4181.156          31.087  
> 2019  5 20  8 50  3.9999681  0 28
C08  38566272.825                         477.181          25.938  
C11  22263135.952   115930053.706         915.354          32.726  
C12  26110774.887   135965707.198       -2977.788          24.864  
C13  38472959.424   200338671.600        1344.015          28.203  
C20  25830510.610   134506253.590        -619.044          25.431  
C23  22019152.258   114659511.236        1032.356          33.718  
C25  22688929.681   118147205.114       -1772.085          33.908  
E02                                                                                                                                  26641990.034   104548875.098        1786.361          26.679  
E03                                                                  26064374.809   136969193.088       -1981.158          29.690    26064364.316   102282154.666       -1479.455          31.874  
E08                                                                  24679233.522   129690248.7141        448.753          24.824  
E11                                                                  24024737.420   126250722.646        2771.739          27.178    24024719.433    94278181.849        2069.805          27.745  
E12                                                                  23282108.632                         223.663          24.137    23282123.921    91364103.696         168.153          28.846  
E25                                                                  22916738.672   120428399.563         689.909          34.784  
G02  24191647.171   127127916.616        2893.067          30.865  
G06  23253997.692   122200666.697        2067.635          35.731  
G12  20329821.158   106833764.407        1273.831          35.542  
G15  24727614.629   129944641.958       -3569.343          34.784  
G17  23664441.148   124357510.144       -2889.747          34.541  
G19  21674708.711   113901287.4631      -2089.686          25.711  
G24  20366729.507   107027730.239        -941.966          28.823    20366732.205    79923432.855        -703.318          34.857  
G25  23036981.530   121060293.138        3050.061          33.810    23036982.429    90402054.163        2277.605          38.720  
G32  23667575.778   124374024.563        2250.931          26.996    23667565.885    92876609.980        1680.920          31.447  
R01  22535594.533   120465534.953       -3031.136          31.785  
R02  22448754.551                         952.740          23.363  
R09  22875483.632   122153802.250       -3215.622          27.222  
R11  20338701.010   108683874.667        2282.266          34.820  
R20  20126127.172                         385.685          29.385  
R21  21711842.804   116184686.262        4179.036          32.603  
> 2019  5 20  8 50  4.9999681  0 27
C08  38566180.789   200824180.4301        475.944          26.000  
C12  26111351.987                       -2980.242          24.783  
C13  38472698.605   200337329.736        1341.864          28.214  
C20  25830637.722   134506875.205        -621.615          25.655  
C23  22018953.496   114658481.163        1030.073          33.733  
C25  22689267.847   118148979.384       -1774.270          34.810  
E02                                                                                                                                  26641535.549   104547090.193        1784.905          26.704  
E03                                                                  26064747.451   136971176.583       -1983.494          29.074    26064741.455   102283635.833       -1481.167          31.712  
E08                                                                  24679151.679   129689802.378         446.336          24.822  
E11                                                                  24024208.287   126247953.081        2769.566          27.596    24024194.496    94276113.650        2068.199          27.841  
E12                                                                  23282061.564                         221.510          22.002    23282082.550    91363937.426         166.270          28.312  
E25                                                                  22916607.363   120427711.794         687.769          34.796  
G02  24191098.551   127125025.576        2891.040          30.852  
G06  23253605.564   122198601.541        2065.156          35.205  
G12  20329573.229   106832492.987        1271.419          36.227  
G15  24728300.254   129948213.332       -3571.374          37.116  
G17  23664990.968   124360402.059       -2891.915          34.215  
G19  21675108.635   113903379.643       -2092.180          28.080  
G24  20366909.682   107028674.573        -944.335          29.923    20366911.181    79924138.058        -705.203          34.721  
G25  23036400.232   121057245.326        3047.813          32.611    23036401.731    90399778.196        2275.966          38.843  
G32  23667144.976   124371776.221        2248.341          26.995    23667139.280    92874930.969        1679.011          31.497  
R01  22536166.836   120468568.683       -3033.730          32.142  
R02  22448555.189                         951.626          23.572  
R09  22876084.716   122157020.132       -3217.882          26.763  
R11  20338288.796   108681594.713        2279.954          35.855  
R20  20126050.125   107622991.2311        384.237          29.040  
R21  21711068.440   116180509.544        4176.718          34.719  
> 2019  5 20  8 50  5.9999682  0 26
C08  38566122.329   200823861.612         474.928          26.006  
C12  26111953.071   135971824.4161      -2981.145          24.621  
C13  38472470.463   200336145.024        1340.822          28.682  
C20  25830791.215   134507654.150        -622.836          26.338  
C23  22018785.012   114657608.347        1028.925          34.708  
C25  22689634.193   118150911.035       -1775.541          33.585  
E02                                                                                                                                  26641110.743   104545423.698        1784.140          26.927  
E03                                                                  26065151.871   136973318.848       -1984.724          28.190    26065149.772   102285235.554       -1482.076          31.808  
E11                                                                  24023706.734   126245342.169        2768.453          27.934    24023695.342                        2067.018          28.102  
E12                                                                  23282044.176   122348087.3841        221.334          21.341    23282070.558    91363889.825         165.246          28.421  
E25                                                                  22916510.230   120427182.655         686.681          34.480  
G02  24190578.111   127122293.162        2889.956          31.055  
G06  23253245.213   122196695.308        2063.775          35.064  
G12  20329363.375   106831380.435        1270.094          36.235  
G15  24729005.366   129951943.034       -3572.160          36.973  
G17  23665573.165   124363452.753       -2893.152          34.399  
G19  21675538.837   113905630.862       -2093.677          28.731  
G24  20367122.534   107029777.940        -945.825          32.027    20367121.036    79924962.001        -706.298          34.219  
G25  23035843.817   121054356.136        3046.732          31.773    23035853.411    90397620.693        2275.148          38.857  
G32  23666750.150   124369686.783        2246.980          26.644    23666740.856    92873370.627        1677.987          31.374  
R01  22536761.924   120471763.991       -3035.052          31.905  
R02  22448388.504                         949.584          25.386  
R09  22876712.781   122160399.202       -3218.982          27.478  
R11  20337887.673   108679476.148        2278.765          36.784  
R20  20126004.257   107622769.011         382.532          27.976  
R21  21710310.265   116176494.571        4175.398          35.055  
> 2019  5 20  8 50  6.9999682  0 26
C08  38566029.993   200823387.402         474.210          25.750  
C12  26112525.375                       -2978.807          24.488  
C13  38472214.440   200334804.893        1340.131          28.001  
C20  25830905.736   134508278.143        -623.993          26.072  
C23  22018590.147   114656580.351        1027.997          34.707  
C25  22689975.657   118152687.405       -1776.370          32.287  
E02                                                                                                                                  26640656.857   104543639.960        1783.738          27.427  
E03                                                                  26065532.607   136975304.419       -1985.571          28.069    26065528.110   102286718.287       -1482.733          32.165  
E11                                                                  24023177.600   126242574.594        2767.576          27.668    24023168.606    94272097.3721       2066.587          27.692  
E12                                                                  23282027.688                         219.674          21.349  
E25                                                                  22916377.422   120426496.745         685.910          34.860  
G02  24190028.292   127119403.866        2889.296          31.469  
G06  23252850.087   122194632.479        2062.829          35.071  
G12  20329119.643   106830111.240        1269.195          36.787  
G15  24729684.396   129955515.838       -3572.805          35.876  
G17  23666124.183   124366346.598       -2893.845          34.570  
G19  21675937.561   113907725.673       -2094.811          28.450  
G24  20367323.395   107031006.792        -946.852          34.209    20367301.211    79925669.033        -707.032          33.617  
G25  23035264.019   121051310.179        3045.958          32.297    23035273.912    90395346.100        2274.594          39.083  
G32  23666329.241   124367440.299        2246.484          25.913    23666312.753    92871693.498        1677.129          31.177  
R01  22537319.838   120474800.128       -3036.136          31.804  
R02  22448234.111   119787952.8921        948.854          25.263  
R09  22877315.064   122163618.781       -3219.579          27.521  
R11  20337465.566   108677198.286        2277.862          36.261  
R20  20125933.206   107622387.941         381.071          27.285  
R21  21709539.499   116172320.233        4174.337          33.595  
> 2019  5 20  8 50  7.9999682  0 26
C08  38565933.160   200822914.056         473.347          25.875  
C12  26113100.976   135977788.8051      -2982.683          25.229  
C13  38471955.419   200333465.343        1339.550          28.186  
C20  25831023.555   134508903.074        -624.930          26.308  
C23  22018384.789   114655553.181        1027.170          34.334  
C25  22690311.424   118154464.531       -1777.126          31.831  
E02                                                                                                                                  26640204.770   104541856.560        1783.400          27.728  
E03                                                                  26065899.853   136977290.765       -1986.346          27.056    26065906.149   102288201.632       -1483.344          32.540  
E08                                                                  24678927.134   129688627.8561        443.085          25.840  
E11                                                                  24022652.364   126239807.776        2766.818          26.820    24022643.970    94270031.183        2066.190          28.263  
E25                                                                  22916247.912   120425811.563         685.183          34.826  
G02  24189479.672   127116515.295        2888.572          32.361  
G06  23252460.656   122192570.737        2061.743          33.377    23252460.357    91247679.7751       1539.666          26.694  
G12  20328874.413   106828843.045        1268.196          36.199  
G15  24730365.224   129959089.059       -3573.221          36.232  
G17  23666675.202   124369241.323       -2894.726          33.778  
G19  21676334.786   113909821.500       -2095.827          28.932  
G24  20367498.774   107031954.656        -947.863          34.106    20367480.487    79926376.889        -707.856          33.497  
G25  23034683.920   121048264.869        3045.310          30.673    23034695.012    90393072.058        2274.042          39.545  
G32  23665893.943   124365195.307        2244.992          27.079    23665884.949    92870017.072        1676.425          30.742  
R01  22537896.039   120477837.284       -3037.156          32.215  
R02  22448044.042                         946.915          24.784  
R09  22877924.243   122166839.199       -3220.418          27.947  
R11  20337032.365   108674921.220        2277.066          36.581  
R20  20125865.753   107622008.603         379.337          27.210  
R21  21708762.436   116168146.811        4173.422          33.810  
> 2019  5 20  8 50  8.9999683  0 27
C08  38565872.602   200822596.488         473.677          26.112  
C12  26113704.758                       -2984.103          24.876  
C13  38471727.577   200332282.361        1339.092          29.092  
C20  25831175.849   134509684.933        -625.750          26.019  
C23  22018222.901   114654682.574        1026.716          35.164  
C25  22690679.569   118156398.296       -1777.655          29.951  
E02                                                                                                                                  26639780.264   104540191.106        1783.100          28.065  
E03                                                                  26066309.070   136979435.250       -1986.944          26.802    26066314.166   102289802.973       -1483.696          32.220  
E08                                                                  24678873.172   129688343.085         442.312          27.131  
E11                                                                  24022146.014                        2766.010          27.136    24022143.916    94268082.937        2065.891          28.220  
E12                                                                                                                                  23281974.924    91363515.9381        163.279          28.788  
E25                                                                  22916148.381   120425284.252         684.853          35.135  
G02  24188958.632   127113784.453        2888.384          33.970  
G06  23252094.910   122190667.162        2061.117          32.729    23252098.507    91246258.267        1539.153          27.140  
G12  20328660.961   106827732.936        1267.651          35.523  
G15  24731079.030   129962820.013       -3573.411          36.133  
G17  23667254.701   124372293.992       -2895.126          33.888  
G19  21676764.088   113912075.592       -2096.550          30.272  
G24  20367709.528   107033060.819        -948.621          34.251    20367691.840    79927202.938        -708.404          34.014  
G25                                                                  23034144.893    90390915.925        2273.778          39.242  
G32  23665488.923   124363108.602        2244.248          26.366    23665488.923    92868458.762        1675.955          30.863  
R01  22538496.823   120481035.355       -3037.815          32.431  
R02  22447882.754                         946.495          23.272  
R09  22878555.006   122170219.978       -3220.691          28.163  
R11  20336638.738   108672804.788        2276.631          37.281  
R20  20125827.380   107621790.476         378.440          27.717  
R21  21708002.163   116164134.270        4172.966          33.443  
> 2019  5 20  8 50  9.9999683  0 26
C08  38565785.662   200822123.862         472.626          25.551  
C12  26114274.064                       -2985.579          24.385  
C13  38471470.055   200330943.622        1338.739          29.087  
C20  25831294.267   134510311.170        -626.237          25.994  
C23  22018021.441   114653656.438        1026.136          35.190  
C25  22691014.438   118158176.383       -1778.087          28.628  
E02                                                                                                                                  26639323.980   104538408.122        1782.984          28.400  
E03                                                                                                                                  26066693.104   102291287.104       -1484.131          32.251  
E08                                                                  24678790.129   129687901.368         441.717          27.532  
E11                                                                  24021632.770   126234432.8011       2766.045          27.885    24021620.478    94266017.418        2065.519          27.927  
E12                                                                                                                                  23281933.253    91363353.282         162.656          28.821  
E25                                                                  22916020.369   120424599.860         684.392          35.226  
G02  24188409.113   127110896.530        2887.923          33.767  
G06  23251701.882   122188606.749        2060.413          32.833    23251705.779    91244719.636        1538.630          28.174  
G12  20328421.127   106826466.012        1266.924          34.795  
G15  24731755.362   129966393.647       -3573.635          36.010  
G17  23667801.822   124375189.588       -2895.597          33.424  
G19  21677167.010   113914173.078       -2097.486          30.912  
G24  20367884.607   107034010.291        -949.473          34.617    20367872.615    79927911.882        -708.944          33.987  
G25                                                                  23033565.694    90388642.478        2273.447          39.258  
G32  23665061.719   124360865.041        2243.560          25.299    23665062.018    92866783.425        1675.337          30.729  
R01  22539061.333   120484073.943       -3038.588          32.692  
R09  22879162.385   122173441.113       -3221.136          27.298  
R11  20336222.626   108670528.777        2276.012          37.435  
R20  20125750.633   107621413.241         377.234          27.524  
R21  21707222.403   116159962.014        4172.255          33.378  
> 2019  5 20  8 50 10.9999683  0 28
C08  38565696.924                         469.925          24.362  
C11  22261981.151   115923999.3021        906.745          32.536  
C12  26114847.867                       -2983.070          24.091  
C13  38471212.834   200329605.530        1338.092          29.435  
C20  25831411.486   134510938.457        -627.287          25.335  
C23  22017825.077   114652631.002        1025.436          35.237  
C25  22691355.302   118159955.265       -1778.882          28.195  
E02                                                                                                                                  26638869.494   104536625.524        1782.598          29.035  
E03                                                                                                                                  26067071.142   102292771.777       -1484.673          32.115  
E08                                                                  24678707.087   129687460.649         440.719          26.351  
E11                                                                  24021102.737   126231667.606        2765.195          27.615    24021094.342    94263952.451        2064.967          27.438  
E12                                                                                                                                  23281892.181    91363191.316         161.966          28.875  
E25                                                                  22915889.660   120423916.049         683.812          35.153  
G02  24187860.792   127108009.188        2887.342          34.127  
G06  23251314.850   122186547.206        2059.544          32.121    23251314.550    91243181.684        1537.952          28.224  
G12  20328179.494   106825199.885        1266.127          34.983  
G15  24732436.491   129969967.688       -3574.040          35.584  
G17  23668359.136   124378085.892       -2896.303          33.853  
G19  21677566.933   113916271.459       -2098.381          31.470  
G24  20368063.883   107034960.558        -950.266          34.868    20368052.790    79928621.513        -709.631          34.028  
G25                                                                  23032987.095    90386369.484        2272.994          39.180  
G32  23664631.517                        2241.525          25.302    23664635.114    92865108.817        1674.608          29.943  
R01  22539627.940   120487113.407       -3039.464          32.065  
R02  22447489.426                         947.937          20.175  
R09  22879761.970   122176662.753       -3221.640          27.396  
R11  20335788.826   108668253.441        2275.336          37.405  
R20  20125674.485   107621037.369         375.873          27.546  
R21  21706451.336   116155790.625        4171.389          33.097  
> 2019  5 20  8 50 11.9999684  0 27
C08  38565633.068                         470.289          24.774  
C12  26115455.546                       -2984.647          24.844  
C13  38470985.591   200328424.103        1337.537          29.001  
C20  25831557.485                        -626.856          24.405  
C23  22017660.191   114651762.516        1024.596          35.367  
C25  22691724.346   118161890.960       -1779.585          27.373  
E02                                                                                                                                  26638446.487   104534960.948        1782.221          29.615  
E03                                                                  26067477.961   136985557.2701      -1988.907          25.474    26067479.759   102294374.604       -1485.182          32.096  
E08                                                                  24678654.023   129687178.425         439.766          26.723  
E11                                                                  24020602.383   126229060.573        2764.575          28.040    24020596.387    94262005.692        2064.404          27.646  
E12                                                                                                                                  23281878.991    91363147.679         161.282          28.753  
E25                                                                  22915788.630   120423390.515         683.076          34.739  
G02  24187340.952   127105280.039        2886.692          34.402  
G06  23250949.403   122184646.259        2058.489          31.684    23250950.902    91241762.162        1537.168          28.567  
G12  20327968.140   106824092.251        1265.176          35.745  
G15  24733147.598   129973699.751       -3574.521          35.556  
G17  23668939.534   124381140.443       -2897.009          34.000  
G19  21677995.336   113918528.422       -2099.421          32.215  
G24  20368279.733   107036069.438        -951.338          34.364    20368263.844    79929449.573        -710.414          33.584  
G25  23032456.762   121036403.6241       3043.148          28.863    23032437.275    90384214.642        2272.487          39.203  
G32  23664233.392   124356538.7811       2241.724          25.481    23664237.889    92863552.495        1673.967          29.746  
R01  22540223.928   120490314.170       -3040.507          31.921  
R02  22447357.218                         941.635          20.550  
R09  22880385.239   122180045.382       -3222.541          27.033  
R11  20335396.098   108666139.081        2274.560          36.932  
R20  20125627.118   107620823.326         374.355          27.506  
R21  21705698.558   116151780.502        4170.548          32.675  
> 2019  5 20  8 50 12.9999684  0 28
C08  38565546.728                         471.649          24.606  
C11  22261667.568   115922344.8521        904.859          33.146  
C12  26116023.053                       -2984.683          24.308  
C13  38470728.669   200327087.145        1336.958          28.773  
C20  25831680.400   134512352.4911       -629.078          24.183  
C23  22017462.328   114650738.539        1023.977          35.618  
C25  22692065.510   118163671.245       -1780.285          27.222  
E02                                                                                                                                  26637991.702   104533178.993        1781.954          29.952  
E03                                                                  26067862.894                       -1989.908          25.228    26067858.697   102295860.414       -1485.810          31.981  
E08                                                                  24678570.981                         438.726          26.245  
E11                                                                  24020074.448   126226296.605        2763.968          27.958    24020070.251    94259941.696        2063.996          27.136  
E12                                                                                                                                  23281838.519    91362987.026         160.654          28.502  
E25                                                                  22915658.220   120422707.941         682.574          34.549  
G02  24186791.433   127102393.831        2886.208          34.333  
G06  23250548.580   122182588.496        2057.763          30.818    23250559.972    91240225.516        1536.645          28.557  
G12  20327726.808   106822827.717        1264.534          35.359  
G15  24733829.926   129977274.584       -3574.833          36.060  
G17  23669492.951   124384038.044       -2897.601          33.573  
G19  21678394.660   113920628.709       -2100.287          32.363  
G24  20368457.210   107037021.652        -952.214          33.947    20368445.519    79930160.593        -711.021          33.804  
G25  23031866.471   121033361.009        3042.614          27.941    23031858.676    90381942.579        2272.063          39.163  
G32  23663804.689   124354297.532        2241.249          25.350    23663812.184    92861879.165        1673.330          29.820  
R01  22540799.229   120493355.477       -3041.307          31.778  
R02  22447211.219                         940.870          20.626  
R09  22880986.623   122183268.213       -3222.831          27.018  
R11  20334963.498   108663865.218        2273.863          36.535  
R20  20125560.564   107620450.144         373.182          27.194  
R21  21704924.793   116147610.708        4169.795          32.545  
> 2019  5 20  8 50 13.9999685  0 28
C08  38565486.769   200820552.0831        470.318          24.079  
C11  22261531.762   115921596.940         904.022          33.868  
C12  26116631.632                       -2985.924          24.109  
C13  38470502.026   200325906.676        1336.579          28.900  
C20  25831827.898   134513138.462        -629.861          24.345  
C23  22017297.742   114649871.204        1023.444          35.793  
C25  22692435.754   118165608.123       -1780.768          27.181  
E02                                                                                                                                  26637568.395   104531514.936        1781.702          30.012  
E03                                                                                                                                  26068267.914   102297464.215       -1486.156          32.009  
E08                                                                  24678517.918                         437.706          26.250  
E11                                                                  24019577.093   126223690.702        2763.445          27.760    24019576.493    94257995.716        2063.625          27.153  
E12                                                                                                                                  23281827.126    91362944.549         160.122          28.151  
E25                                                                  22915556.590   120422183.355         682.127          34.647  
G02  24186275.490   127099665.594        2885.779          34.412  
G06                                                                  23250197.823    91238807.008        1536.153          28.435  
G12  20327521.150   106821721.500        1263.759          35.156  
G15  24734537.736   129981007.180       -3575.054          36.172  
G17  23670074.848   124387093.734       -2898.148          33.619  
G19  21678824.862   113922887.363       -2101.112          32.561  
G24  20368664.667   107038132.160        -952.966          34.104    20368656.572    79930989.856        -711.618          33.716  
G25                                                                  23031308.257    90379788.504        2271.720          38.931  
G32  23663409.862   124352215.151        2239.923          25.353    23663415.259    92860324.112        1672.698          29.695  
R01  22541401.512   120496557.890       -3042.157          31.463  
R02  22447058.625                         941.894          20.080  
R09  22881620.384   122186651.617       -3223.317          27.421  
R11  20334563.575   108661752.135        2273.283          36.009  
R20  20125530.585   107620238.503         371.953          26.993  
R21  21704172.314   116143601.968        4169.164          32.058  
> 2019  5 20  8 50 14.9999685  0 28
C08  38565396.232   200820081.935         470.149          24.633  
C11  22261356.084   115920693.999         902.941          34.449  
C12  26117198.839   135999148.8891      -2986.224          24.094  
C13  38470243.605   200324570.770        1335.906          29.122  
C20  25831952.611                        -631.048          23.845  
C23  22017100.479   114648848.599        1022.605          36.144  
C25  22692782.014                       -1782.578          27.549  
E02                                                                                                                                  26637115.409   104529733.580        1781.356          29.818  
E03                                                                                                                                  26068646.252   102298951.027       -1486.812          31.808  
E08                                                                  24678424.382   129686021.4161        437.266          25.799  
E11                                                                  24019050.957   126220927.958        2762.744          27.204    24019048.858    94255932.618        2063.098          27.385  
E12                                                                                                                                  23281787.554    91362785.230         159.319          28.160  
E25                                                                  22915426.181   120421501.946         681.409          34.580  
G02  24185724.471   127096780.398        2885.196          34.033  
G06  23249788.606   122178632.9491       2056.053          28.012    23249807.793    91237271.676        1535.332          28.256  
G12  20327281.916   106820458.632        1262.867          34.808  
G15  24735220.063   129984582.768       -3575.588          36.500  
G17  23670624.967   124389992.626       -2898.891          33.912  
G19  21679225.385   113924989.572       -2102.209          32.955  
G24  20368840.345   107039086.154        -953.994          33.779    20368837.947    79931702.252        -712.396          33.551  
G25                                                                  23030730.257    90377517.300        2271.203          38.821  
G32                                                                  23662989.253    92858652.119        1671.993          29.559  
R01  22541961.825   120499600.979       -3043.089          30.882  
R02  22446892.839                         938.640          18.881  
R09  22882222.967   122189875.610       -3223.993          25.909  
R11  20334122.580   108659479.660        2272.475          35.430  
R20  20125436.150   107619868.089         370.414          26.474  
R21  21703400.349   116139433.713        4168.255          31.608  
> 2019  5 20  8 50 15.9999685  0 28
C08  38565306.294                         467.516          25.061  
C11  22261186.102   115919791.924         902.075          35.307  
C12  26117778.638                       -2984.997          23.967  
C13  38469988.181   200323235.311        1335.459          29.202  
C20  25832071.629                        -632.132          24.319  
C23  22016905.913   114647826.723        1021.876          36.387  
C25  22693132.471   118169171.8911      -1782.186          28.176  
E02                                                                                                                                  26636661.523   104527952.634        1780.946          29.718  
E03                                                                                                                                  26069026.389   102300438.291       -1487.264          31.667  
E08                                                                  24678344.937   129685584.946         436.470          25.691  
E11                                                                  24018512.830   126218165.868        2762.089          27.124    24018523.023    94253869.995        2062.623          26.881  
E12                                                                                                                                  23281745.883    91362626.574         158.655          27.962  
E25                                                                  22915297.270   120420821.074         680.873          34.375  
G02  24185173.453   127093895.799        2884.599          34.066  
G06                                                                  23249415.964    91235736.950        1534.726          29.297  
G12  20327044.780   106819196.564        1262.068          34.832  
G15  24735899.393   129988158.697       -3575.929          36.646  
G17  23671178.384   124392892.176       -2899.550          33.580  
G19  21679628.006   113927092.723       -2103.151          33.122  
G24  20369025.317   107040041.096        -954.942          33.921    20369021.120    79932415.295        -713.043          33.780  
G25  23030131.272   121024394.2131       3040.834          27.588    23030151.958    90375246.519        2270.782          38.909  
G32  23662560.850   124347737.9941       2238.112          26.481    23662563.848                        1671.075          29.494  
R01  22542522.736   120502644.967       -3043.989          30.543  
R02  22446703.970                         940.589          19.782  
R09  22882827.348                       -3224.663          26.345  
R11  20333690.879   108657207.827        2271.833          35.190  
R20  20125360.303   107619498.859         369.230          25.078  
R21  21702628.383   116135266.288        4167.425          32.013  
> 2019  5 20  8 50 16.9999686  0 28
C08  38565245.436                         467.873          24.367  
C11  22261041.302   115919046.866         901.168          35.534  
C12  26118377.923                       -2989.473          24.008  
C13  38469760.639   200322056.539        1334.882          29.249  
C20  25832231.119   134515189.6781       -632.567          25.043  
C23  22016740.728   114646961.527        1021.307          36.995  
C25  22693506.912   118171110.767       -1782.766          29.026  
E02                                                                                                                                  26636236.117   104526289.554        1780.725          29.681  
E03                                                                                                                                  26069434.406   102302043.685       -1487.750          31.590  
E08                                                                  24678290.975   129685306.866         435.622          25.331  
E11                                                                  24018020.570                        2760.949          27.184    24018028.365    94251925.475        2062.165          26.896  
E12                                                                                                                                  23281736.889    91362586.074         158.145          27.964  
E25                                                                  22915194.441   120420298.253         680.362          34.103  
G02  24184653.912   127091169.155        2884.186          33.625  
G06                                                                  23249054.714    91234320.495        1534.100          29.197  
G12  20326828.929   106818092.732        1261.374          34.997  
G15  24736614.998   129991892.452       -3576.213          37.376  
G17  23671760.881   124395949.795       -2900.077          34.103  
G19  21680055.810   113929354.291       -2104.025          32.767  
G24  20369234.273   107041154.327        -955.689          33.262    20369232.474    79933246.611        -713.672          33.911  
G25  23029578.155   121021511.443        3040.312          27.272    23029602.138    90373093.747        2270.417          38.922  
G32                                                                  23662166.323    92855427.7831       1670.643          29.723  
R01  22543125.019   120505850.015       -3044.791          30.474  
R02  22446561.269                         940.961          18.610  
R09  22883442.822   122196485.3351      -3225.076          26.408  
R11  20333294.553   108655096.812        2271.215          35.190  
R20  20125321.030                         366.957          24.341  
R21  21701882.799   116131259.927        4166.787          31.698  
> 2019  5 20  8 50 17.9999686  0 27
C08  38565159.695                         468.923          23.904  
C11  22260870.720   115918146.777         900.090          36.075  
C12  26118955.323                       -2989.616          23.227  
C13  38469502.518   200320722.332        1334.207          29.354  
C23  22016547.062   114645941.069        1020.458          37.107  
C25  22693854.671   118172894.401       -1783.634          29.786  
E02                                                                                                                                  26635783.431   104524509.185        1780.369          29.650  
E03                                                                                                                                  26069815.742   102303532.056       -1488.371          31.709  
E08                                                                  24678208.232   129684872.217         434.650          25.484  
E11                                                                  24017494.734   126212801.1211       2760.764          26.358    24017503.428    94249863.891        2061.584          26.885  
E12                                                                                                                                  23281695.817    91362428.789         157.285          28.001  
E25                                                                  22915064.331   120419618.661         679.592          34.047  
G02  24184105.292   127088285.700        2883.455          33.045  
G06                                                                  23248663.485    91232787.155        1533.340          29.338  
G12  20326589.695   106816832.332        1260.400          35.112  
G15  24737296.726   129995469.218       -3576.766          37.555  
G17  23672313.698   124398850.758       -2900.963          34.047  
G19  21680454.833   113931459.398       -2105.108          32.350  
G24  20369418.345   107042111.111        -956.784          33.871    20369414.448    79933961.066        -714.454          33.959  
G25  23029003.453   121018471.756        3039.687          27.735    23029024.438    90370823.885        2269.862          38.720  
G32                                                                  23661742.716    92853757.802        1669.982          29.586  
R01  22543689.229   120508895.845       -3045.831          29.610  
R02  22446479.725                         931.381          21.066  
R09  22884050.801                       -3225.696          25.805  
R11  20332871.246   108652826.545        2270.267          34.683  
R20  20125259.273                         362.494          24.130  
R21  21701079.056   116127094.104        4165.822          31.037  
> 2019  5 20  8 50 18.9999687  0 26
C08  38565094.341                         466.530          24.351  
C11  22260728.318   115917403.795         899.091          36.137  
C12  26119561.504                       -2988.582          23.920  
C13  38469278.573   200319544.918        1333.524          29.523  
C23  22016383.075   114645077.566        1019.612          37.309  
C25  22694229.412   118174834.897       -1784.387          30.372  
E02                                                                                                                                  26635359.824   104522847.000        1779.829          29.886  
E03                                                                                                                                  26070223.760   102305138.739       -1489.038          31.623  
E08                                                                  24678144.076   129684596.049         433.710          25.610  
E11                                                                  24016999.177   126210198.579        2760.084          26.725    24017006.372    94247920.477        2061.059          26.552  
E25                                                                  22914961.202   120419097.300         678.903          33.443  
G02  24183584.853   127085560.384        2882.858          32.772  
G06                                                                  23248302.835    91231372.158        1532.642          29.468  
G12  20326379.540   106815730.363        1259.510          34.986  
G15  24738004.236   129999203.994       -3577.234          37.801  
G17  23672895.895   124401909.917       -2901.617          34.110  
G19  21680889.233   113933723.100       -2106.159          32.262  
G24  20369627.900   107043226.492        -957.839          33.837    20369628.500    79934794.036        -715.325          33.699  
G25  23028456.032   121015590.428        3038.870          28.258    23028475.218    90368672.228        2269.302          38.727  
G32                                                                  23661347.590    92852206.227        1669.220          29.656  
R01  22544290.013   120512102.970       -3046.868          29.329  
R02  22446294.154                         930.158          21.540  
R09  22884680.665                       -3223.643          25.423  
R11  20332486.313   108650717.206        2269.539          34.895  
R20  20125222.998   107618720.9671        364.799          24.851  
R21  21700355.357   116123089.572        4164.958          30.257  
> 2019  5 20  8 50 19.9999687  0 26
C08  38565005.302                         464.757          24.046  
C11  22260552.040   115916505.398         898.398          36.191  
C12  26120127.512                       -2988.652          23.936  
C13  38469022.550   200318211.660        1333.258          29.746  
C23  22016187.610   114644058.306        1019.260          37.238  
C25  22694575.073   118176619.709       -1784.812          30.953  
E02                                                                                                                                  26634904.439   104521067.226        1779.775          29.709  
E03                                                                  26070622.484   137001966.3741      -1994.392          26.554    26070604.196   102306628.067       -1489.328          31.457  
E08                                                                  24678067.030   129684162.938         433.111          25.601  
E11                                                                  24016471.243                        2760.296          26.577    24016483.235    94245859.665        2060.812          26.846  
E25                                                                  22914831.692   120418418.683         678.617          33.115  
G02  24183035.333   127082677.782        2882.601          32.460  
G06                                                                  23247911.905    91229839.973        1532.185          29.312  
G12  20326137.308   106814471.456        1258.907          34.412  
G15  24738688.662   130002781.306       -3577.311          38.046  
G17  23673446.014   124404811.913       -2901.996          33.644  
G19  21681291.554   113935829.928       -2106.828          32.118  
G24  20369812.572   107044184.933        -958.441          33.655    20369810.474    79935509.701        -715.665          33.652  
G25  23027878.931   121012551.798        3038.630          28.016    23027896.919    90366403.120        2269.107          38.556  
G32                                                                  23660920.386    92850537.476        1668.751          29.129  
R01  22544867.113   120515150.346       -3047.376          29.044  
R02  22446151.453                         934.756          22.649  
R09  22885286.546                       -3226.531          25.829  
R11  20332063.305   108648448.061        2269.145          35.159  
R20  20125145.951   107618357.017         363.950          25.866  
R21  21699578.594   116118925.190        4164.382          29.487  
> 2019  5 20  8 50 20.9999687  0 27
C08  38564911.767                         470.787          24.427  
C11  22260381.459   115915605.915         899.483          36.141  
C12  26120703.114                       -2988.571          23.444  
C13  38468766.527   200316876.862        1334.799          29.528  
C23  22015993.945   114643037.770        1020.535          37.576  
C25  22694920.134   118178403.167       -1783.458          31.417  
E02                                                                                                                                  26634452.352   104519286.212        1781.014          29.849  
E03                                                                                                                                  26070982.534   102308116.375       -1488.308          31.119  
E08                                                                  24677982.488   129683728.611         434.327          25.242  
E11                                                                  24015946.606                        2761.380          26.260    24015956.499    94243797.808        2061.857          26.303  
E12                                                                                                                                  23281607.079    91362076.7181        156.966          26.954  
E25                                                                  22914701.282   120417738.582         680.101          33.176  
G02  24182490.610   127079793.728        2884.055          32.600  
G06                                                                  23247520.976    91228306.888        1533.085          29.653  
G12  20325896.575   106813211.208        1260.248          33.334  
G15  24739369.191   130006356.929       -3575.624          38.278  
G17  23673997.932   124407712.541       -2900.628          33.208  
G19  21681690.578   113937935.674       -2105.746          32.035  
G24  20369996.345   107045142.256        -957.323          34.003    20369993.347    79936224.528        -714.827          34.131  
G25  23027300.631   121009511.664        3040.134          28.023    23027318.619    90364132.941        2270.179          38.507  
G32                                                                  23660497.978    92848867.862        1669.614          28.986  
R01  22545434.620   120518196.646       -3046.300          28.844  
R02  22445988.366                         934.567          24.103  
R09  22885886.730                       -3224.484          26.604  
R11  20331650.791   108646177.572        2270.489          35.530  
R20  20125087.492   107617992.479         364.538          26.441  
R21  21698790.140   116114759.520        4165.670          28.115  
> 2019  5 20  8 50 21.9999688  0 26
C08  38564848.211   200817273.4681        469.546          25.205  
C11  22260237.558   115914861.641         900.384          36.715  
C12  26121305.996                       -2983.848          24.120  
C13  38468535.687   200315696.875        1336.096          29.816  
C20  25832917.643   134518672.3101       -633.076          24.810  
C23  22015827.260   114642172.201        1021.679          37.661  
E02                                                                                                                                  26634029.045   104517621.801        1782.056          29.542  
E03                                                                                                                                  26071392.351   102309721.449       -1487.429          30.942  
E08                                                                  24677927.326   129683450.936         435.217          24.555  
E11                                                                  24015449.850   126202073.0161       2762.348          25.887    24015460.343    94241852.705        2062.747          26.570  
E25                                                                  22914598.753   120417214.789         681.335          32.970  
G02  24181969.271   127077065.922        2885.348          32.203  
G06                                                                  23247159.127    91226890.671        1533.862          28.565  
G12  20325683.422   106812107.549        1261.202          32.753  
G15  24740079.399   130010088.646       -3574.175          39.040  
G17  23674579.829   124410769.499       -2899.417          33.386  
G19  21682121.080   113940198.128       -2104.913          31.894  
G24  20370207.399   107046256.144        -956.345          33.330    20370204.401    79937056.397        -714.224          33.977  
G25  23026755.909   121006627.932        3041.274          28.775    23026769.699    90361979.460        2271.127          38.368  
G32  23660091.759   124334794.5311       2236.736          30.559    23660100.154    92847315.237        1670.271          29.854  
R01  22546029.409   120521402.104       -3045.202          28.338  
R02  22445836.970   119775311.2221        934.623          25.465  
R09  22886518.693   122212933.6301      -3223.924          27.305  
R11  20331264.359   108644066.141        2271.631          36.140  
R20  20125053.016   107617787.701         365.091          27.301  
R21  21698043.957                        4167.616          27.212  
> 2019  5 20  8 50 22.9999688  0 26
C08  38564761.271   200816803.367         470.100          25.160  
C11  22260066.077   115913961.010         900.630          36.505  
C12  26121880.698                       -2983.063          23.578  
C13  38468279.664   200314360.215        1336.660          29.675  
C23  22015632.395   114641150.001        1022.200          37.889  
C25  22695638.736   118182123.2901      -1781.772          31.337  
E02                                                                                                                                  26633574.860   104515839.198        1782.603          29.347  
E03                                                                                                                                  26071771.288   102311208.525       -1487.076          31.260  
E08                                                                  24677841.886   129683015.275         435.661          24.376  
E11                                                                  24014924.614                        2762.276          25.181    24014935.706    94239789.506        2063.199          26.195  
E25                                                                  22914468.044   120416532.792         681.997          32.341  
G02  24181422.749   127074179.676        2886.246          32.334  
G06                                                                  23246769.696    91225356.553        1534.118          28.064  
G12  20325440.590   106810845.895        1261.654          32.275  
G15  24740762.027   130013661.990       -3573.344          39.155  
G17  23675139.542   124413668.334       -2898.835          33.404  
G19  21682520.104   113942302.668       -2104.540          31.316  
G24  20370398.067   107047212.205        -956.061          33.556    20370387.574    79937770.264        -713.868          33.876  
G25  23026178.209                        3041.630          29.634    23026191.399    90359707.885        2271.575          38.259  
G32  23659668.752   124332557.401        2237.130          31.473    23659676.547    92845644.696        1670.540          29.277  
R01  22546605.310   120524447.037       -3044.933          28.361  
R02  22445661.292   119774376.703         934.519          26.640  
R09  22887124.274   122216156.919       -3223.289          26.916  
R11  20330831.158   108641793.850        2272.291          35.662  
R20  20124990.959   107617422.662         365.039          27.128  
R21  21697255.503                        4169.317          26.467  
> 2019  5 20  8 50 23.9999688  0 26
C08  38564672.833   200816334.554         468.813          25.792  
C11  22259887.700   115913062.036         898.974          36.387  
C12  26122454.201                       -2987.286          23.171  
C13  38468020.943   200313024.827        1335.388          28.905  
C23  22015436.630   114640129.257        1020.744          38.379  
C25  22695982.898   118183906.455       -1783.165          32.889  
E02                                                                                                                                  26633120.374   104514057.425        1781.772          29.133  
E03                                                                  26072162.517   137010093.0471      -1992.797          24.916    26072149.027   102312696.755       -1488.229          31.044  
E08                                                                  24677756.745                         433.258          23.701  
E11                                                                  24014397.578   126196548.6351       2761.514          25.584    24014411.369    94237727.387        2062.119          25.625  
E25                                                                  22914335.236   120415852.199         680.593          32.392  
G02  24180877.427   127071294.993        2884.683          30.861  
G06                                                                  23246377.268    91223823.653        1532.900          27.277  
G12  20325198.058   106809585.832        1260.063          31.555  
G15  24741443.755   130017236.498       -3574.508          39.351  
G17  23675689.661   124416568.566       -2900.232          33.716  
G19  21682923.325   113944408.996       -2106.328          30.660  
G24  20370568.349   107048169.996        -957.791          32.163    20370568.649    79938485.461        -715.197          34.233  
G25  23025605.605   121000545.4461       3040.505          30.582    23025611.301    90357437.322        2270.563          38.151  
G32  23659245.745   124330321.925        2235.475          31.861    23659249.343    92843975.376        1669.320          29.404  
R01  22547165.622   120527493.676       -3046.639          28.210  
R02  22445491.609                         931.300          26.428  
R09  22887725.657   122219381.530       -3224.611          27.252  
R11  20330412.049   108639523.076        2270.774          35.374  
R20  20124935.497   107617059.821         362.841          28.239  
R21  21696473.044                        4167.036          23.715  
> 2019  5 20  8 50 24.9999689  0 26
C08  38564611.975   200816023.175         467.489          25.355  
C11  22259744.100   115912320.880         897.266          35.971  
C12  26123053.786                       -2990.791          22.428  
C13  38467795.200   200311846.833        1334.104          28.067  
C23  22015272.044   114639266.138        1019.228          38.448  
C25  22696362.735   118185847.185       -1784.621          34.075  
E02                                                                                                                                  26632694.969   104512394.143        1780.927          29.159  
E03                                                                  26072570.535                       -1994.903          23.901    26072557.944   102314303.650       -1489.250          30.638  
E08                                                                  24677700.983                         431.712          22.947  
E11                                                                  24013900.523   126193946.058        2760.119          25.475    24013916.412                        2060.544          25.585  
E25                                                                  22914235.105   120415330.414         679.327          32.652  
G02  24180360.585   127068569.063        2883.472          29.183  
G06                                                                  23246019.615    91222409.652        1531.647          28.530  
G12  20324993.300   106808484.839        1258.535          31.048  
G15  24742153.963   130020969.632       -3575.592          39.263  
G17  23676270.359   124419627.775       -2901.668          33.644  
G19  21683356.824   113946674.514       -2107.976          30.595  
G24  20370774.906   107049286.876        -959.338          30.412    20370781.801    79939319.535        -716.429          34.442  
G25  23025056.985   120997663.714        3039.274          31.397    23025063.880    90355285.387        2269.580          38.031  
G32  23658853.317   124328245.708        2233.759          32.697    23658853.916    92842424.858        1668.163          29.535  
R01  22547776.299   120530702.082       -3048.150          27.991  
R02  22445314.132   119772673.6941        930.512          26.279  
R09  22888377.706   122222767.589       -3225.971          28.281  
R11  20329997.136   108637413.962        2269.314          34.728  
R20  20124891.428   107616859.365         360.768          28.579  
R21  21695721.465                        4163.174          21.296  
> 2019  5 20  8 50 25.9999689  0 26
C08  38564516.341   200815556.854         466.321          25.413  
C11  22259570.220   115911425.114         895.766          35.768  
C12  26123632.086                       -2990.733          22.571  
C13  38467537.678   200310513.839        1332.993          28.193  
C23  22015075.980   114638248.068        1018.070          37.962  
C25  22696706.897   118187633.003       -1785.818          34.454  
E02                                                                                                                                  26632243.182   104510614.102        1780.040          30.055  
E03                                                                  26072950.672                       -1996.161          22.711    26072938.380   102315793.867       -1490.217          30.569  
E08                                                                  24677619.739   129681875.4351        430.932          24.651  
E11                                                                  24013377.685   126191187.252        2758.806          25.043    24013389.376    94233723.6421       2060.209          25.094  
E25                                                                  22914107.094   120414652.273         678.141          32.065  
G02  24179806.868   127065686.676        2882.387          30.490  
G06                                                                  23245627.487    91220879.094        1530.558          29.546  
G12  20324743.273   106807227.684        1257.155          30.279  
G15  24742833.593   130024546.165       -3576.534          39.749  
G17  23676825.575   124422530.609       -2902.833          33.274  
G19  21683760.645   113948784.017       -2109.502          30.027  
G24  20370959.278   107050247.726        -960.851          29.879    20370966.473    79940036.994        -717.458          34.701  
G25  23024481.083   120994625.610        3038.104          32.691    23024485.580    90353016.673        2268.714          38.071  
G32  23658429.410   124326013.387        2232.321          33.092    23658430.609    92840757.898        1666.960          28.900  
R01  22548350.102   120533751.791       -3049.709          28.470  
R02  22445144.450   119771745.123         928.571          26.661  
R09  22888985.085   122225994.588       -3226.998          27.912  
R11  20329574.428   108635145.972        2267.989          34.570  
R20  20124825.173   107616500.454         358.911          28.599  
R21  21694925.216                        4160.940          23.654  
> 2019  5 20  8 50 26.9999690  0 26
C08  38564453.984                         466.600          24.296  
C11  22259428.418   115910686.669         894.555          36.132  
C12  26124235.568                       -2990.641          22.631  
C13  38467308.337   200309337.786        1332.163          27.536  
C23  22014910.495   114637387.130        1017.048          37.967  
C25  22697079.839   118189575.925       -1786.812          34.701  
E02                                                                                                                                  26631820.175   104508952.099        1779.648          30.011  
E03                                                                  26073352.993   137016394.6631      -1996.595          20.175    26073346.997   102317402.412       -1490.900          30.416  
E08                                                                  24677564.877                         429.095          23.620  
E11                                                                  24012882.727   126188586.814        2757.980          24.372    24012895.918    94231781.729        2059.558          24.530  
E25                                                                  22914007.862   120414132.588         677.228          32.353  
G02  24179287.927   127062962.734        2881.484          30.258  
G06                                                                  23245267.136                        1529.466          29.612  
G12  20324536.116   106806129.191        1256.035          29.791  
G15  24743544.700   130028280.912       -3577.205          39.727  
G17  23677412.868   124425591.966       -2903.815          33.232  
G19  21684193.845   113951052.330       -2110.771          30.249  
G24  20371172.431                        -962.480          28.252    20371178.726    79940873.094        -718.456          34.949  
G25  23023937.859   120991745.934        3037.217          33.944    23023936.960    90350866.250        2268.068          38.042  
G32  23658036.082   124323939.824        2231.106          32.872    23658035.183    92839209.458        1666.085          29.052  
R01  22548949.687   120536962.924       -3050.877          28.195  
R02  22445018.837                         926.255          26.535  
R09  22889624.543   122229382.662       -3227.987          28.211  
R11  20329189.795   108633039.165        2267.007          35.565  
R20  20124786.200   107616303.532         357.235          28.362  
R21  21694192.223   116089925.6211       4161.581          26.329  
> 2019  5 20  8 50 27.9999690  0 27
C08  38564362.847                         464.062          23.030  
C11  22259259.036   115909793.183         893.486          36.431  
C12  26124807.272                       -2991.855          23.631  
C13  38467057.111   200308006.303        1331.483          27.699  
C20  25833730.081                        -640.430          23.184  
C23  22014715.330   114636370.921        1016.209          37.593  
C25  22697424.600   118191363.508       -1787.584          34.769  
E02                                                                                                                                  26631365.989   104507172.958        1779.141          30.351  
E03                                                                  26073735.229   137018391.982       -1997.320          19.664    26073727.734   102318894.020       -1491.608          30.307  
E08                                                                  24677480.336                         428.793          23.864  
E11                                                                  24012357.191                        2756.791          23.263    24012369.183    94229722.789        2058.940          24.180  
E25                                                                  22913878.652   120413456.048         676.540          32.152  
G02  24178736.909   127060081.825        2880.909          30.203  
G06  23244855.521                        2042.797          19.953    23244878.006    91217937.9531       1529.024          29.436  
G12  20324301.679   106804874.070        1255.121          29.623  
G15  24744228.227   130031858.624       -3577.712          39.925  
G17  23677962.688   124428496.548       -2904.582          33.384  
G19  21684597.066   113953164.235       -2111.905          30.415  
G24  20371352.306   107052330.4411       -963.105          27.652    20371361.600    79941592.252        -719.158          35.118  
G25  23023363.457   120988709.439        3036.496          34.958    23023358.960    90348598.729        2267.521          37.912  
G32  23657615.474   124321709.719        2230.104          33.036    23657610.377    92837544.106        1665.352          28.923  
R01  22549512.098   120540014.884       -3051.960          27.660  
R02  22444845.557                         925.165          26.584  
R09  22890215.733   122232611.232       -3228.570          28.326  
R11  20328755.695   108630772.999        2266.166          36.106  
R20  20124709.753   107615947.782         355.750          28.729  
R21  21693435.547   116085764.905        4160.715          27.089  
> 2019  5 20  8 50 28.9999690  0 25
C08  38564279.205                         466.673          23.025  
C11  22259088.754   115908900.696         892.486          36.687  
C12  26125388.870   136041767.8351      -2991.781          24.218  
C13  38466801.388   200306675.328        1330.975          27.834  
C23  22014520.165   114635355.401        1015.520          37.835  
E02                                                                                                                                  26630911.803   104505394.149        1778.808          30.654  
E03                                                                                                                                  26074107.571   102320386.066       -1492.047          30.320  
E08                                                                  24677402.390   129680746.2911        427.888          23.825  
E11                                                                  24011826.858                        2756.428          22.772    24011847.244                        2058.543          23.926  
E25                                                                  22913750.041   120412780.100         675.947          32.016  
G02  24178189.488   127057201.534        2880.291          29.695  
G06                                                                  23244487.676    91216409.656        1528.296          29.238  
G12  20324062.145   106803619.844        1254.226          29.854  
G15  24744910.555   130035436.748       -3578.124          40.150  
G17  23678512.207   124431401.745       -2905.197          32.977  
G19  21684996.989   113955277.030       -2112.795          30.525  
G24  20371535.479   107053294.515        -964.074          27.821    20371546.872    79942312.143        -719.890          35.082  
G25  23022789.654   120985673.576        3035.863          35.338    23022781.560    90346331.689        2267.040          37.976  
G32  23657190.068   124319480.482        2229.237          33.481    23657185.271    92835879.467        1664.640          29.068  
R01  22550073.009   120543067.633       -3052.749          27.692  
R02  22444668.979                         923.843          26.026  
R09  22890829.708   122235840.484       -3229.252          28.716  
R11  20328343.181   108628507.546        2265.453          36.352  
R20  20124657.889   107615593.279         354.502          28.588  
R21  21692667.779   116081604.989        4159.916          28.180  
> 2019  5 20  8 50 29.9999691  0 26
C08  38564209.054                         464.558          22.439  
C11  22258947.851   115908164.916         891.890          36.589  
C12  26125995.050                       -2993.746          24.369  
C13  38466575.944   200305500.845        1330.593          27.754  
C23  22014353.780   114634496.442        1015.069          37.479  
C25  22698144.402   118195096.5851      -1788.677          34.502  
E02                                                                                                                                  26630490.595   104503733.097        1778.698          30.759  
E03                                                                                                                                  26074517.087   102321996.120       -1492.409          29.897  
E08                                                                  24677347.828                         427.151          23.861  
E11                                                                  24011332.201                        2756.425          23.006    24011349.888                        2058.044          24.101  
E25                                                                  22913651.409   120412261.983         675.660          31.958  
G02  24177671.446   127054479.014        2880.062          29.549  
G06  23244107.539                        2046.506          21.636    23244127.625    91214999.384        1527.917          29.133  
G12  20323856.487   106802523.550        1253.835          30.247  
G15  24745621.663   130039172.456       -3578.166          40.022  
G17  23679095.903   124434464.880       -2905.593          32.932  
G19  21685429.290   113957548.050       -2113.478          30.189  
G24  20371752.529   107054416.644        -964.588          27.401    20371759.424    79943150.105        -720.318          35.181  
G25  23022242.533   120982795.519        3035.599          35.800    23022233.240    90344182.479        2266.854          37.520  
G32  23656795.841   124317409.435        2228.589          33.420    23656793.443    92834332.847        1664.264          29.224  
R01  22550677.990                       -3054.012          27.358  
R02  22444528.376   119768364.0461        923.570          25.183  
R09  22891466.767   122239230.000       -3229.428          28.852  
R11  20327940.560   108626402.649        2265.098          36.518  
R20  20124617.717   107615400.239         353.353          28.605  
R21  21691926.392   116077878.978        4159.436          29.822  
> 2019  5 20  8 50 30.9999691  0 26
C08  38564125.112                         459.215          21.893  
C11  22258775.770   115907274.024         890.892          36.788  
C12  26126564.656                       -2995.128          23.275  
C13  38466316.623   200304170.781        1330.065          28.166  
C23  22014159.514   114633482.120        1014.321          37.493  
C25  22698488.563   118196885.991       -1789.406          34.067  
E02                                                                                                                                  26630036.110   104501954.670        1778.427          30.624  
E03                                                                                                                                  26074898.124   102323489.181       -1493.060          29.524  
E08                                                                  24677266.284                         426.306          23.902  
E11                                                                  24010814.759                        2755.486          23.292    24010827.350    94223666.0161       2057.711          24.264  
E25                                                                  22913522.798   120411587.002         674.981          32.145  
G02  24177121.327   127051599.575        2879.439          28.299  
G06                                                                  23243739.394    91213472.124        1527.260          29.214  
G12  20323618.452   106801270.675        1252.875          30.923  
G15  24746301.892   130042751.059       -3578.603          40.187  
G17  23679648.720   124437371.165       -2906.285          32.899  
G19  21685833.110   113959662.541       -2114.491          30.635  
G24  20371936.602   107055382.252        -965.608          27.356    20371943.797    79943871.158        -721.053          35.399  
G25  23021666.632   120979760.561        3034.958          36.252    23021655.540    90341916.107        2266.372          37.708  
G32  23656371.934   124315181.749        2227.685          34.033    23656370.136    92832669.380        1663.467          29.156  
R01  22551243.099   120549335.5971      -3054.289          27.372  
R02  22444323.618                         921.853          25.534  
R09  22892082.541   122242460.020       -3230.020          29.718  
R11  20327529.544   108624138.297        2264.352          36.755  
R20  20124550.863   107615048.297         351.942          28.744  
R21  21691157.424   116073720.384        4158.594          30.253  
> 2019  5 20  8 50 31.9999691  0 26
C08  38564037.273                         456.932          21.620  
C11  22258606.088   115906384.018         890.006          36.965  
C12  26127139.058                       -2994.133          22.650  
C13  38466065.697   200302841.220        1329.560          28.500  
C23  22013966.748   114632468.425        1013.695          37.297  
C25  22698830.027   118198675.992       -1790.002          33.837  
E02                                                                                                                                  26629584.023   104500176.606        1778.064          30.470  
E03                                                                                                                                  26075278.260   102324982.666       -1493.486          29.445  
E08                                                                  24677186.239                         424.819          23.219  
E11                                                                  24010292.820                        2754.827          22.563    24010299.715                        2057.789          23.892  
E25                                                                  22913395.986   120410912.503         674.498          31.736  
G02  24176564.613                        2878.632          27.407  
G06                                                                  23243349.664    91211945.548        1526.576          29.276  
G12  20323381.915   106800018.494        1252.182          31.236  
G15  24746983.620   130046329.988       -3578.928          40.419  
G17  23680210.531   124440278.005       -2906.840          33.132  
G19  21686239.629   113961777.942       -2115.401          30.749  
G24  20372122.473   107056348.730        -966.477          27.774    20372125.771    79944592.882        -721.724          35.497  
G25  23021091.630   120976726.143        3034.418          36.240    23021078.139    90339650.164        2265.942          37.844  
G32  23655950.127   124312954.976        2226.773          34.247    23655944.131    92831006.522        1662.858          28.863  
R01  22551805.810   120552390.804       -3055.206          27.009  
R02  22444156.634   119766520.6551        921.169          25.389  
R09  22892687.822   122245690.624       -3230.604          30.313  
R11  20327106.837   108621874.673        2263.623          36.889  
R20  20124483.110   107614697.601         350.696          29.013  
R21  21690384.859   116069562.553        4157.831          31.639  
> 2019  5 20  8 50 32.9999692  0 25
C08  38563980.612                         458.622          20.730  
C11  22258463.686   115905651.268         888.860          36.820  
C12  26127747.936                       -2993.247          22.885  
C13  38465836.955   200301668.539        1328.792          27.700  
C23  22013800.063   114631611.732        1012.803          37.499  
C25  22699205.667   118200623.023       -1790.921          33.335  
E02                                                                                                                                  26629159.816   104498516.679        1777.572          30.511  
E03                                                                                                                                  26075688.377   102326594.380       -1494.068          29.427  
E11                                                                  24009798.462                        2753.609          22.398    24009808.356                        2056.460          23.788  
E25                                                                  22913296.155   120410396.371         673.675          32.135  
G02  24176042.374   127045999.8871       2878.201          26.510  
G06                                                                  23242990.812    91210537.356        1525.838          29.838  
G12  20323172.660   106798924.927        1251.109          31.258  
G15  24747697.725   130050067.040       -3579.510          40.496  
G17  23680791.529   124443343.281       -2907.735          33.361  
G19  21686673.428   113964052.014       -2116.530          30.276  
G24  20372335.925   107057473.880        -967.608          27.865    20372339.823    79945433.117        -722.590          35.293  
G25  23020540.611   120973850.080        3033.605          36.137    23020530.718    90337502.444        2265.365          37.734  
G32  23655561.595   124310886.835        2225.683          33.555    23655551.702    92829462.105        1662.062          29.145  
R01  22552404.795   120555607.326       -3056.266          26.874  
R02  22443992.947                         920.550          25.957  
R09  22893320.984   122249082.146       -3231.435          30.358  
R11  20326705.714   108619772.178        2262.696          36.815  
R20  20124449.833   107614508.782         349.132          29.543  
R21  21689636.277   116065566.113        4156.865          32.468  
> 2019  5 20  8 50 33.9999692  0 25
C08  38563880.781                         458.755          20.113  
C11  22258295.203   115904763.375         887.893          37.039  
C12  26128319.041                       -2992.801          22.416  
C13  38465578.234   200300340.376        1328.163          27.716  
C23  22013607.896   114630599.702        1012.030          37.399  
C25  22699550.728   118202414.623       -1791.599          32.179  
E02                                                                                                                                  26628708.329   104496739.384        1777.294          30.193  
E03                                                                                                                                  26076069.413   102328089.109       -1494.729          29.154  
E11                                                                  24009270.828                        2753.505          22.942    24009281.620    94217613.5861       2056.116          23.630  
E25                                                                  22913169.643   120409723.291         673.079          32.289  
G02  24175480.563                        2877.890          24.510  
G06  23242633.460                        2041.735          25.516    23242602.881    91209012.216        1525.140          29.815  
G12  20322938.522   106797674.578        1250.349          31.470  
G15  24748374.957   130053646.957       -3579.917          40.496  
G17  23681342.847   124446251.674       -2908.393          33.499  
G19  21687077.249   113966169.538       -2117.524          29.862  
G24  20372515.501   107058442.411        -968.531          27.969    20372525.094    79946156.378        -723.261          35.380  
G25  23019965.609   120970817.066        3033.014          36.025    23019953.918    90335237.538        2264.906          37.601  
G32  23655140.087   124308662.030        2224.805          33.465    23655127.196    92827800.719        1661.386          29.517  
R01  22552972.902   120558664.585       -3057.259          26.122  
R02  22443841.252   119764527.6451        918.343          25.773  
R09  22893937.657   122252314.108       -3231.961          30.588  
R11  20326286.605   108617510.133        2262.045          36.801  
R20  20124383.279   107614161.108         347.674          29.543  
R21  21688861.614   116061410.074        4156.039          33.661  
> 2019  5 20  8 50 34.9999692  0 26
C08  38563784.847                         461.329          20.356  
C11  22258125.520   115903876.315         887.060          36.702  
C12  26128901.838                       -2995.595          22.364  
C13  38465322.511   200299012.551        1327.825          26.729  
C23  22013411.532   114629588.191        1011.510          37.285  
C25  22699891.592   118204206.701       -1792.078          30.931  
E02                                                                                                                                  26628255.942   104494962.333        1777.051          30.029  
E03                                                                                                                                  26076450.149   102329584.232       -1495.123          29.125  
E08                                                                  24676968.890                         422.763          23.186  
E11                                                                  24008754.585                        2752.917          22.764    24008758.482                        2055.605          23.700  
E25                                                                  22913040.432   120409050.637         672.654          32.076  
G02  24174934.641                        2877.255          23.234  
G06  23242245.828   122138733.9391       2041.669          27.010    23242213.750    91207487.635        1524.581          29.970  
G12  20322695.091   106796424.942        1249.636          31.771  
G15  24749057.284   130057227.103       -3580.146          40.286  
G17  23681899.262   124449160.584       -2908.910          33.768  
G19  21687484.967   113968287.884       -2118.346          30.063  
G24  20372703.171   107059411.714        -969.304          28.982    20372708.567    79946880.198        -723.821          35.719  
G25  23019388.809   120967784.518        3032.548          35.737    23019375.918    90332972.964        2264.574          37.770  
G32  23654716.481   124306437.979        2224.051          33.751    23654704.189    92826139.944        1660.775          29.438  
R01  22553541.908                       -3058.631          25.630  
R02  22443682.362                         916.972          26.333  
R09  22894541.739   122255546.570       -3232.462          30.617  
R11  20325851.906   108615248.643        2261.489          36.889  
R20  20124326.619   107613814.539         346.569          30.168  
R21  21688083.352   116057254.729        4155.344          34.619  
> 2019  5 20  8 50 35.9999693  0 26
C08  38563732.084                         463.159          20.450  
C11  22257982.220   115903146.246         886.178          36.629  
C12  26129502.622                       -2996.309          21.966  
C13  38465098.267   200297841.314        1327.346          26.965  
C23  22013248.745   114628733.466        1010.836          37.252  
C25  22700265.433   118206155.562       -1792.751          30.550  
E02                                                                                                                                  26627832.935   104493303.207        1776.772          29.965  
E03                                                                                                                                  26076860.865   102331197.469       -1495.591          28.614  
E08                                                                  24676915.527   129678245.6961        422.236          22.763  
E11                                                                  24008254.531                        2751.595          23.157    24008264.724    94213620.1451       2055.347          23.751  
E25                                                                  22912943.599   120408536.095         672.084          32.257    22912960.987    89915380.2691        501.913          27.964  
G02  24174425.294   127037525.7421       2876.723          23.562  
G06  23241886.077   122136850.665        2040.816          27.399    23241855.198    91206081.253        1524.027          29.403  
G12  20322491.232   106795333.600        1248.885          32.207  
G15  24749768.092   130060965.095       -3580.450          40.320  
G17  23682484.757   124452227.585       -2909.459          33.580  
G19  21687918.766   113970564.635       -2119.209          29.940  
G24  20372920.820   107060539.396        -970.139          28.974    20372923.219    79947722.329        -724.486          35.599  
G25  23018839.289   120964910.059        3032.001          35.004    23018829.396    90330826.442        2264.167          37.792  
G32  23654320.754   124304372.342        2223.179          33.497    23654312.660    92824597.430        1660.159          29.356  
R01  22554133.398                       -3059.043          24.240  
R02  22443527.669   119762854.3061        916.042          26.878  
R09  22895184.194   122258939.554       -3232.897          30.885  
R11  20325461.876   108613147.937        2260.906          36.499  
R20  20124284.947   107613629.611         345.240          30.231  
R21  21687334.771   116053260.510        4154.645          35.132  
> 2019  5 20  8 50 36.9999693  0 26
C08  38563649.341                         456.623          19.785  
C11  22257809.539   115902260.883         885.363          36.116  
C12  26130076.425                       -2995.874          21.938  
C13  38464846.741   200296514.509        1326.806          26.985  
C23  22013052.981   114627723.258        1010.207          37.325  
C25  22700612.593   118207948.978       -1793.416          29.105  
E02                                                                                                                                  26627381.747   104491526.742        1776.465          30.026  
E03                                                                                                                                  26077241.901   102332693.523       -1496.055          29.012  
E08                                                                  24676839.679                         421.240          22.400  
E11                                                                  24007730.794   126161514.0821       2751.850          22.595    24007742.186                        2054.742          23.189  
E25                                                                  22912814.389   120407864.506         671.589          32.712    22912833.276    89914878.746         501.524          28.326  
G02  24173878.772   127034649.533        2876.209          24.925  
G06  23241495.747                        2039.838          27.295    23241466.667    91204557.824        1523.429          29.488  
G12  20322257.694   106794085.441        1248.159          32.972  
G15  24750449.520   130064545.889       -3580.795          40.255  
G17  23683040.572   124455137.655       -2910.070          33.203  
G19  21688321.088                       -2120.865          28.864  
G24  20373103.994   107061510.396        -971.000          29.380    20373107.891    79948447.439        -725.110          35.458  
G25  23018256.792   120961878.563        3031.497          34.469    23018252.895    90328562.675        2263.767          38.137  
G32  23653897.448   124302149.957        2222.385          33.668    23653887.255    92822937.849        1659.580          29.221  
R01  22554693.411                       -3058.088          22.123  
R02  22443341.798   119761939.357         914.949          27.455  
R09  22895791.873   122262172.960       -3233.406          31.276  
R11  20325031.973   108610887.730        2260.208          35.996  
R20  20124227.087   107613285.680         343.931          30.382  
R21  21686577.195   116049106.559        4153.950          35.297  
> 2019  5 20  8 50 37.9999694  0 26
C08  38563585.785                         456.634          19.694  
C11  22257670.136   115901532.384         884.609          35.729  
C12  26130682.905                       -2993.033          22.132  
C13  38464620.997   200295344.080        1326.538          26.366  
C23  22012889.893   114626869.660        1009.708          36.448  
C25  22700989.132   118209898.808       -1793.720          27.540  
E02                                                                                                                                  26626959.340   104489867.998        1776.388          30.231  
E03                                                                                                                                  26077654.416   102334307.571       -1496.403          28.975  
E08                                                                  24676792.612                         420.783          22.606  
E11                                                                                                                                  24007246.329                        2054.654          22.710  
E25                                                                  22912720.554   120407350.817         671.230          32.926    22912736.443    89914495.140         501.251          28.082  
G02  24173368.525   127031930.985        2876.090          24.779  
G06  23241144.990   122132928.2461       2039.414          25.864    23241109.615    91203152.557        1522.912          30.058  
G12  20322049.638   106792995.386        1247.597          34.036  
G15  24751158.230   130068284.317       -3580.886          39.896  
G17  23683618.572   124458205.657       -2910.460          33.834  
G19  21688758.185   113974963.0551      -2120.767          27.457  
G24  20373321.343   107062639.544        -971.607          30.282    20373322.243    79949290.663        -725.579          35.362  
G25  23017714.168   120959005.002        3031.102          34.814    23017706.373    90326416.805        2263.515          38.244  
G32  23653500.223   124300085.812        2221.687          33.965    23653496.925    92821396.437        1659.057          29.073  
R01  22555285.801                       -3060.750          21.380  
R02  22443216.784   119761185.484         913.849          26.851  
R09  22896444.521   122265566.854       -3233.806          30.830  
R11  20324656.033   108608788.194        2259.736          35.860  
R20  20124186.915   107613103.069         342.924          30.747  
R21  21685821.118   116045113.570        4153.414          34.695  
> 2019  5 20  8 50 38.9999694  0 25
C08  38563497.646                         458.936          19.237  
C11  22257501.053   115900648.423         883.962          35.947  
C12  26131265.102                       -2993.949          21.840  
C13  38464363.475   200294017.922        1326.158          26.063  
C23  22012695.328   114625860.335        1009.326          36.531  
C25  22701334.493   118211693.007       -1794.199          26.835  
E02                                                                                                                                  26626505.754   104488091.805        1776.193          29.848  
E03                                                                                                                                  26078034.852   102335804.319       -1496.748          28.404  
E08                                                                  24676717.364   129677140.9731        420.048          22.638    24676737.450                         313.146          21.077  
E11                                                                  24006716.896                        2750.765          23.330    24006723.491                        2054.231          23.715  
E25                                                                  22912589.245   120406679.927         670.891          32.680    22912606.033    89913994.182         500.958          27.769  
G02  24172819.905   127029055.325        2875.661          24.541  
G06  23240752.562   122130889.354        2038.893          25.990    23240722.583    91201630.067        1522.490          30.460  
G12  20321814.900   106791748.337        1247.049          34.726  
G15  24751842.356   130071865.320       -3581.004          40.065  
G17  23684175.586   124461116.506       -2910.849          33.369  
G19  21689163.205   113977084.550       -2121.495          26.749  
G24  20373514.709   107063611.908        -972.364          31.590    20373506.915    79950016.713        -726.050          35.472  
G25  23017134.369   120955974.126        3030.877          34.223    23017129.873    90324153.527        2263.278          38.304  
G32  23653078.415   124297864.710        2221.102          34.068    23653073.618    92819737.812        1658.625          28.739  
R02  22443032.112   119760272.591         912.893          27.274  
R09  22897045.006   122268800.921       -3234.067          31.271  
R11  20324227.330   108606528.850        2259.345          36.688  
R20  20124120.961   107612761.258         341.811          30.659  
R21  21685054.849   116040960.697        4152.873          33.875  
> 2019  5 20  8 50 39.9999694  0 25
C08  38563411.606                         460.366          18.657  
C11  22257327.473   115899764.916         883.507          35.666  
C12  26131831.110                       -3002.578          21.197  
C13  38464112.549   200292691.659        1326.264          26.170  
C23  22012501.962   114624851.240        1009.095          36.341  
C25  22701675.657                       -1794.161          24.726  
E02                                                                                                                                  26626053.067   104486315.488        1776.317          29.279  
E03                                                                                                                                  26078416.488   102337301.200       -1496.881          28.304  
E08                                                                  24676633.722                         420.365          22.232    24676649.911    96836467.0491        313.545          22.162  
E11                                                                  24006195.257                        2751.686          24.387    24006200.953                        2054.510          23.454  
E25                                                                  22912461.533   120406009.042         670.885          31.816    22912478.022    89913493.219         500.963          27.658  
G02  24172282.377                        2876.945          23.828  
G06  23240368.528   122128850.939        2038.415          25.362    23240334.351    91200107.828        1522.239          30.649  
G12  20321578.664   106790501.619        1246.719          35.018  
G15  24752523.185   130075446.186       -3580.866          40.226  
G17  23684724.806   124464027.499       -2910.992          32.890  
G19  21689557.732   113979206.531       -2121.981          26.316  
G24  20373704.178   107064584.674        -972.766          32.029    20373692.786    79950743.124        -726.411          35.628  
G25  23016557.869   120952943.434        3030.692          34.549    23016553.072    90321890.323        2263.205          38.399  
G32  23652656.307   124295643.996        2220.714          34.650    23652649.412    92818079.549        1658.264          28.557  
R02  22442849.239   119759360.469         912.122          27.429  
R09  22897646.989   122272035.038       -3234.118          31.289  
R11  20323814.516   108604269.743        2259.107          36.916  
R20  20124064.900   107612420.249         341.009          30.391  
R21  21684280.785   116036808.130        4152.568          33.948  
> 2019  5 20  8 50 40.9999695  0 26
C08  38563358.842                         462.833          20.482  
C11  22257189.568   115899036.203         884.823          34.844  
C12  26132439.089                       -2998.162          19.849  
C13  38463889.503   200291519.993        1327.775          26.102  
C20  25835454.487                        -649.687          22.614  
C23  22012337.976   114623996.717        1010.633          36.658  
C25  22702039.605   118215436.7281      -1792.732          24.682  
E02                                                                                                                                  26625630.060   104484655.504        1777.629          28.912  
E03                                                                  26078851.187                       -2002.983          21.591    26078826.604   102338914.612       -1495.767          27.688  
E08                                                                  24676579.160   129676457.2631        421.304          22.494    24676604.942                         315.731          22.224  
E11                                                                  24005704.197   126150823.1301       2752.600          25.483    24005704.796    94203581.7751       2055.512          22.123  
E25                                                                  22912365.599   120405494.113         672.471          32.145    22912382.688    89913108.660         502.204          28.556  
G06  23240013.873   122126968.771        2039.710          23.707    23239976.699    91198702.235        1523.238          30.825  
G12  20321368.509   106789410.945        1248.216          35.324  
G15  24753233.093   130079182.741       -3579.013          40.261  
G17  23685310.001   124467094.429       -2909.388          33.560  
G19  21689985.236   113981484.648       -2120.575          25.738  
G24  20373919.429   107065713.575        -971.359          33.167    20373907.437    79951586.175        -725.406          35.173  
G25  23016010.747   120950068.578        3032.398          34.257    23016006.250    90319743.545        2264.423          38.361  
G32  23652260.581   124293579.479        2222.060          34.793    23652256.683    92816537.859        1659.334          29.086  
R01  22557068.666                       -3052.925          18.783  
R02  22442699.642   119758607.328         913.116          27.031  
R09  22898290.343   122275427.591       -3232.465          30.985  
R11  20323419.689   108602169.189        2260.754          36.896  
R20  20124029.524   107612238.634         341.927          30.315  
R21  21683539.998   116032814.411        4154.144          31.996  
> 2019  5 20  8 50 41.9999695  0 26
C08  38563264.707                         462.630          21.173  
C11  22257018.387   115898150.243         885.960          34.511  
C12  26133016.189                       -2991.510          19.748  
C13  38463632.581                        1327.973          25.800  
C20  25835583.098                        -645.909          21.140  
C23  22012144.609   114622984.647        1012.069          36.602  
C25  22702387.364                       -1791.002          26.370  
E02                                                                                                                                  26625176.774   104482876.617        1778.887          29.258  
E03                                                                  26079244.815                       -2002.883          23.326    26079208.240   102340409.262       -1494.650          27.159  
E08                                                                  24676499.115                         423.398          21.907    24676522.199                         316.311          22.211  
E11                                                                  24005184.357   126148069.191        2753.939          27.329    24005181.359                        2056.961          23.482  
E25                                                                  22912237.588   120404820.086         674.027          32.430    22912253.477    89912605.338         503.322          29.000  
G06  23239616.948                        2041.604          24.648    23239588.468    91197178.079        1524.156          31.075  
G12  20321131.373   106788161.484        1249.461          34.925  
G15  24753915.421   130082760.006       -3577.265          40.185  
G17  23685864.018   124470002.343       -2907.914          33.184  
G19  21690389.356                       -2118.854          23.883  
G24  20374107.699   107066683.737        -970.162          34.052    20374092.110    79952310.627        -724.452          35.315  
G25  23015427.051   120947034.642        3033.936          33.487    23015430.349    90317477.984        2265.561          38.317  
G32  23651840.272   124291356.228        2223.251          35.186    23651833.077    92814877.702        1660.157          28.414  
R01  22557633.475                       -3050.947          15.293  
R02  22442521.566                         914.777          25.861  
R09  22898878.536   122278658.403       -3230.812          31.158  
R11  20323005.676   108599907.016        2262.173          37.000  
R20  20123966.568   107611895.897         342.736          30.313  
R21  21682759.638   116028659.006        4155.405          32.534  
> 2019  5 20  8 50 42.9999695  0 27
C08  38563168.174                         454.713          19.999  
C11  22256845.107   115897263.840         886.403          34.626  
C12  26133591.491                       -2989.294          19.770  
C13  38463371.462                        1329.422          25.195  
C20  25835711.109                        -641.930          19.615  
C23  22011950.943   114621971.938        1012.709          37.001  
C25  22702732.725   118219018.7371      -1790.572          26.347  
E02                                                                                                                                  26624723.188   104481097.003        1779.615          29.749  
E03                                                                  26079621.354   137049175.2081      -2000.814          22.530    26079588.976   102341903.395       -1494.134          26.928  
E08                                                                  24676413.674                         422.405          22.345  
E11                                                                  24004659.720   126145314.478        2754.713          26.690    24004658.221                        2056.716          24.045  
E25                                                                  22912108.977   120404145.290         674.796          32.293    22912123.667    89912101.447         503.890          28.524  
G02  24170700.372   127017701.0411       2879.807          25.610  
G06  23239246.105                        2042.298          22.434    23239199.637    91195653.521        1524.558          31.005  
G12  20320888.841   106786911.372        1250.113          35.509  
G15  24754596.250   130086336.278       -3576.272          39.927  
G17  23686407.841   124472909.490       -2907.147          32.930  
G19  21690784.782   113985723.1251      -2119.008          24.224  
G24  20374293.570   107067653.441        -969.705          35.729    20374276.482    79953034.778        -724.151          35.418  
G25  23014851.450   120943999.952        3034.690          34.255    23014851.750    90315211.797        2266.186          38.482  
G32  23651414.866   124289132.469        2223.758          35.063    23651410.669    92813217.058        1660.645          28.066  
R01  22558155.714                       -3048.227          15.930  
R02  22442370.470                         915.120          26.245  
R09  22899481.419   122281888.343       -3229.940          30.647  
R11  20322571.277   108597644.086        2262.930          37.131  
R20  20123908.408   107611553.045         342.852          30.624  
R21  21681988.871   116024502.941        4156.065          32.090  
> 2019  5 20  8 50 43.9999696  0 27
C08  38563114.212                         457.513          18.341  
C11  22256705.703   115896535.176         884.773          34.633  
C12  26134188.078                       -2992.484          20.011  
C13  38463144.819   200287687.9951       1328.974          25.137  
C20  25835857.408                        -647.019          18.543  
C23  22011786.058   114621116.767        1011.281          36.664  
C25  22703105.967   118220966.928       -1792.081          28.817  
E02                                                                                                                                  26624300.480   104479435.873        1778.775          29.934  
E03                                                                                                                                  26080001.790                       -1495.534          26.202  
E08                                                                  24676378.898   129675347.8401        421.465          23.048  
E11                                                                  24004166.861   126142718.487        2753.533          25.364    24004163.264                        2055.489          24.499  
E25                                                                  22912013.643   120403629.269         673.564          31.769    22912026.534    89911716.011         503.081          28.316  
G02  24170177.834   127014980.016        2878.568          26.903  
G06  23238899.245                        2035.654          20.145    23238841.984    91194247.746        1523.420          31.891  
G12  20320681.685   106785820.383        1248.530          35.946  
G15  24755308.557   130090071.118       -3577.298          40.457  
G17  23686996.933   124475975.546       -2908.514          32.186  
G19  21691222.479   113988001.458       -2120.791          24.666  
G24  20374508.521   107068782.321        -971.337          36.084    20374492.332    79953877.733        -725.311          35.437  
G25  23014310.624   120941124.034        3033.460          34.388    23014305.228    90313064.215        2265.228          38.548  
G32  23651020.639   124287067.863        2222.148          34.848    23651017.641    92811675.304        1659.399          27.880  
R01  22558778.682                       -3052.092          15.227  
R02  22442236.763   119756026.5311        912.230          27.160  
R09  22900122.675   122285279.682       -3231.251          30.479  
R11  20322168.955   108595542.859        2261.427          37.340  
R20  20123875.431   107611372.557         340.800          30.980  
R21  21681203.715   116020508.786        4154.580          32.966  
> 2019  5 20  8 50 44.9999696  0 25
C08  38563017.678                         463.927          18.429  
C11  22256536.620   115895652.047         883.129          34.301  
C12  26134774.472                       -2997.315          20.936  
C13  38462885.798                        1324.439          24.062  
C20  25835976.426                        -649.036          16.069  
C23  22011593.891   114620106.807        1009.960          37.223  
C25  22703444.432   118222759.974       -1793.046          30.353  
E02                                                                                                                                  26623847.794   104477657.914        1777.959          29.551  
E03                                                                                                                                  26080381.328   102345012.4591      -1496.232          26.482  
E08                                                                  24676297.655   129674927.896         419.944          24.276  
E11                                                                  24003645.222   126139966.321        2752.166          25.802    24003639.826    94195474.5831       2055.147          23.984  
E25                                                                  22911887.730   120402956.952         672.316          32.140    22911899.722    89911214.026         501.986          28.187  
G06  23238493.925                        2036.339          21.892    23238453.753    91192725.503        1522.243          32.513  
G12  20320445.149   106784573.273        1247.111          37.582  
G15  24755990.285   130093649.490       -3578.372          40.883  
G17  23687546.453   124478885.327       -2909.781          32.281  
G19  21691624.501                       -2123.108          25.540  
G24  20374687.797   107069755.223        -972.902          37.002    20374676.405    79954604.262        -726.529          35.443  
G25  23013727.528   120938091.899        3032.135          33.946    23013727.528    90310799.939        2264.276          38.755  
G32  23650601.829   124284847.226        2220.637          35.500    23650597.032    92810017.038        1658.267          26.760  
R02  22442046.694   119755116.052         910.479          26.714  
R09  22900734.551   122288512.170       -3232.489          30.322  
R11  20321763.336   108593282.775        2260.084          38.388  
R20  20123815.772   107611033.828         338.729          31.190  
R21  21680437.146   116016355.671        4153.115          33.669  
> 2019  5 20  8 50 45.9999696  0 25
C11  22256363.640   115894770.230         881.817          33.318  
C12  26135353.072                       -3000.414          20.730  
C13  38462629.775                        1326.092          22.745  
C20  25836104.137                        -647.208          17.931  
C23  22011399.026   114619098.068        1008.739          37.248  
C25  22703793.091   118224554.351       -1794.377          29.367  
E02                                                                                                                                  26623393.908   104475880.649        1777.265          29.174  
E03                                                                  26080783.050                       -2005.697          24.421    26080762.664   102346509.603       -1497.144          26.411  
E08                                                                  24676218.210   129674509.362         418.533          24.602    24676232.600    96834815.4441        312.603          24.214  
E11                                                                  24003117.587   126137215.405        2750.916          28.281    24003114.290                        2053.676          21.781  
E25                                                                  22911759.119   120402285.728         671.224          31.663    22911769.012    89910712.783         501.243          28.200  
G02  24169070.701   127009226.2441       2876.255          30.947  
G06  23238122.183                        2041.016          21.117    23238066.122    91191204.227        1521.275          31.866  
G12  20320211.310   106783327.496        1245.777          37.481  
G15  24756671.413   130097228.721       -3579.231          40.831  
G17  23688099.870   124481796.293       -2910.966          32.186  
G19  21692021.126   113992247.3801      -2123.692          24.705  
G24  20374876.367   107070729.466        -974.243          37.111    20374861.677    79955331.753        -727.491          35.438  
G25  23013154.625   120935060.834        3031.064          34.468    23013151.027    90308536.483        2263.456          38.610  
G32  23650176.723   124282627.984        2219.241          34.697    23650171.327    92808359.900        1657.138          27.349  
R02  22441867.718                         907.456          25.163  
R09  22901329.639   122291745.767       -3233.596          30.427  
R11  20321324.140   108591023.843        2258.932          37.887  
R20  20123746.820   107610696.830         336.998          31.183  
R21  21679647.193   116012203.896        4151.775          33.607  
> 2019  5 20  8 50 46.9999697  0 25
C11  22256222.438   115894045.899         880.440          33.765  
C12  26135952.357                       -2999.122          20.563  
C13  38462404.931                        1329.301          22.223  
C20  25836256.132                        -654.490          17.396  
C23  22011235.039   114618246.407        1007.771          37.616  
C25  22704157.339   118226506.162       -1795.701          32.025  
E02                                                                                                                                  26622971.500   104474221.677        1776.617          29.156  
E03                                                                  26081192.866                       -2005.952          24.243    26081178.476   102348125.144       -1497.896          25.963  
E08                                                                  24676173.241                         417.372          24.697    24676183.134                         311.305          24.319  
E11                                                                  24002625.328   126134622.873        2750.074          27.027    24002622.031    94191484.2681       2053.474          23.594  
E25                                                                  22911662.286   120401772.949         670.322          31.989    22911672.479    89910329.897         500.531          28.051  
G02  24168548.762   127006508.338        2875.447          31.343  
G06  23237766.629                        2038.104          21.930    23237708.469    91189801.540        1520.332          31.584  
G12  20320004.154   106782240.443        1244.595          37.738  
G15  24757382.521   130100966.136       -3579.874          40.523  
G17  23688685.664   124484865.718       -2911.883          31.597  
G19  21692460.022   113994530.030       -2125.108          27.439  
G24  20375097.913   107071862.552        -975.544          37.166    20375076.628    79956177.896        -728.498          35.641  
G25  23012609.302   120932188.252        3030.124          34.835    23012604.505    90306391.339        2262.789          38.500  
G32  23649784.295   124280567.579        2217.947          35.003    23649780.698    92806821.229        1656.316          27.584  
R02  22441721.719                         908.505          25.317  
R09  22901965.799   122295140.353       -3234.499          29.369  
R11  20320931.712   108588926.209        2257.834          37.527  
R20  20123708.746   107610521.993         335.149          30.806  
R21  21678907.904   116008213.802        4150.519          34.816  
> 2019  5 20  8 50 47.9999697  0 25
C11  22256057.552   115893166.575         879.325          34.094  
C12  26136529.157                       -2995.427          20.114  
C13  38462153.405                        1325.722          22.159  
C20  25836390.439                        -660.238          16.927  
C23  22011041.673   114617239.611        1006.796          37.088  
E02                                                                                                                                  26622518.814   104472445.374        1776.302          29.588  
E03                                                                  26081568.206   137059513.8621      -2006.887          25.852    26081559.812   102349623.669       -1498.525          25.714  
E08                                                                  24676088.399                         416.213          22.878    24676098.892    96834310.5711        310.861          23.798  
E11                                                                  24002111.484   126131873.640        2749.233          26.425    24002098.293    94189431.151        2053.117          22.044  
E25                                                                  22911540.571   120401103.469         669.480          32.982    22911542.369    89909829.959         499.938          27.801  
G02  24168008.236   127003633.589        2874.750          29.192  
G06  23237356.813                        2034.569          18.139    23237321.137    91188281.952        1519.588          31.123  
G12  20319761.922   106780996.797        1243.646          37.246  
G15  24758066.048   130104546.709       -3580.573          38.718  
G17  23689239.381   124487778.556       -2912.838          31.401  
G19  21692864.442   113996656.190       -2126.160          28.117  
G24  20375286.782   107072839.250        -976.698          36.532    20375263.099    79956907.217        -729.321          36.064  
G25  23012032.801   120929158.880        3029.372          35.152    23012027.405    90304129.160        2262.178          38.589  
G32  23649360.688   124278350.714        2216.865          35.010    23649358.890                        1654.833          27.396  
R01  22561162.033                       -3062.528          19.401  
R02  22441580.817   119752554.7561        905.641          26.241  
R09  22902550.994                       -3236.266          27.712  
R11  20320501.809   108586669.204        2257.005          36.269  
R20  20123646.389   107610188.414         333.579          30.833  
R21  21678148.230   116004064.266        4149.535          32.009  
> 2019  5 20  8 50 48.9999697  0 25
C08  38562714.288                         452.897          20.213  
C11  22255886.071   115892288.377         878.198          33.545  
C12  26137102.660                       -2998.830          21.670  
C13  38461902.479                        1322.249          22.661  
C23  22010846.208   114616233.641        1005.970          37.442  
C25  22704854.656   118230099.8641      -1797.325          29.482  
E02                                                                                                                                  26622066.127   104470669.618        1775.756          29.686  
E03                                                                  26081951.940   137061521.414       -2007.552          25.399    26081940.548   102351122.929       -1499.260          25.156  
E08                                                                  24676005.957                         414.385          22.478    24676022.145    96834000.342         310.229          23.654  
E11                                                                  24001582.950   126129125.341        2748.299          27.021    24001574.855                        2051.712          22.695  
E25                                                                  22911413.159   120400434.730         668.739          33.480    22911418.255    89909330.550         499.409          27.760  
G02  24167468.610   127000759.524        2874.064          30.411  
G06                                                                  23236935.604    91186763.233        1518.720          31.173  
G12  20319527.184   106779754.204        1242.593          37.180  
G15  24758748.375   130108127.779       -3581.070          39.122  
G17  23689792.498   124490692.101       -2913.545          32.007  
G19  21693268.862                       -2127.768          27.949  
G24  20375473.553   107073816.969        -977.719          37.745    20375448.670    79957637.344        -730.128          36.336  
G25  23011456.300   120926130.252        3028.628          34.722    23011451.504    90301867.562        2261.598          38.912  
G32  23648945.776   124276134.854        2215.860          35.165    23648936.782    92803511.1631       1654.629          27.256  
R01  22561702.858                       -3073.143          21.022  
R02  22441400.941   119751650.603         904.152          26.204  
R09  22903161.371                       -3235.518          26.843  
R11  20320091.993   108584413.099        2256.105          36.355  
R20  20123588.530   107609856.291         332.124          31.454  
> 2019  5 20  8 50 49.9999698  0 25
C08  38562646.535                         455.309          21.308  
C11  22255749.665   115891567.281         877.206          32.449  
C12  26137715.436                       -3003.107          21.150  
C13  38461684.530                        1321.874          22.905  
C23  22010681.922   114615384.575        1005.176          37.545  
E02                                                                                                                                  26621642.520   104469011.887        1775.376          29.618  
E03                                                                  26082362.056   137063687.516       -2008.560          25.360    26082353.063   102352740.327       -1499.753          25.112  
E08                                                                  24675957.990   129673161.0711        414.384          21.234    24675972.979    96833808.600         309.387          25.051  
E11                                                                  24001091.290   126126535.103        2747.780          26.911    24001081.397                        2050.977          21.090  
E25                                                                  22911321.122   120399924.194         668.078          33.733    22911321.122    89908949.295         498.900          28.260  
G02  24166950.568   126998043.656        2873.410          30.642  
G06                                                                  23236580.350    91185362.811        1518.067          31.879  
G12  20319317.929   106778670.039        1241.706          36.383  
G15  24759456.485   130111866.805       -3581.484          39.769  
G17  23690381.890   124493763.982       -2914.338          32.914  
G19  21693707.759   114001069.3871      -2128.312          28.046  
G24  20375688.804   107074953.219        -978.708          37.727    20375665.121    79958485.838        -730.848          36.381  
G25  23010909.179   120923259.883        3027.912          34.623    23010905.282    90299724.090        2261.117          38.929  
G32  23648554.247   124274077.605        2214.790          35.588    23648546.152    92801974.861        1653.947          27.411  
R01  22562320.730                       -3070.252          21.944  
R02  22441263.636   119750907.640         902.938          24.594  
R09  22903810.422   122305008.3621      -3236.581          27.387  
R11  20319693.569   108582318.060        2255.239          36.357  
R20  20123545.959   107609685.824         330.779          31.244  
R21  21676623.786                        4148.163          24.743  
> 2019  5 20  8 50 50.9999698  0 25
C08  38562541.608                         461.881          20.292  
C11  22255584.479   115890691.222         876.058          32.066  
C12  26138282.344                       -3003.507          20.459  
C13  38461426.708                        1325.918          22.189  
C20  25836789.463                        -658.387          14.985  
E02                                                                                                                                  26621190.433   104467236.984        1774.903          29.778  
E03                                                                  26082745.491                       -2009.869          26.232    26082735.898                       -1500.561          24.658  
E08                                                                  24675886.939                         413.355          23.033    24675894.734    96833499.898         308.702          24.517  
E11                                                                  24000568.752   126123788.319        2746.785          27.937    24000558.259                        2050.957          21.043  
E25                                                                  22911186.516   120399256.839         667.355          33.869    22911191.612    89908450.989         498.306          28.778  
G02  24166401.648   126995171.026        2872.630          30.648  
G06                                                                  23236192.419    91183845.513        1517.298          32.344  
G12  20319081.992   106777429.274        1240.765          35.922  
G15  24760142.110   130115448.864       -3582.059          38.603  
G17  23690935.307   124496679.111       -2915.130          33.473  
G19  21694105.883   114003198.877       -2129.490          27.627  
G24  20375876.774   107075933.031        -979.813          36.780    20375852.491    79959217.555        -731.717          36.943  
G25  23010332.378   120920232.786        3027.097          34.712    23010329.081    90297463.558        2260.533          38.823  
G32  23648134.237   124271863.817        2213.789          35.540    23648124.644    92800321.751        1653.110          27.083  
R01  22562913.120                       -3066.405          23.439  
R02  22441094.853                         902.138          23.583  
R09  22904419.001                       -3237.877          25.715  
R11  20319267.864   108580063.682        2254.378          37.039  
R20  20123492.596   107609356.648         329.176          30.756  
R21  21675844.925                        4148.983          23.726  
> 2019  5 20  8 50 51.9999698  0 25
C08  38562464.561                         457.858          20.798  
C11  22255416.895   115889815.826         875.396          32.285  
C12  26138864.541                       -2998.854          20.492  
C13  38461180.579                        1322.591          22.716  
C25  22705910.825   118235652.3221      -1799.436          27.369  
E02                                                                                                                                  26620737.747   104465462.168        1774.816          29.465  
E03                                                                  26083127.427   137067706.6241      -2009.742          25.440    26083116.934                       -1500.771          24.339  
E08                                                                  24675805.395                         413.006          22.349    24675816.488                         308.135          23.989  
E11                                                                  24000047.113   126121041.851        2746.468          27.443    24000036.321                        2051.155          21.273  
E25                                                                  22911063.601   120398589.898         666.941          34.473    22911065.399    89907952.889         498.100          28.997  
G02  24165857.225   126992298.666        2872.360          32.001  
G06                                                                  23235805.986    91182328.695        1516.818          32.099  
G12  20318843.058   106776189.076        1240.198          36.252  
G15  24760821.140   130119031.073       -3582.208          38.848  
G17  23691491.722   124499594.678       -2915.567          32.712  
G19  21694506.706   114005329.019       -2130.142          26.061  
G24  20376063.845   107076913.493        -980.461          36.720    20376038.362    79959949.747        -732.193          36.933  
G25  23009757.676   120917205.971        3026.815          33.506    23009752.580    90295203.302        2260.256          38.819  
G32  23647718.125   124269650.719        2213.098          35.846    23647704.035    92798669.083        1652.668          27.583  
R01  22563512.106                       -3065.344          23.796  
R02  22440905.984                         899.169          22.788  
R09  22905034.475   122311483.1661      -3237.739          25.358  
R11  20318849.353   108577809.713        2253.969          36.324  
R20  20123435.935   107609028.542         328.106          30.156  
R21  21675057.370                        4147.603          26.572  
> 2019  5 20  8 50 52.9999699  0 26
C08  38562408.800                         450.423          21.487  
C11  22255278.092   115889097.018         874.918          33.745  
C12  26139479.115                       -3001.332          20.195  
C13  38460959.632   200276233.9271       1322.596          25.556  
C23  22010132.103   114612529.0021       1003.580          38.457  
C25  22706281.369   118237607.950       -1799.517          29.317  
E02                                                                                                                                  26620315.939   104463804.985        1774.827          28.312  
E03                                                                  26083546.836                       -2010.056          25.228    26083531.547   102357360.1641      -1500.852          24.159  
E08                                                                  24675761.626                         412.193          22.530    24675767.322    96833001.4961        307.839          23.315  
E11                                                                  23999551.856   126118453.020        2746.372          27.219    23999543.162    94179409.3591       2050.773          20.434  
E25                                                                  22910968.567   120398080.508         666.932          35.121    22910968.866    89907572.518         498.016          29.101  
G02  24165340.983   126989583.832        2872.376          32.882  
G06  23235452.831   122103163.6711       2030.778          27.248    23235448.933    91180929.785        1516.555          31.754  
G12  20318637.400   106775106.737        1239.881          35.689  
G15  24761530.149   130122770.670       -3582.055          38.691  
G17  23692068.822   124502667.880       -2915.660          31.818  
G19  21694944.702   114007617.270       -2130.709          25.911  
G24  20376277.896   107078051.929        -980.894          36.775    20376255.412    79960799.865        -732.473          36.961  
G25  23009207.857   120914336.786        3026.726          33.385    23009206.658    90293060.745        2260.202          38.778  
G32  23647325.997   124267595.542        2212.719          35.275    23647313.406    92797134.359        1652.369          27.763  
R01  22564108.093                       -3067.419          23.274  
R02  22440751.291                         902.959          21.161  
R09  22905661.940                       -3238.693          23.890  
R11  20318440.137   108575716.091        2253.822          35.145  
R20  20123394.564   107608861.593         327.261          29.950  
R21  21674335.470                        4144.164          25.632  
> 2019  5 20  8 50 53.9999699  0 27
C08  38562319.762                         455.783          21.122  
C11  22255109.608   115888222.471         874.547          33.446  
C12  26140057.415                       -3001.769          20.980  
C13  38460704.508                        1324.482          24.925  
C23  22009936.338   114611525.545        1003.457          38.433  
C25  22706627.329   118239407.631       -1799.681          28.515  
C28  26327230.138                        3618.533          18.908  
E02                                                                                                                                  26619865.650   104462030.071        1774.914          28.543  
E03                                                                  26083931.170                       -2010.371          25.375    26083911.983   102358861.327       -1501.162          23.568  
E08                                                                  24675677.384                         411.364          21.736    24675690.275    96832693.836         307.660          24.335  
E11                                                                  23999029.917   126115706.838        2746.183          27.526    23999020.624    94177358.665        2050.695          20.466  
E25                                                                  22910842.354   120397413.656         666.852          34.853    22910841.754                         497.652          28.808  
G02  24164792.362   126986711.524        2872.308          32.150  
G06  23235068.797   122101133.107        2030.565          27.390    23235064.599    91179413.535        1516.249          31.366  
G12  20318395.168   106773867.176        1239.561          35.417  
G15  24762214.276   130126352.588       -3581.918          38.403  
G17  23692627.036   124505583.695       -2915.814          32.295  
G19  21695346.124   114009748.182       -2130.911          24.941  
G24  20376467.065   107079033.194        -981.265          35.556    20376442.183    79961532.623        -732.758          36.764  
G25  23008631.356   120911310.158        3026.628          33.162    23008630.457    90290800.590        2260.155          38.728  
G32  23646900.591   124265383.227        2212.315          35.846    23646891.897    92795482.339        1652.020          28.078  
R01  22564695.686                       -3070.038          24.586  
R02  22440551.629                         901.315          21.202  
R09  22906295.701                       -3238.550          24.801  
R11  20318015.930   108573462.502        2253.589          35.212  
R20  20123334.006   107608535.164         326.429          30.338  
R21  21673565.903   115979503.4941       4145.740          27.998  
> 2019  5 20  8 50 54.9999699  0 26
C08  38562235.220                         453.602          22.239  
C11  22254936.028   115887348.814         873.658          31.599  
C12  26140633.616                       -3002.879          21.034  
C13  38460446.387                        1324.549          23.588  
C23  22009742.672   114610522.653        1002.892          38.215  
C25  22706976.287   118241207.848       -1800.217          29.289  
C28  26326547.810                        3615.516          20.278  
E02                                                                                                                                  26619411.465   104460255.358        1774.713          28.784  
E08                                                                  24675606.933   129671256.9161        411.268          22.747    24675611.430    96832386.718         307.118          25.405  
E11                                                                  23998509.178   126112961.084        2745.754          28.087  
E25                                                                  22910715.242   120396747.250         666.406          35.100    22910714.343    89906576.9421        497.665          28.912  
G02  24164243.143   126983839.645        2871.879          32.784  
G06                                                                  23234677.867    91177897.793        1515.742          31.410  
G12  20318158.931   106772628.228        1238.949          34.746  
G15  24762895.404   130129934.715       -3582.127          37.973  
G17  23693182.851   124508500.007       -2916.313          32.959  
G19  21695749.645                       -2131.327          23.480  
G24  20376652.337   107080015.202        -982.007          36.005    20376628.953    79962265.975        -733.352          36.640  
G25  23008057.853   120908283.896        3026.262          33.546    23008054.255    90288540.760        2259.830          38.708  
G32  23646479.983   124263171.615        2211.612          36.385    23646471.289    92793830.811        1651.528          28.724  
R01  22565282.980   120624139.3661      -3070.104          25.802  
R02  22440405.331                         896.766          22.653  
R09  22906886.892                       -3238.220          24.767  
R11  20317604.015   108571209.466        2253.036          35.639  
R20  20123273.148   107608209.834         325.331          29.800  
R21  21672805.629   115975358.524        4144.970          27.926  
> 2019  5 20  8 50 55.9999700  0 26
C08  38562179.459                         449.381          22.558  
C11  22254794.227   115886631.841         873.082          31.031  
C12  26141234.700                       -3001.247          20.618  
C13  38460217.645                        1323.244          23.528  
C23  22009580.185   114609676.330        1002.432          38.224  
C25  22707353.726   118243164.507       -1800.549          29.778  
C28  26325878.973                        3614.252          21.933  
E02                                                                                                                                  26618989.357   104458598.360        1774.643          28.270  
E03                                                                  26084720.824   137076063.6881      -2011.080          24.698  
E08                                                                  24675543.976                         411.181          23.361    24675563.763    96832197.667         306.696          25.903  
E11                                                                  23998016.619   126110373.233        2745.393          27.730  
E25                                                                  22910616.910   120396238.643         666.149          34.982    22910618.109    89906197.156         497.431          28.993  
G02  24163725.101   126981125.483        2871.704          33.084  
G06  23234324.712   122097231.6231       2029.270          27.201    23234322.313    91176500.108        1515.330          31.325  
G15  24763605.613   130133674.417       -3582.160          38.201  
G17  23693758.153   124511574.171       -2916.621          31.679  
G19  21696191.839                       -2134.732          22.623  
G24  20376866.389   107081155.317        -982.573          34.784    20376846.003    79963117.361        -733.741          36.437  
G25  23007511.032   120905415.560        3025.878          33.591    23007508.034    90286398.794        2259.611          38.527  
G32  23646090.552   124261118.146        2211.010          36.645    23646080.059    92792297.347        1651.109          28.671  
R01  22565899.653                       -3070.577          25.587  
R02  22440267.126                         895.374          23.694  
R09  22907533.844                       -3235.856          24.517  
R11  20317222.080   108569117.043        2252.623          36.059  
R20  20123248.865   107608045.918         324.228          29.245  
R21  21672067.540   115971374.312        4144.638          27.256  
> 2019  5 20  8 50 56.9999700  0 26
C08  38562090.121                         456.227          21.861  
C11  22254626.942   115885759.360         872.481          30.328  
C12  26141821.394                       -3001.153          21.303  
C13  38459966.719                        1323.794          23.405  
C23  22009390.416   114608674.186        1002.145          37.967  
C25  22707701.785   118244965.411       -1800.904          30.757  
C28  26325182.555                        3611.792          21.789  
E02                                                                                                                                  26618539.668   104456823.855        1774.506          29.171  
E03                                                                  26085111.153   137078075.184       -2011.497          24.245  
E08                                                                  24675471.127                         410.273          23.832    24675486.116    96831891.285         306.382          25.475  
E11                                                                  23997493.481   126107628.145        2745.088          27.809  
E25                                                                  22910490.098   120395572.828         665.815          35.372    22910491.597    89905699.949         497.207          29.454  
G02  24163180.978   126978254.011        2871.472          33.045  
G06  23233945.174   122095202.988        2028.635          30.030    23233935.881    91174985.165        1514.943          31.440  
G15  24764287.041   130137256.655       -3582.237          38.624  
G17  23694316.366   124514491.090       -2916.919          31.340  
G19  21696601.955                       -2133.604          22.986  
G24  20377048.063   107082138.618        -983.302          32.660    20377032.474    79963851.585        -734.224          36.416  
G25  23006929.734   120902389.903        3025.657          32.921    23006932.732    90284139.391        2259.403          38.575  
G32  23645669.344   124258907.798        2210.348          36.752    23645660.050    92790646.719        1650.628          28.518  
R01  22566470.757   120630736.7391      -3071.382          25.451  
R02  22440096.245                         895.367          24.451  
R09  22908179.597                       -3235.479          23.464  
R11  20316823.056   108566864.684        2252.359          36.153  
R20  20123181.112   107607722.775         323.143          28.080  
R21  21671294.075                        4144.149          27.118  
> 2019  5 20  8 50 57.9999700  0 23
C08  38562013.673                         454.558          23.244  
C11  22254459.358   115884887.513         871.847          29.975  
C13  38459725.086                        1319.329          22.385  
C23  22009194.352   114607672.448        1001.738          38.306  
C25  22708050.744   118246766.672       -1801.260          32.482  
C28  26324482.540                        3614.906          20.250  
E02                                                                                                                                  26618085.483   104455049.451        1774.404          29.164  
E08                                                                  24675389.883   129670183.6741        409.747          23.146    24675406.671    96831585.300         305.985          25.365  
E11                                                                  23996969.144   126104883.372        2744.773          28.092    23996961.050    94169276.2021       2049.667          21.195  
E25                                                                  22910368.382   120394907.259         665.569          35.713    22910363.885    89905202.899         497.050          29.049  
G02  24162634.756   126975382.771        2871.240          32.957  
G06  23233560.841   122093174.842        2028.146          30.516    23233549.748    91173470.674        1514.491          31.302  
G15  24764971.767   130140838.957       -3582.303          38.810  
G19  21696995.882   114018437.0351      -2133.711          23.667  
G24  20377222.542   107083122.450        -983.832          31.281    20377219.544    79964586.254        -734.668          36.003  
G25  23006357.430   120899364.547        3025.356          32.856    23006357.430    90281880.192        2259.199          38.588  
G32  23645249.634   124256697.920        2209.878          37.032    23645238.842    92788996.518        1650.201          28.639  
R01  22567049.057   120633808.510       -3071.772          25.304  
R02  22439913.971                         894.731          23.800  
R09  22908774.086                       -3241.193          24.824  
R11  20316390.755   108564612.727        2251.957          36.296  
R20  20123127.749   107607400.532         322.243          27.773  
R21  21670509.818   115963086.4551       4143.706          26.525  
> 2019  5 20  8 50 58.9999701  0 26
C08  38561957.612                         453.228          24.861  
C11  22254320.554   115884172.497         871.126          29.970  
C12  26143004.075                       -3001.611          21.331  
C13  38459505.338                        1319.005          25.297  
C23  22009035.462   114606827.456        1001.102          38.122  
C25  22708427.583   118248724.548       -1801.767          35.312  
C28  26323810.705                        3621.028          19.981  
E02                                                                                                                                  26617663.075   104453392.851        1774.244          28.921  
E03                                                                  26085896.909   137082256.9771      -2012.407          26.203  
E08                                                                  24675343.115                         408.717          24.153    24675359.604    96831397.640         305.305          24.876  
E11                                                                  23996475.686   126102296.706        2744.207          27.777    23996469.390    94167344.450        2049.396          20.889  
E25                                                                  22910271.549   120394399.604         665.198          36.238    22910267.652    89904823.829         496.715          29.083  
G02  24162114.316   126972669.490        2870.823          34.320  
G06  23233201.389   122091304.901        2027.483          30.314    23233195.394    91172074.362        1513.958          31.741  
G12  20317280.539   106767992.8231       1236.756          32.945  
G15  24765681.675   130144579.034       -3582.535          38.756  
G19  21697423.986                       -2135.136          23.474  
G24  20377436.594   107084264.654        -984.661          31.087    20377437.793    79965439.160        -735.262          35.725  
G25  23005808.810   120896497.159        3024.930          33.111    23005811.208    90279738.956        2258.880          38.638  
G32  23644858.705   124254646.303        2209.159          37.152    23644848.212    92787464.476        1649.687          28.528  
R01  22567662.133   120637041.428       -3072.661          25.884  
R02  22439778.465                         892.429          24.449  
R09  22909415.042                       -3241.700          24.458  
R11  20315997.727   108562521.571        2251.356          36.026  
R20  20123082.180                         320.409          26.901  
R21  21669805.006                        4144.795          25.851  
> 2019  5 20  8 50 59.9999701  0 26
C08  38561870.373                         453.198          25.062  
C11  22254149.373   115883301.710         870.787          29.142  
C12  26143575.479                       -3002.647          21.921  
C13  38459245.718                        1323.496          25.075  
C23  22008843.595   114605826.232        1001.224          38.593  
C25  22708778.340   118250526.301       -1801.753          36.063  
C28  26323102.295                        3611.451          20.235  
E02                                                                                                                                  26617210.688   104451618.350        1774.502          28.249  
E03                                                                  26086269.851   137084269.344       -2012.367          26.765  
E08                                                                  24675266.369   129669523.4421        408.947          24.170    24675280.759    96831092.353         305.287          24.691  
E11                                                                  23995955.546   126099552.297        2744.409          27.896  
E25                                                                  22910144.737   120393734.284         665.320          36.262    22910140.840    89904327.007         496.821          29.015  
G02  24161567.195   126969798.445        2871.045          33.989  
G06  23232807.162   122089277.614        2027.288          30.533    23232810.460    91170560.458        1513.903          32.419  
G12  20317045.502   106766756.110        1236.713          33.351  
G15  24766364.603   130148161.173       -3582.139          38.744  
G19  21697837.100                       -2133.406          23.244  
G24  20377623.065   107085249.433        -984.780          29.722    20377625.164    79966174.572        -735.412          35.622  
G25  23005233.508   120893472.071        3025.088          32.450    23005235.307    90277479.985        2258.971          38.517  
G32  23644437.796   124252437.404        2208.898          36.969    23644430.601    92785814.982        1649.494          28.062  
R01  22568239.833   120640114.154       -3072.726          26.097  
R02  22439641.160   119742029.7301        893.619          25.565  
R09  22910029.317                       -3237.714          24.065  
R11  20315590.609   108560270.170        2251.401          35.777  
R20  20123019.823   107606919.4201        320.394          25.632  
R21  21669009.957   115955360.9081       4142.898          27.664  
> 2019  5 20  8 51  0.9999701  0 28
C08  38561782.833   200801363.3621        455.846          25.890  
C11  22253980.290   115882428.925         872.785          28.533  
C12  26144151.081                       -2998.805          21.623  
C13  38458986.997   200265970.0691       1323.573          24.865  
C20  25838136.730                        -655.556          23.103  
C23  22008653.226   114604822.849        1003.383          38.741  
C25  22709120.103   118252325.837       -1799.536          36.305  
C28  26322418.469                        3603.403          17.759  
E02                                                                                                                                  26616759.801   104449842.087        1776.263          28.458  
E03                                                                  26086643.393   137086279.460       -2010.115          26.290  
E08                                                                  24675190.521   129669112.552         410.890          23.973    24675201.314    96830785.554         306.799          24.369  
E11                                                                  23995430.609   126096805.636        2746.661          27.541  
E25                                                                  22910018.224   120393066.719         667.565          36.359    22910014.027    89903828.473         498.534          29.062  
G02  24161023.971   126966925.109        2873.335          34.098  
G06  23232424.028   122087248.295        2029.319          30.523    23232422.529    91169045.098        1515.360          32.507  
G12  20316816.461   106765517.264        1238.846          33.341  
G15  24767042.433   130151740.784       -3579.610          38.771  
G17  23696561.512                       -2914.667          28.016  
G19  21698243.918   114024996.7491      -2132.863          23.793  
G24  20377796.645                        -983.170          26.032    20377811.635    79966908.462        -733.889          35.691  
G25  23004659.106   120890444.657        3027.413          33.495    23004659.705    90275219.284        2260.700          38.444  
G32  23644016.588   124250226.457        2210.948          37.364  
R01  22568820.531   120643184.755       -3070.601          26.124  
R02  22439479.871                         895.560          25.555  
R09  22910630.101                       -3234.636          23.109  
R11  20315168.501   108558016.472        2253.697          36.053  
R20  20122930.785                         324.463          24.252  
R21  21668227.498   115951215.765        4145.144          28.124  
> 2019  5 20  8 51  1.9999702  0 27
C08  38561728.271                         459.788          25.183  
C11  22253840.587   115881711.130         873.905          28.276  
C12  26144762.957                       -2996.444          22.875  
C13  38458765.750                        1325.617          25.157  
C20  25838295.620                        -653.567          22.798  
C23  22008491.938   114603974.247        1004.712          39.163  
C25  22709495.443   118254280.066       -1798.119          36.238  
C28  26321777.213                        3617.882          18.399  
E02                                                                                                                                  26616337.393   104448182.162        1777.570          28.702  
E08                                                                  24675141.655                         412.956          23.841    24675156.045                         308.375          24.234  
E11                                                                  23994938.350   126094215.084        2748.094          27.861    23994932.354                        2052.852          21.673  
E25                                                                  22909919.593   120392555.080         669.181          35.810    22909916.895    89903446.458         499.661          29.100  
G02  24160507.729   126964207.670        2874.981          34.722  
G06  23232063.677   122085375.303        2030.534          30.276    23232068.474    91167646.416        1516.327          32.599  
G12  20316611.702   106764434.677        1240.129          33.069  
G15  24767751.442   130155476.211       -3577.885          39.200  
G17  23697157.199   124529388.1661      -2913.937          29.006  
G19  21698672.921   114027286.112       -2131.821          24.534  
G24  20378003.802                        -976.428          23.039    20378028.385    79967759.169        -733.062          35.724  
G25  23004109.586   120887573.289        3028.910          33.461    23004113.184    90273075.083        2261.846          38.525  
G32  23643627.457   124248171.787        2212.212          37.375    23643616.365    92782629.6921       1651.937          28.186  
R01  22569417.417   120646414.505       -3069.494          25.522  
R02  22439344.965                         896.710          25.284  
R09  22911255.768                       -3232.735          22.412  
R11  20314771.276   108555921.573        2255.100          36.033  
R20  20122892.411                         328.379          23.656  
R21  21667486.111   115947229.725        4146.465          28.448  
> 2019  5 20  8 51  2.9999702  0 27
C08  38561636.834   200800604.3281        458.011          25.476  
C11  22253676.001   115880836.807         874.323          28.686  
C12  26145334.062                       -2995.086          21.835  
C13  38458510.028   200263475.0691       1325.912          25.297  
C20  25838422.133                        -658.063          22.614  
C23  22008300.670   114602968.864        1005.383          39.024  
C25  22709838.406   118256077.547       -1797.480          36.244  
C28  26321086.791                        3624.594          21.887  
E02                                                                                                                                  26615885.306   104446403.902        1778.261          28.346  
E08                                                                  24675081.097   129668445.4951        412.538          24.765    24675078.099    96830287.2651        308.127          24.480  
E11                                                                  23994416.411   126091466.243        2748.841          27.238  
E25                                                                  22909793.080   120391885.164         669.916          35.656    22909788.883    89902946.142         500.316          29.116  
G02  24159958.209   126961331.912        2875.759          34.981  
G06  23231670.949   122083344.292        2031.011          29.838    23231681.442    91166129.774        1516.642          32.690  
G12  20316373.367   106763194.026        1240.651          32.635  
G15  24768436.168   130159053.129       -3576.918          39.295  
G17  23697718.111   124532301.447       -2913.281          29.198  
G19  21699082.438                       -2126.622          22.920  
G24  20378211.558                        -932.472          18.479    20378215.755    79968491.843        -732.674          35.582  
G25  23003539.081   120884543.619        3029.670          33.077    23003536.083    90270812.660        2262.423          38.303  
G32  23643207.748   124245959.203        2212.584          37.415    23643194.557    92780977.393        1652.299          27.961  
R01  22570006.809   120649483.415       -3068.910          26.052  
R02  22439163.291                         894.826          24.774  
R09  22911844.260                       -3235.062          22.636  
R11  20314335.078   108553665.796        2255.777          35.718  
R20  20122854.038                         320.517          23.266  
R21  21666716.544   115943082.759        4146.966          28.291  
> 2019  5 20  8 51  3.9999703  0 26
C08  38561579.874                         455.867          24.600  
C11  22253535.398   115880119.891         873.026          28.658  
C12  26145941.741                       -2999.221          21.859  
C13  38458281.586                        1323.841          23.967  
C20  25838576.226                        -660.327          22.994  
C23  22008137.583   114602120.633        1004.341          38.798  
C25  22710215.545   118258032.176       -1798.520          36.771  
C28  26320412.857                        3624.670          20.924  
E02                                                                                                                                  26615462.898   104444743.923        1777.623          28.456  
E08                                                                  24675027.434   129668191.684         411.353          25.769    24675029.233                         306.363          25.491  
E11                                                                  23993925.351   126088876.052        2747.733          27.384  
E12                                                                  23280480.759                         184.053          25.793  
E25                                                                  22909693.249   120391373.738         668.968          36.172    22909691.451    89902564.314         499.473          29.257  
G02  24159439.268   126958614.625        2874.829          34.964  
G06  23231318.993   122081471.994        2029.840          30.071    23231325.288    91164731.646        1515.773          32.919  
G12  20316163.812   106762112.070        1239.497          32.011  
G15  24769146.377   130162788.327       -3577.657          39.457  
G24  20378451.392                        -965.665          16.958    20378432.805    79969343.043        -733.556          35.500  
G25  23002994.358   120881672.493        3028.667          32.949    23002990.161    90268668.646        2261.659          38.453  
G32  23642815.320   124243905.382        2211.364          37.613    23642803.328    92779443.742        1651.297          27.965  
R01  22570615.388   120652713.860       -3070.189          25.296  
R02  22439015.193                         891.389          24.784  
R09  22912500.206                       -3235.477          21.703  
R11  20313950.745   108551571.357        2254.638          35.403  
R20  20122814.765                         315.518          23.395  
R21  21665977.856   115939097.324        4145.860          28.176  
> 2019  5 20  8 51  4.9999703  0 26
C08  38561492.934                         453.138          23.653  
C11  22253371.112   115879250.060         869.831          28.647  
C12  26146514.345                       -3002.355          22.095  
C13  38458028.561                        1323.076          21.647  
C20  25838704.837   134548968.5991       -661.179          23.441  
C23  22007946.016   114601119.238        1001.395          39.095  
C25  22710560.306   118259833.543       -1801.367          36.027  
C28  26319710.144                        3614.954          22.328  
E02                                                                                                                                  26615008.713   104442968.203        1775.721          28.633  
E08                                                                  24674960.580   129667783.482         408.202          26.377    24674950.387                         304.017          25.823  
E11                                                                  23993402.813   126086131.091        2744.961          28.081  
E12                                                                  23280446.882                         184.812          25.167    23280445.983                         133.244          23.064  
E25                                                                  22909568.236   120390707.600         666.138          36.490    22909563.439    89902066.827         497.487          29.082  
G02  24158894.545   126955742.532        2872.093          34.788  
G06  23230933.759   122079445.351        2026.642          31.610    23230939.455    91163218.215        1513.431          32.907  
G15  24769824.208   130166368.588       -3580.261          39.045  
G17  23698859.721   124538290.2861      -2917.073          30.070  
G24                                                                  20378620.175    79970079.044        -736.001          35.695  
G25  23002411.562   120878646.578        3025.915          33.070    23002413.960    90266409.045        2259.601          38.546  
G32  23642395.610   124241697.125        2208.257          37.436    23642384.518    92777794.752        1648.990          27.977  
R01  22571182.595                       -3072.404          24.123  
R02  22438855.104                         886.520          24.583  
R09  22913101.290                       -3231.981          18.934  
R11  20313523.540   108549319.657        2251.700          34.668  
R20  20122767.698                         318.004          22.754  
R21  21665184.005   115934954.500        4142.823          30.210  
> 2019  5 20  8 51  5.9999703  0 26
C08  38561409.891                         449.868          24.279  
C11  22253206.825   115878382.031         868.030          29.143  
C12  26147096.542                       -3005.424          19.869  
C13  38457780.033                        1321.238          19.333  
C20  25838839.743   134549631.691        -663.091          24.576  
C23  22007754.748   114600119.522         999.717          39.102  
C25  22710907.166   118261636.588       -1803.045          34.566  
E02                                                                                                                                  26614558.125   104441193.652        1774.550          29.259  
E08                                                                  24674881.735   129667376.928         406.555          26.964    24674873.640    96829489.2381        303.559          26.055  
E11                                                                  23992888.969   126083387.781        2743.310          29.266  
E12                                                                  23280438.188                         180.025          23.553    23280414.205                         136.886          22.907  
E25                                                                  22909443.222   120390043.060         664.540          36.679    22909438.126    89901570.564         496.263          29.166  
G02  24158342.028   126952872.042        2870.490          34.627  
G06  23230553.922   122077420.548        2024.803          31.525    23230555.421    91161706.182        1512.033          32.204  
G15  24770507.435   130169950.194       -3581.605          38.936  
G17  23699417.335   124541209.065       -2918.779          31.567  
G19  21700343.065   114035980.7851      -2137.678          25.432  
G24                                                                  20378808.145    79970816.461        -737.417          35.460  
G25  23001845.853   120875622.311        3024.267          33.429    23001838.059    90264150.660        2258.385          38.251  
G32  23641972.603   124239490.820        2206.305          37.540  
R01  22571749.503                       -3079.530          24.174  
R02  22438674.629   119736987.3161        888.844          26.657  
R09  22913696.378                       -3230.524          15.722  
R11  20313099.634   108547069.603        2250.054          34.408  
R20  20122695.748                         314.474          21.402  
R21  21664407.543   115930813.478        4141.022          30.011  
> 2019  5 20  8 51  6.9999704  0 27
C08  38561358.627   200799101.0511        451.785          24.993  
C11  22253072.518   115877671.579         866.562          29.067  
C12  26147706.320                       -3006.049          19.243  
C20  25838998.933   134550452.112        -664.312          26.482  
C23  22007592.561   114599277.032         998.599          38.929  
C25  22711284.005   118263596.829       -1804.132          36.405  
C28  26318348.187   137046598.7791       3615.011          24.826  
E02                                                                                                                                  26614134.818   104439537.391        1773.906          29.588  
E08                                                                  24674834.068   129667129.346         405.124          27.410    24674825.074    96829304.370         302.512          25.725  
E11                                                                  23992392.812   126080803.018        2742.305          29.416  
E12                                                                  23280423.798                         179.383          23.239    23280412.106    91357280.5841        139.952          23.469  
E25                                                                  22909345.790   120389537.065         663.537          36.421    22909343.092    89901192.709         495.500          29.262  
G02  24157830.882   126950160.056        2869.529          34.013  
G06  23230199.867   122075554.491        2023.599          32.534    23230200.467    91160312.728        1511.100          32.637  
G12  20315501.271   106758565.1371       1233.452          30.913  
G15  24771216.743   130173690.145       -3582.410          38.693  
G17  23700009.425   124544286.463       -2919.857          32.254  
G19  21700776.565                       -2140.024          24.158  
G24                                                                  20379026.394    79971672.433        -738.327          35.251  
G25  23001300.831   120872756.575        3023.278          33.801    23001292.736    90262010.674        2257.631          38.006  
G32  23641584.971   124237443.390        2204.972          37.388  
R01  22572363.178                       -3078.816          22.516  
R02  22438529.229                         887.189          26.326  
R09  22914315.150                       -3231.026          15.385  
R11  20312708.704   108544980.915        2248.888          34.640  
R20  20122682.257                         305.741          20.468  
R21  21663659.261   115926834.121        4139.782          30.385  
> 2019  5 20  8 51  7.9999704  0 27
C08  38561265.991                         450.284          25.864  
C11  22252910.631   115876806.231         865.348          29.107  
C12  26148288.517                       -3005.877          20.898  
C20  25839131.442   134551117.696        -665.584          26.786  
C23  22007402.492   114598279.453         997.579          39.027  
C25  22711629.966   118265401.930       -1805.101          37.413  
C28  26317647.272                        3614.246          25.260  
E02                                                                                                                                  26613684.230   104437763.900        1773.491          29.517  
E03                                                                  26089412.276   137100835.1001      -2015.998          26.222  
E08                                                                  24674755.222   129666725.334         404.012          27.363    24674749.526    96829002.629         301.742          25.698  
E11                                                                  23991871.173   126078061.676        2741.342          28.487  
E12                                                                  23280373.133   122339377.7331        178.703          25.317    23280376.431                         133.220          23.880  
E25                                                                  22909218.078   120388874.377         662.688          37.103    22909215.680    89900697.850         494.859          29.252  
G02  24157286.459   126947291.288        2868.768          34.472  
G06  23229814.034   122073532.150        2022.341          33.325    23229815.833    91158802.498        1510.230          32.894  
G12  20315264.135   106757332.858        1232.279          30.496  
G15  24771898.172   130177273.233       -3583.087          38.285  
G17  23700565.840   124547207.204       -2920.740          31.894  
G19  21701186.981   114040417.7821      -2140.349          24.048  
G24                                                                  20379215.563    79972411.732        -739.299          35.175  
G25  23000724.330   120869734.183        3022.392          32.626    23000717.135    90259753.691        2256.983          38.147  
G32  23641163.163   124235239.525        2203.865          36.991  
R01  22572978.652                       -3076.696          21.187  
R02  22438372.138   119735374.4611        885.653          26.985  
R11  20312282.400   108542733.006        2247.908          33.961  
R20  20122611.206                         311.363          20.528  
R21  21662880.700   115922695.441        4138.680          29.817  
> 2019  5 20  8 51  8.9999704  0 29
C08  38561181.150   200798199.8271        450.503          25.946  
C11  22252740.948   115875942.065         864.166          27.995  
C12  26148859.621                       -3005.619          20.241  
C13  38457051.537   200255862.4131       1318.161          24.718  
C20  25839257.654   134551783.797        -666.100          26.586  
C23  22007208.527   114597282.668         996.785          38.728  
C25  22711975.626   118267207.878       -1805.948          36.807  
C28  26316950.254                        3611.762          24.459  
E02                                                                                                                                  26613231.243   104435990.972        1772.928          29.507  
E03                                                                  26089793.012                       -2017.438          25.342  
E08                                                                  24674678.476   129666322.375         402.959          27.010    24674673.679    96828701.741         300.888          26.676  
E11                                                                  23991353.132   126075321.148        2740.528          28.747  
E12                                                                  23280338.057                         176.917          25.590    23280343.753                         132.753          24.133  
E25                                                                  22909094.264   120388212.445         661.931          37.709    22909089.767    89900203.563         494.286          29.134  
G02  24156736.339   126944423.311        2867.977          34.541  
G06  23229427.002   122071510.832        2021.318          34.080    23229431.799    91157293.053        1509.445          32.839  
G12  20315026.400   106756101.417        1231.441          28.820  
G15  24772579.900   130180856.830       -3583.597          38.242  
G17  23701119.856   124550128.799       -2921.596          30.748  
G19  21701606.091                       -2142.819          24.316  
G24                                                                  20379404.132    79973151.879        -740.147          34.950  
G25  23000152.626   120866712.576        3021.607          31.912    23000141.833    90257497.281        2256.410          37.790  
G32  23640744.653   124233036.828        2202.697          36.383  
R01  22573553.354                       -3080.524          17.951  
R02  22438216.546   119734490.196         884.265          27.831  
R09  22915480.443                       -3253.060          19.011  
R11  20311856.394   108540485.987        2247.019          33.827  
R20  20122505.080                         309.090          19.535  
R21  21662115.030   115918557.749        4137.692          29.761  
> 2019  5 20  8 51  9.9999705  0 29
C08  38561125.089   200797906.674         449.262          26.421  
C11  22252611.438   115875235.041         863.133          27.999  
C12  26149462.504                       -3006.796          19.559  
C13  38456827.892   200254701.124        1317.399          25.136  
C20  25839414.146   134552607.553        -667.647          26.461  
C23  22007048.737   114596443.003         995.775          38.197  
C25  22712353.065   118269170.842       -1806.854          36.023  
C28  26316293.109                        3612.052          23.648  
E02                                                                                                                                  26612808.536   104434336.157        1772.460          29.399  
E03                                                                  26090205.527                       -2018.117          24.281  
E08                                                                  24674638.903   129666078.037         401.880          27.711    24674627.211    96828519.353         300.033          26.446  
E11                                                                  23990861.172   126072739.063        2739.627          28.959  
E12                                                                  23280334.160   122339181.0101        176.556          25.924    23280339.556    91357000.4041        131.717          24.473  
E25                                                                  22908992.934   120387708.929         661.059          37.367    22908994.433    89899827.589         493.619          29.774  
G02  24156216.799   126941713.640        2867.213          33.452  
G06  23229076.845   122069648.165        2020.209          34.335    23229076.845    91155902.113        1508.585          32.891  
G12  20314818.644   106755028.740        1230.219          27.592  
G15  24773292.207   130184598.625       -3584.253          38.674  
G17  23701705.351   124553208.796       -2922.454          30.482  
G19  21702033.895                       -2143.055          24.483  
G24                                                                  20379622.081    79974010.417        -740.893          34.967  
G25  22999599.209   120863849.314        3020.803          31.851    22999596.511    90255359.154        2255.772          37.676  
G32  23640355.822   124230992.803        2201.567          35.738  
R01  22574188.315                       -3085.185          13.824  
R02  22438087.036   119733767.440         882.732          29.836  
R09  22916150.779                       -3245.189          20.385  
R11  20311481.054   108538400.094        2246.093          33.617  
R20  20122462.509                         307.054          20.565  
R21  21661363.750   115914581.536        4136.638          30.927  
> 2019  5 20  8 51 10.9999705  0 28
C08  38561042.945   200797458.260         448.415          27.002  
C11  22252449.850   115874373.083         861.958          28.300  
C12  26150050.996                       -3009.619          20.204  
C13  38456574.567   200253384.512        1316.612          27.266  
C20  25839542.157                        -669.110          26.179  
C23  22006853.872   114595448.131         994.872          38.449  
C25  22712700.824   118270978.599       -1807.757          35.869  
C28  26315605.685                        3616.894          22.283  
E02                                                                                                                                  26612359.447   104432564.162        1771.995          29.868  
E08                                                                  24674551.364   129665677.237         400.800          26.725    24674548.965    96828219.970         299.383          26.585  
E11                                                                  23990344.630   126070000.278        2738.785          28.256  
E12                                                                  23280299.684                         174.651          25.972    23280303.881                         130.653          24.426  
E25                                                                  22908870.619   120387048.664         660.265          37.502    22908870.019    89899334.478         493.111          29.521  
G02  24155669.978   126938847.180        2866.460          33.364  
G06  23228693.410   122067629.010        2019.154          35.038    23228693.110    91154394.333        1507.780          32.705  
G12  20314585.405   106753799.515        1229.225          25.696  
G15  24773973.935   130188183.459       -3584.834          38.595  
G17  23702261.766   124556132.151       -2923.355          30.680  
G19  21702439.214   114047003.1531      -2143.892          23.960  
G24                                                                  20379813.349    79974752.253        -741.836          35.314  
G25  22999020.909   120860829.332        3019.982          31.949    22999021.509    90253103.993        2255.160          37.442  
G32  23639937.912   124228792.311        2200.492          35.578  
R01  22574680.274                       -3085.263          14.623  
R02  22437920.051   119732886.091         881.349          30.417  
R09  22916740.770                       -3241.832          20.930  
R11  20311057.747   108536154.963        2245.131          33.117  
R20  20122427.134                         305.356          20.424  
R21  21660586.688   115910173.917        4135.618          30.938  
> 2019  5 20  8 51 11.9999705  0 26
C08  38560957.804   200797010.586         447.674          27.379  
C11  22252285.563   115873512.276         860.808          30.005  
C12  26150627.198                       -3010.677          20.117  
C13  38456325.740   200252068.568        1315.944          28.072  
C20  25839670.169                        -670.424          26.587  
C23  22006658.407   114594454.109         994.022          37.637  
C25  22713042.288   118272787.161       -1808.562          36.053  
C28  26314919.760                        3611.739          21.860  
E02                                                                                                                                  26611906.461   104430792.613        1771.549          29.066  
E08                                                                  24674477.015   129665277.484         399.753          26.630    24674475.516    96827921.479         298.491          26.243  
E11                                                                  23989827.188   126067262.324        2737.954          28.414  
E12                                                                  23280269.705   122338831.1741        174.444          26.305    23280273.902                         130.004          23.359  
E25                                                                  22908743.207   120386389.109         659.554          37.517    22908745.006    89898842.020         492.459          29.476  
G02  24155127.953   126935981.458        2865.722          33.016  
G06  23228306.678   122065610.939        2018.071          34.487    23228306.678    91152887.276        1507.057          32.687  
G12  20314357.263                        1223.505          21.743  
G15  24774651.466   130191768.808       -3585.349          38.365  
G19  21702846.032   114049148.036       -2144.883          24.340  
G24                                                                  20380000.419    79975494.847        -742.594          34.959  
G25  22998448.605   120857810.137        3019.194          32.464    22998448.605    90250849.353        2254.641          37.748  
G32  23639517.003   124226592.827        2199.484          34.988  
R02  22437755.465   119732006.198         879.893          30.833  
R09  22917372.433                       -3240.079          22.587  
R11  20310628.445   108533910.671        2244.292          31.376  
R20  20122387.861                         308.578          21.774  
R21  21659817.420   115906039.253        4134.665          30.939  
> 2019  5 20  8 51 12.9999705  0 27
C08  38560868.166                         447.798          25.680  
C11  22252123.376   115872652.447         859.828          31.294  
C12  26151192.306                       -3009.110          20.967  
C13  38456073.914   200250753.296        1315.271          27.334  
C20  25839796.981   134554617.3801       -670.654          26.550  
C23  22006468.339   114593460.842         993.268          37.207  
C25  22713384.951   118274596.431       -1809.270          34.847  
C28  26314229.338                        3609.146          21.315  
E08                                                                  24674398.469   129664878.498         398.986          26.267    24674397.270    96827623.620         297.859          25.765  
E11                                                                  23989304.950   126064525.035        2737.289          29.483  
E12                                                                  23280238.526   122338657.712         173.461          26.845    23280240.625    91356609.5211        129.608          23.008  
E25                                                                  22908616.994   120385730.178         658.932          37.400    22908618.493    89898349.916         492.104          29.270  
G02  24154577.534   126933116.318        2865.140          33.821  
G06  23227925.342   122063593.707        2017.232          35.262    23227923.243    91151380.925        1506.351          32.634  
G12  20314137.815                        1223.198          22.691  
G15  24775333.793   130195354.482       -3585.674          36.861  
G17  23703385.388   124561981.1621      -2924.822          30.381  
G19  21703254.949                       -2144.503          23.562  
G24  20380232.159                       -1003.218          24.539    20380192.886    79976238.207        -743.360          34.855  
G25  22997873.004   120854791.528        3018.610          32.368    22997872.404    90248595.219        2254.134          37.734  
G32  23639101.191   124224394.325        2198.502          34.915    23639090.098    92764873.8431       1641.769          27.265  
R01  22575759.527                       -3083.235          17.017  
R02  22437599.573   119731127.534         878.664          31.215  
R09  22917993.303                       -3247.044          25.332  
R11  20310201.840   108531667.111        2243.560          30.671  
R20  20122357.582                         305.722          23.225  
R21  21659029.866   115901905.363        4133.890          33.805  
> 2019  5 20  8 51 13.9999706  0 28
C08  38560809.407                         446.394          23.645  
C11  22251989.668   115871949.590         858.968          31.894  
C12  26151796.988                       -3008.626          20.524  
C13  38455849.369   200249594.492        1314.914          27.298  
C20  25839956.770   134555445.121        -671.631          26.737  
C23  22006303.753   114592624.308         992.644          37.506  
C25  22713762.989   118276562.398       -1809.858          32.209  
C28  26313564.398                        3611.485          19.023  
E02                                                                                                                                  26611032.865   104427368.2511       1770.881          28.366  
E08                                                                  24674356.798   129664638.047         397.993          26.097    24674352.601    96827443.984         297.281          26.312  
E11                                                                  23988812.091   126061945.829        2736.748          31.242  
E12                                                                  23280233.730   122338642.613         172.641          27.993    23280239.126    91356598.242         128.924          24.585  
E25                                                                  22908521.960   120385229.404         658.315          37.616    22908525.258    89897975.914         491.647          28.946  
G02  24154065.189   126930409.258        2864.602          32.755  
G06  23227571.587   122061734.891        2016.358          33.150    23227570.687    91149992.896        1505.675          32.492  
G12  20313934.256                        1227.607          19.802  
G15  24776043.702   130199098.153       -3586.128          37.562  
G17  23703969.683   124565064.080       -2925.375          30.154  
G19  21703685.151                       -2145.644          22.310  
G24  20380417.131                        -996.450          22.389    20380412.634    79977099.806        -743.955          35.283  
G25  22997322.885   120851931.129        3017.940          31.293    22997328.881    90246459.144        2253.720          37.706  
G32  23638712.060   124222354.292        2197.575          35.043    23638699.469    92763350.353        1641.134          26.604  
R01  22576379.198                       -3090.237          20.102  
R02  22437489.249   119730741.135         877.374          33.306  
R09  22918644.453                       -3246.186          26.248  
R11  20309822.902   108529584.470        2242.841          31.030  
R20  20122335.397                         300.878          24.152  
R21  21658279.485   115897932.759        4133.029          36.359  
> 2019  5 20  8 51 14.9999706  0 25
C08  38560730.262                         443.009          24.550  
C11  22251825.082   115871091.812         857.777          30.333  
C12  26152380.084                       -3010.901          20.108  
C13  38455592.148   200248280.524        1313.968          27.472  
C20  25840086.880   134556117.291        -672.170          26.581  
C23  22006113.984   114591632.594         991.714          37.045  
C28  26312864.983                        3611.362          16.731  
E08                                                                  24674267.160                         397.490          24.078    24674278.552    96827147.457         296.527          26.656  
E11                                                                  23988294.050   126059210.059        2735.769          29.847  
E12                                                                  23280202.851                         171.158          27.253    23280205.249    91356470.182         128.060          24.742  
E25                                                                  22908396.347   120384571.738         657.667          37.470  
G02  24153516.868   126927545.221        2864.037          33.240  
G06  23227185.154   122059719.502        2015.389          32.775    23227186.653    91148487.889        1505.007          33.068  
G15  24776726.929   130202684.764       -3586.611          37.339  
G17  23704520.102   124567990.202       -2926.122          30.186  
G19  21704103.062                       -2148.291          25.575  
G24  20380600.004   107100811.8771       -997.066          28.335    20380600.904    79977844.581        -744.775          35.629  
G25  22996744.585   120848913.836        3017.293          30.198    22996754.478    90244205.974        2253.170          37.906  
G32  23638290.552   124220157.653        2196.639          34.581    23638280.959    92761710.084        1640.269          26.115  
R01  22577013.559                       -3085.042          21.371  
R02  22437326.462   119729865.086         876.049          33.199  
R09  22919237.742                       -3246.034          25.830  
R11  20309399.595   108527342.422        2242.048          30.794  
R20  20122293.726   107602844.9241        301.476          25.271  
R21  21657504.222   115893800.657        4132.102          36.306  
> 2019  5 20  8 51 15.9999706  0 26
C08  38560646.620   200795382.7991        445.141          26.779  
C11  22251661.096   115870234.769         857.043          31.183  
C12  26152959.583                       -3007.266          20.302  
C13  38455339.422                        1313.373          27.058  
C20  25840214.891   134556790.814        -673.523          26.162  
C23  22005924.216   114590641.575         991.018          37.142  
C25  22714458.807   118280184.4371      -1811.158          28.788  
E02                                                                                                                                  26610132.289   104423827.6451       1770.166          28.750  
E08                                                                  24674199.407                         395.830          24.656    24674200.307    96826851.568         295.889          27.246  
E11                                                                  23987785.602   126056474.697        2735.363          28.852  
E12                                                                  23280169.874   122338300.3601        170.622          27.273    23280175.870                         125.889          23.386  
E25                                                                  22908271.034   120383914.681         657.057          36.983    22908275.831    89896994.2401        490.690          29.792  
G02  24152965.250   126924681.827        2863.394          35.079  
G06  23226795.724   122057705.057        2014.445          33.220    23226801.420    91146983.575        1504.314          33.206  
G12  20313445.594                        1226.727          21.596  
G15  24777414.053   130206271.703       -3586.939          38.856  
G19  21704510.780                       -2150.922          25.204  
G24  20380787.374   107101810.083        -998.206          29.375    20380792.771    79978590.007        -745.426          34.411  
G25  22996172.281   120845897.015        3016.821          30.293    22996180.376    90241953.228        2252.746          38.024  
G32  23637873.840   124217962.102        2195.551          34.007    23637864.547    92760070.472        1639.612          26.300  
R01  22577565.776                       -3083.811          21.666  
R02  22437144.188   119728990.387         874.698          31.828  
R09  22919855.314   122390634.3821      -3247.229          26.859  
R11  20308925.324                        2239.589          28.951  
R20  20122240.363                         298.798          24.137  
R21  21656737.952   115889669.423        4131.233          35.011  
> 2019  5 20  8 51 16.9999707  0 25
C08  38560587.861   200795094.500         444.409          26.972  
C11  22251527.388   115869534.965         855.913          30.171  
C12  26153570.860                       -3016.582          20.320  
C13  38455119.075   200245810.0411       1312.939          27.551  
C20  25840376.779   134557621.400        -674.476          25.912  
C23  22005761.129   114589807.291         990.394          37.602  
E02                                                                                                                                  26609706.583   104422175.629        1769.661          27.420  
E08                                                                  24674150.841   129663607.0881        395.252          23.499    24674154.738    96826674.081         295.132          25.403  
E11                                                                  23987292.743   126053897.596        2734.642          27.304  
E12                                                                  23280165.377   122338288.083         169.819          26.256    23280174.970    91356333.5931        126.814          20.622  
E25                                                                  22908174.501   120383415.845         656.378          37.908    22908181.396    89896621.695         490.191          30.402  
G02  24152454.104   126921976.575        2862.793          32.587  
G06  23226444.667   122055849.106        2013.493          33.817    23226447.665    91145597.595        1503.625          32.649  
G12  20313251.928   106746752.7511       1228.226          28.123  
G15  24778127.259   130210016.567       -3587.322          36.006  
G19  21704946.978                       -2150.707          27.464  
G24  20381006.523   107102966.810        -999.185          30.674    20381013.418    79979453.731        -746.079          33.898  
G25  22995631.456   120843038.565        3015.991          34.222    22995638.051    90239818.624        2252.249          37.808  
G32  23637481.712   124215924.830        2194.814          33.836    23637478.114    92758549.237        1638.880          27.145  
R01  22578177.653                       -3086.981          24.065  
R02  22437011.080   119728276.893         873.469          31.160  
R09  22920482.480                       -3248.262          27.521  
R11  20308537.692                        2238.534          26.591  
R20  20122221.476                         298.086          24.853  
R21  21656010.656   115885699.310        4130.539          32.787  
> 2019  5 20  8 51 17.9999707  0 26
C08  38560503.919   200794650.502         443.998          27.632  
C11  22251361.903   115868679.961         855.004          29.938  
C12  26154142.264                       -3019.034          18.868  
C13  38454865.151   200244497.651        1312.390          27.696  
C20  25840509.288   134558296.754        -675.354          25.530  
C23  22005569.861   114588817.758         989.533          37.881  
C28  26310786.522                        3612.285          21.115  
E02                                                                                                                                  26609255.995   104420406.203        1769.426          27.275  
E08                                                                  24674069.897   129663212.692         394.396          22.235    24674078.291    96826379.574         294.507          25.071  
E11                                                                  23986775.001   126051163.556        2734.041          26.314    23986752.517                        2039.271          23.553  
E12                                                                  23280118.609   122337849.224         168.859          24.996    23280139.895                         126.160          19.308  
E25                                                                  22908050.986   120382760.044         655.801          38.404    22908056.383    89896131.997         489.698          30.858  
G02  24151914.178   126919114.294        2862.281          32.926  
G06  23226063.031   122053836.421        2012.686          34.085    23226066.029    91144094.650        1502.944          32.439  
G12  20313021.388   106745529.418        1223.333          28.143  
G15  24778814.084   130213604.332       -3587.765          35.285  
G19  21705356.195                       -2151.555          26.396  
G24  20381192.094   107103966.968       -1000.158          31.839    20381204.686    79980200.590        -746.859          33.775  
G25  22995058.852   120840023.076        3015.490          34.623    22995063.349    90237566.821        2251.803          37.874  
G32  23637067.699   124213731.029        2193.801          32.232    23637058.405    92756911.025        1638.212          27.620  
R01  22578769.743   120696495.4231      -3087.508          26.041  
R02  22436855.188   119727404.714         872.179          29.621  
R09  22921089.860   122397290.5051      -3248.274          27.628  
R11  20308116.184                        2240.733          25.278  
R20  20122147.427                         294.940          22.532  
R21  21655218.904   115881569.722        4129.588          31.886  
> 2019  5 20  8 51 18.9999707  0 25
C08  38560420.876   200794207.125         443.377          28.281  
C11  22251197.616   115867826.039         853.922          29.522  
C12  26154728.358                       -3013.278          20.388  
C13  38454616.023   200243185.847        1311.804          27.957  
C20  25840635.800   134558973.502        -676.748          24.618  
C23  22005381.891   114587828.866         988.891          37.570  
C28  26310096.699                        3610.590          22.181  
E02                                                                                                                                  26608805.707   104418637.097        1769.107          27.919  
E08                                                                  24673995.249                         393.701          22.287    24674003.343    96826085.686         293.889          25.489  
E11                                                                  23986249.765   126048430.413        2733.143          25.324    23986232.976                        2040.961          24.111  
E12                                                                  23280094.026                         167.154          25.525  
E25                                                                  22907931.069   120382104.836         655.208          38.744    22907932.268    89895642.786         489.210          30.381  
G02  24151371.553   126916252.608        2861.686          33.288  
G06  23225682.295   122051824.649        2011.771          34.552    23225683.494    91142592.348        1502.302          31.781  
G12  20312793.246                        1223.139          27.993  
G15  24779499.709   130217192.553       -3588.221          35.101  
G19  21705766.610   114064506.8071      -2151.121          28.184  
G24  20381382.463   107104967.972       -1001.004          31.751    20381396.253    79980948.203        -747.613          34.086  
G25  22994491.045   120837008.243        3014.832          33.612    22994491.345    90235315.479        2251.342          37.629  
G32  23636660.281   124211538.097        2192.931          30.382    23636643.192    92755273.355        1637.670          28.152  
R01  22579337.250   120699583.888       -3088.465          26.689  
R02  22436680.409   119726533.847         870.867          28.998  
R09  22921696.340   122400539.552       -3249.048          27.193  
R11  20307684.183                        2241.250          23.414  
R20  20122068.282                         299.533          21.508  
> 2019  5 20  8 51 19.9999708  0 28
C08  38560370.511                         443.103          25.277  
C11  22251063.309   115867128.653         853.495          27.636  
C12  26155332.440                       -3010.774          21.218  
C13  38454394.776   200242030.167        1311.790          29.475  
C20  25840791.392   134559806.423        -676.811          25.308  
C23  22005214.307   114586996.384         988.592          35.562  
C25  22715929.889                       -1808.932          30.051  
C28  26309430.260                        3606.151          22.232  
E02                                                                                                                                  26608383.300   104416985.638        1769.104          27.522  
E08                                                                  24673949.080                         393.250          23.455    24673959.873                         294.289          24.395  
E11                                                                  23985761.403   126045854.702        2733.252          25.159    23985738.918                        2041.506          24.373  
E12                                                                  23280082.634                         168.154          25.818  
E25                                                                  22907834.836   120381607.302         655.076          38.160    22907835.735    89895271.234         489.197          32.272  
G02  24150856.510   126913548.551        2861.599          31.438  
G06  23225330.338   122049970.834        2011.357          35.038    23225332.137    91141208.055        1501.938          32.035  
G12  20312594.184                        1228.027          23.211  
G15  24780212.916   130220938.247       -3588.152          33.594  
G17  23707359.137                       -2928.517          26.484  
G19  21706212.102   114066816.587       -2152.238          25.834  
G24  20381623.196   107106127.041       -1001.526          34.431    20381618.099    79981813.679        -747.831          34.522  
G25  22993939.427   120834151.143        3014.642          32.272    22993946.622    90233181.895        2251.229          37.825  
G32  23636266.054   124209503.261        2192.378          29.148    23636255.561                        1637.978          25.275  
R01  22579940.732                       -3089.601          25.308  
R02  22436542.205   119725823.772         870.050          28.098  
R09  22922327.403                       -3248.776          25.825  
R11  20307340.621   108516100.6651       2238.952          26.719  
R20  20122051.194                         295.506          24.863  
R21  21653699.256                        4127.753          25.901  
